Time_Start,Day_Of_Year,Latitude,Longitude,GPS_Altitude,Pressure_Altitude,Ground_Speed,True_Air_Speed,Mach_Number,Vertical_Speed,True_Heading,Track_Angle,Drift_Angle,Pitch_Angle,Roll_Angle,Static_Air_Temp,Potential_Temp,Total_Air_Temp,Static_Pressure,Cabin_Pressure,Wind_Speed,Wind_Direction,Solar_Zenith_Angle,Aircraft_Sun_Elevation,Sun_Azimuth,Aircraft_Sun_Azimuth
40140,32,32.009511,-81.1288822,7,-35,0.1,45.87,0.069,0,273.3,273.3,0,4.71,0.16,19.2,291.1,19.4,1014.6,1009.4,23.5,273.3,105.2,-10.4,101,-172.4
40141,32,32.009511,-81.1288822,7,-35,0.1,46.07,0.069,0,273.32,273.3,0,4.72,0.13,23,294.9,23.3,1014.6,1009.9,23.6,273.3,105.2,-10.3,101,-172.4
40142,32,32.0095113,-81.1288785,6.9,-35,0.8,46.26,0.069,0,273.38,273.4,0,4.81,0.16,24.7,296.6,25,1014.6,1014.1,23,273.4,105.2,-10.3,101,-172.4
40143,32,32.0095119,-81.1288636,6.9,-35,2.3,46.46,0.069,0,273.41,273.4,0,4.98,0.19,25.8,297.7,26.1,1014.6,1011.4,21.6,273.4,105.2,-10.1,101,-172.5
40144,32,32.0095136,-81.1288268,6.9,-35,5.1,46.65,0.069,0,273.6,273.6,0,5.33,0.2,27.3,299.2,27.6,1014.5,1013.6,18.9,273.6,105.2,-9.7,101,-172.7
40145,32,32.0095172,-81.1287521,6.9,-35,9.5,20.8,0.069,0,273.78,273.8,0,5.28,0.25,26,297.9,26.3,1014.5,1016,1.2,273.6,105.2,-9.8,101,-172.8
40146,32,32.0095229,-81.1289694,7,-35,14.6,30.91,0.046,0,273.66,273.7,0,4.96,0.16,22.8,294.7,22.9,1014.5,1019,1.3,273.2,105.2,-10.1,101,-172.7
40147,32,32.0095303,-81.1291327,7.1,-35,19.7,40.43,0.06,0,273.14,273.1,0,4.99,-0.83,19.3,291.2,19.5,1014.5,1018.3,1.1,273.9,105.2,-9.9,101,-171.9
40148,32,32.009538,-81.1292411,7.2,-35,25,51.9,0.078,0.1,273.11,273.1,0,4.99,-1.58,15.6,287.6,16,1014.6,1016.2,1.7,273.3,105.2,-9.8,101,-171.7
40149,32,32.0095469,-81.1296368,7.3,-37,30.3,61.43,0.092,0,273.27,272.1,-0.9,4.9,-1.84,12.9,284.9,13.4,1014.6,1015.5,1.4,298.6,105.2,-9.9,101,-171.8
40150,32,32.0095577,-81.1299768,7.4,-40,35.5,70.95,0.108,0.1,273.3,272.1,-1,4.88,-1.81,11,283,11.6,1014.7,1016.6,1.3,309.7,105.2,-9.9,101,-171.8
40151,32,32.0095694,-81.1302611,7.6,-45,40.8,80.67,0.123,0.1,273.05,271.8,-1,4.83,-2.11,9.4,281.4,10.3,1014.9,1016.2,1.1,324.5,105.2,-9.9,101,-171.5
40152,32,32.0095804,-81.1308337,7.8,-47,45.8,90.97,0.139,0.3,272.86,271.4,-1.2,7.09,-2.16,8.9,280.9,10,1015,1017.1,1.5,321.8,105.2,-7.6,101,-171.3
40153,32,32.0095889,-81.1313537,8.1,-42,50.7,99.33,0.152,0.9,272.74,270.9,-1.6,8.05,-1.92,7.9,279.9,9.2,1014.8,1017.2,1.7,348.1,105.2,-6.7,101,-171.3
40154,32,32.0095943,-81.1318255,8.9,-27,55,108.27,0.167,1.5,272.46,270.4,-1.8,7.99,-2.1,7.7,279.7,9.2,1014.3,1015.4,2.1,342.1,105.2,-6.7,101,-171
40155,32,32.0095959,-81.1325971,11.1,-5,58.6,116.82,0.179,2.5,273.58,270,-3.4,12.43,-2.31,7.7,279.8,9.5,1013.4,1017.5,4,339.8,105.2,-2.3,101,-172.1
40156,32,32.0095941,-81.1333376,15.3,35,60.7,123.43,0.188,4.4,275.2,269.6,-5.3,17.74,-2.28,7.5,279.7,9.5,1012,1015.2,6.7,337.7,105.2,2.9,101,-173.6
40157,32,32.009589,-81.1337222,21.8,97,61.1,127.52,0.196,6.5,275.54,269.3,-6.1,22.24,-2.32,7,279.4,9.2,1009.7,1012.4,8.2,329.3,105.2,7.4,101,-173.9
40158,32,32.0095808,-81.1344488,33.6,180,61.2,130.82,0.201,7.7,275.32,269.1,-6.1,23.54,-0.79,7,279.6,9.3,1006.7,1009.9,9.3,321.1,105.2,8.6,101,-174.1
40159,32,32.0095719,-81.1351724,52.3,272,61.7,136.46,0.209,8.2,275.54,269.2,-6.2,23.12,0.38,6.5,279.4,8.9,1003.4,1006.5,11.2,313,105.2,8,101,-174.6
40160,32,32.0095654,-81.1358885,76.3,370,62.6,136.07,0.209,8.4,275.62,269.5,-6,23.54,0.32,6.3,279.5,8.8,999.7,1002.3,10.2,316.3,105.2,8.5,101,-174.7
40161,32,32.0095605,-81.1365986,102.9,457,62.4,137.82,0.212,9.3,275.55,269.5,-5.9,26.89,-0.76,6.1,279.5,8.6,996.6,1000.5,11,312.2,105.2,11.9,101,-174.2
40162,32,32.0095548,-81.1369761,130.6,572,60.8,137.82,0.212,10.5,276.33,269.4,-6.8,30.04,1.3,6,279.8,8.5,992.5,996,12.8,311.2,105.2,14.9,101,-175.6
40163,32,32.0095502,-81.1377122,159.8,697,59.6,138.6,0.213,11.1,277.68,269.7,-7.8,31.24,1.93,5.8,279.9,8.4,988,991.5,14.8,311.7,105.2,16.1,101,-177.1
40164,32,32.0095482,-81.1384607,192.9,820,58.3,137.43,0.212,11.6,278.65,269.9,-8.5,32.77,1.95,5.5,280,8,983.6,988.7,15.8,312.8,105.2,17.7,101,-178.1
40165,32,32.0095488,-81.1388804,228.8,957,57.1,136.85,0.211,11.9,279.4,270.2,-9,33.06,1.35,5.3,280.2,7.8,978.7,983.8,16.7,312.4,105.2,18.1,101,-178.6
40166,32,32.009552,-81.1396506,266.3,1092,57,136.26,0.21,11.6,279.39,270.4,-8.8,32.54,-0.69,5.1,280.4,7.6,973.8,977.4,16.4,312.2,105.2,17.6,101,-178
40167,32,32.0095561,-81.1400768,305.1,1220,57.1,133.74,0.206,11.3,279.2,270.5,-8.6,32.11,0.38,5,280.6,7.4,969.4,972.9,15.1,314.2,105.2,17.2,101,-178.1
40168,32,32.0095612,-81.1408451,343.8,1342,57.3,131.79,0.203,11,278.89,270.7,-8,31.65,0.8,5.4,281.4,7.7,965,968,13.8,315.3,105.2,16.7,101,-177.9
40169,32,32.0095687,-81.1412685,381.4,1457,57.2,131.4,0.202,10.8,277.5,270.9,-6.5,31.88,-1.09,6.5,282.8,8.7,961,963.8,12.6,308.9,105.2,17,101,-175.9
40170,32,32.0095753,-81.1420377,418,1580,57,130.82,0.201,10.7,276.24,270.6,-5.4,31.48,-0.78,6.5,283.2,8.8,956.7,959.2,12,304.1,105.2,16.5,101,-174.8
40171,32,32.0095799,-81.1424661,453.7,1695,56.8,130.24,0.2,10.6,276.36,270.4,-5.7,31.18,-0.68,6.9,284,9.2,952.7,954.8,12,305.7,105.2,16.2,101,-174.9
40172,32,32.0095819,-81.1432366,489,1807,56.8,128.88,0.198,10.4,277.66,270.3,-7.1,30.82,-0.93,7.4,284.8,9.6,948.7,951.3,12.3,313.8,105.1,15.9,101,-176.2
40173,32,32.0095849,-81.1436653,523.9,1917,56.8,127.32,0.195,10.2,278.89,270.4,-8.3,31.1,-1.41,7.7,285.4,9.9,945,947.7,12.5,320.9,105.1,16.2,101.1,-177.2
40174,32,32.0095881,-81.1444383,558.2,2025,56.7,124.99,0.191,10,278.77,270.4,-8.2,30.87,-1.37,8.4,286.5,10.4,941.2,943,11.6,323.9,105.1,16,101.1,-177.1
40175,32,32.0095917,-81.1448661,591.7,2135,57.3,124.21,0.19,9.5,277.73,270.4,-7.1,28.89,-1.63,8.7,287.1,10.7,937.5,939.2,10.2,323.7,105.1,14,101.1,-176.1
40176,32,32.0095954,-81.145629,624.6,2230,58.1,126.16,0.193,9,276.44,270.4,-5.9,26.87,-2.07,9.6,288.3,11.7,934.2,935.1,9.4,317.1,105.1,12.1,101.1,-174.7
40177,32,32.0095984,-81.146383,656.4,2325,59,127.32,0.194,8.6,275.2,270.3,-4.8,25.35,-2.54,10,289,12.1,931,932.2,8.4,312.1,105.1,10.6,101.1,-173.4
40178,32,32.0095995,-81.1467842,686.3,2410,59.8,128.68,0.196,8.4,274.35,270,-4.2,24.85,-2.93,9.8,289.1,12,928,928.1,8,309,105.1,10.1,101.1,-172.4
40179,32,32.0095976,-81.1475223,714.8,2497,60.2,129.65,0.198,8.4,273.93,269.6,-4.1,25.15,-2.68,10,289.5,12.3,925.1,925.8,8.1,308.2,105.1,10.4,101.1,-172.1
40180,32,32.0095923,-81.1482574,742,2585,60.3,131.99,0.201,8.7,273.87,269.5,-4.2,25.21,-0.9,10.5,290.3,12.8,922.1,922.7,9,304.5,105.1,10.2,101.1,-172.5
40181,32,32.009587,-81.1486502,769.2,2677,60.1,133.15,0.203,8.9,273.44,269.4,-3.8,26.05,-1.19,10.6,290.7,13,919,920.7,9.5,299.8,105.1,11.1,101.1,-172
40182,32,32.0095808,-81.1493903,796.9,2772,59.4,134.12,0.204,9.4,272.96,269.2,-3.5,27.72,-1.43,10.8,291.2,13.2,915.8,916.9,10.5,294.8,105.1,12.8,101.1,-171.4
40183,32,32.0095722,-81.1501405,825.4,2875,58.3,133.54,0.204,10,272.74,268.9,-3.6,29.49,-1.79,10.9,291.6,13.2,912.3,914,11.2,293.1,105.1,14.6,101.1,-171
40184,32,32.0095609,-81.1505592,855.3,2990,57.4,132.96,0.203,10.3,273.18,268.6,-4.3,29.69,-1.07,10.9,292,13.2,908.4,909.8,12.1,295.5,105.1,14.7,101.1,-171.6
40185,32,32.0095482,-81.1513276,887.1,3102,57.2,132.57,0.202,10.1,273.83,268.6,-5.1,28.22,-0.5,10.9,292.3,13.3,904.7,905.6,12.4,298.7,105.1,13.2,101.1,-172.5
40186,32,32.0095359,-81.1517489,920.3,3210,58.1,132.57,0.202,9.4,273.72,268.7,-4.8,25.61,-0.74,10.8,292.5,13.1,901.1,901.9,11.5,299.9,105.1,10.6,101.1,-172.4
40187,32,32.0095239,-81.1525011,953.5,3302,59.4,132.38,0.202,8.6,273.11,268.7,-4.2,23.62,-1.32,10.7,292.7,13,898,898.4,10,300.3,105.1,8.7,101.1,-171.7
40188,32,32.0095098,-81.1532369,985,3387,60.6,133.15,0.203,8.1,272.81,268.6,-4,22.32,-0.7,10.5,292.8,12.9,895.2,895.8,9.2,301.7,105.1,7.3,101.1,-171.6
40189,32,32.0094964,-81.15362,1014,3470,61.8,134.51,0.205,7.7,273.18,268.6,-4.4,20.95,0.46,10.3,292.8,12.7,892.5,893,9.1,306.2,105.1,5.8,101.1,-172.3
40190,32,32.0094839,-81.1543332,1041,3550,63.1,136.46,0.208,7.4,273.97,268.8,-5,19.53,1.07,10.2,293,12.6,889.8,889.9,9.3,311.7,105.1,4.4,101.1,-173.3
40191,32,32.0094739,-81.1550322,1066.7,3622,64.4,138.79,0.212,7.1,274.75,269.1,-5.4,18.86,0.81,10.3,293.3,12.8,887.5,889.4,9.7,315.7,105.1,3.8,101.1,-173.9
40192,32,32.0094664,-81.1557183,1091.1,3695,65.5,141.32,0.216,7.2,275.18,269.4,-5.6,18.72,0.79,9.8,293,12.4,885,885.7,10,316.4,105.1,3.7,101.1,-174.4
40193,32,32.0094617,-81.1563927,1114.6,3775,66.7,144.23,0.22,7.1,275.07,269.6,-5.3,17.8,0.19,9.6,293,12.3,882.5,883.2,10.1,314.2,105.1,2.8,101.1,-174.1
40194,32,32.0094584,-81.1570538,1137.8,3850,68,147.34,0.225,7.1,274.69,269.7,-4.8,17.36,-0.31,9.4,293.1,12.3,880,880,10,311,105.1,2.5,101.1,-173.6
40195,32,32.009456,-81.1580452,1161.1,3925,69.1,150.84,0.231,7.2,274.54,269.8,-4.6,17.3,0.33,9.2,293.1,12.3,877.5,877.2,10.4,307.7,105.1,2.3,101.1,-173.6
40196,32,32.009455,-81.1586821,1184.1,4005,70.1,154.54,0.236,7.4,274.51,270,-4.4,17.36,0.99,9.1,293.2,12.2,875,874.1,11.1,304.3,105.1,2.3,101.1,-173.8
40197,32,32.0094563,-81.1593082,1207.4,4082,71.2,157.84,0.241,7.5,274.69,270.3,-4.3,17.16,1.96,8.8,293.2,12.1,872.4,871.2,11.6,302.8,105.1,2,101.1,-174.2
40198,32,32.0094617,-81.1602675,1231.3,4162,71.9,160.95,0.246,7.9,275.19,270.7,-4.4,17.87,2.58,8.6,293.2,12.1,869.8,868.7,12.5,302,105.1,2.7,101.1,-174.9
40199,32,32.0094725,-81.1608781,1255.8,4247,72.2,164.06,0.251,8.6,275.5,271.2,-4.2,18.97,2.64,8.8,293.7,12.3,867.1,865.7,13.5,299.1,105.1,3.8,101.1,-175.2
40200,32,32.0094885,-81.161829,1281.1,4350,72.6,166.98,0.255,8.9,276.04,271.6,-4.3,18.96,3.02,8.2,293.4,11.8,863.8,863.1,14.6,298.6,105.1,3.8,101.1,-175.8
40201,32,32.00951,-81.1624316,1308.2,4442,73.1,169.5,0.26,9.2,276.77,272.1,-4.5,19.73,2.87,7.8,293.3,11.6,860.8,860.8,15.5,299.3,105.1,4.6,101.1,-176.5
40202,32,32.0095377,-81.163378,1337,4540,72.4,170.67,0.261,10.2,276.89,272.7,-4.1,22.16,2.33,8.1,293.9,11.9,857.7,857.2,16.5,295.6,105.1,7.1,101.1,-176.4
40203,32,32.0095698,-81.1639917,1366.7,4655,71.2,171.84,0.263,11.2,276.36,273,-3.2,24.38,1.59,7.9,294,11.8,854,852.2,17.8,289.9,105.1,9.3,101.1,-175.7
40204,32,32.0096035,-81.1646194,1398.7,4787,69.8,172.81,0.265,11.9,276.19,273.2,-2.8,25.35,1.49,7.7,294.2,11.6,849.8,849.1,19.5,286.9,105.1,10.3,101.1,-175.5
40205,32,32.0096401,-81.1656038,1434,4917,68.7,173.97,0.267,12.4,276.07,273.5,-2.4,26.52,1.41,7.6,294.5,11.6,845.7,844.8,21.1,284.5,105.1,11.5,101.1,-175.3
40206,32,32.0096789,-81.1662599,1472.4,5050,66.9,172.22,0.264,13.1,275.62,273.8,-1.7,28.51,1.16,7.7,295.1,11.6,841.5,841.3,21.8,281.2,105,13.5,101.1,-174.8
40207,32,32.0097196,-81.166938,1512.5,5192,64.6,170.09,0.261,13.8,274.51,274.1,-0.3,30.3,0.81,8.2,296,12,837,837.2,22.9,275.7,105,15.2,101.1,-173.5
40208,32,32.0097617,-81.1676366,1554.5,5350,63.4,168.53,0.258,13.7,272.91,274.3,1.5,29.78,0.58,8.6,297,12.4,832.1,831.3,23.4,269.1,105,14.6,101.1,-171.8
40209,32,32.0098042,-81.1683414,1598.9,5502,63.5,165.81,0.254,13.1,271.83,274.3,2.6,28.3,0.71,8.8,297.7,12.4,827.3,827.5,22,264.7,105,13,101.1,-170.9
40210,32,32.009847,-81.1690417,1644.3,5625,63.9,162.51,0.249,12.3,271.8,274.3,2.6,27.8,0.11,8.6,297.8,12.1,823.6,824.5,20,263.8,105,12.6,101.1,-170.7
40211,32,32.0098897,-81.1694,1688.2,5747,63.2,161.53,0.247,12.3,272.7,274.3,1.8,28.33,-0.21,8.6,298.2,12,819.8,820.9,20,267.6,105,13.3,101.1,-171.4
40212,32,32.0099324,-81.1701112,1729.7,5877,62.2,160.37,0.245,12.3,273.82,274.4,0.8,28.76,0.02,8.6,298.6,12,815.8,815.6,20.3,272,105,13.7,101.1,-172.6
40213,32,32.0099756,-81.1708328,1770.1,6007,61.3,159.59,0.244,12.3,274.22,274.5,0.5,28.71,0.12,8.4,298.8,11.8,811.8,810.8,20.8,273.4,105,13.7,101.1,-173
40214,32,32.0100199,-81.1715622,1810.7,6142,60.8,158.62,0.243,12,274.08,274.7,0.8,28.07,0.46,7.9,298.8,11.2,807.7,806.7,20.8,272.3,105,13,101.1,-173
40215,32,32.0100654,-81.1722951,1851.3,6270,60.7,157.84,0.242,11.6,273.63,274.8,1.4,27.05,0.57,7.9,299.2,11.1,803.8,803.4,20.6,270.2,105,12,101.1,-172.6
40216,32,32.0101118,-81.1726841,1891.5,6392,61,156.67,0.24,11.1,273.32,274.9,1.7,25.78,0.35,7.2,298.8,10.5,800.1,800.6,19.7,268.4,105,10.7,101.1,-172.3
40217,32,32.0101588,-81.1734122,1930.5,6507,61.5,156.09,0.239,10.5,273.34,274.9,1.7,24.51,-0.34,7.4,299.4,10.6,796.6,796.2,18.9,268.3,105,9.6,101.1,-172.1
40218,32,32.0102054,-81.1741344,1968.1,6615,62.1,156.09,0.239,10,273.76,274.8,1.2,23.29,-1.1,6.9,299.2,10.1,793.4,792.1,18.2,270.2,105,8.5,101.1,-172.3
40219,32,32.0102513,-81.1748494,2003.8,6717,62.8,154.92,0.238,9.5,274.3,274.6,0.5,22.15,-1.22,6.7,299.3,9.9,790.3,791,16.9,273.2,105,7.4,101.1,-172.9
40220,32,32.0102954,-81.175554,2037.7,6812,63.5,154.54,0.237,9.1,274.83,274.6,-0.1,21.75,-0.12,6.4,299.3,9.6,787.4,787.1,16,275.7,105,6.9,101.1,-173.7
40221,32,32.0103418,-81.1762552,2069.9,6905,63.9,153.95,0.237,9.1,274.98,274.7,-0.1,22.01,0.79,6.2,299.4,9.3,784.7,782.7,15.3,276.1,105,7,101.1,-174.1
40222,32,32.0103904,-81.1766105,2100.6,7002,64.1,154.15,0.237,9.1,274.53,274.9,0.6,21.91,1.34,6,299.5,9.1,781.8,779.4,15.2,273,105,6.8,101.1,-173.8
40223,32,32.0104414,-81.1773065,2130.8,7102,64.4,155.31,0.239,9,273.64,275.2,1.7,21.47,1.61,5.8,299.6,8.9,778.9,777.5,15.6,267.2,105,6.3,101.1,-173
40224,32,32.010495,-81.177998,2161.1,7200,65,156.48,0.241,8.8,272.86,275.4,2.7,20.46,2.29,5.5,299.6,8.7,775.9,774.7,15.8,262.4,105,5.2,101.1,-172.5
40225,32,32.010551,-81.1786816,2191.2,7297,66,157.45,0.242,8.4,272.68,275.5,3,19.06,2.49,5.1,299.5,8.4,773.1,771.8,15.4,260.5,105,3.7,101.1,-172.3
40226,32,32.0106101,-81.1793534,2221,7385,67.3,157.84,0.243,7.9,272.99,275.7,2.9,17.96,2.25,5,299.7,8.3,770.5,770.1,14.3,260.2,105,2.7,101.1,-172.6
40227,32,32.0106723,-81.1803559,2249.7,7460,68.4,158.03,0.243,7.7,273.52,276,2.6,17.92,2.31,4.7,299.6,8,768.3,767.5,13.3,260.7,105,2.7,101.1,-173.1
40228,32,32.0107376,-81.1810042,2276.7,7542,69.1,158.62,0.244,7.8,274.17,276.4,2.3,18.43,3.59,4.6,299.8,7.9,765.9,766.5,12.8,262.1,105,3.1,101.1,-174.1
40229,32,32.0108105,-81.1816487,2302.6,7625,69.6,159.59,0.246,8,274.77,277.1,2.4,18.83,6.36,4.4,299.8,7.7,763.4,761.2,12.9,262.1,105,3.2,101.1,-175.4
40230,32,32.010894,-81.1822887,2328.5,7720,70.4,162.12,0.25,8.1,274.76,278.1,3.5,17.82,10.34,4.2,299.9,7.7,760.7,759.6,13.7,257.4,105,1.8,101.1,-176.6
40231,32,32.0109912,-81.1832634,2355.2,7810,71.6,164.84,0.254,7.7,274.52,279.3,4.9,16.62,12.84,4.1,300.1,7.7,758.1,757.2,14.7,250.6,105,0.3,101.1,-177
40232,32,32.0111046,-81.1838834,2382.4,7885,72.9,167.75,0.259,7.5,275.36,280.8,5.5,16.5,14.65,3.9,300.1,7.6,755.9,754.7,15.4,248.6,105,0.2,101.2,-178.3
40233,32,32.0112392,-81.1848386,2408.8,7967,74.1,171.06,0.264,7.6,277.23,282.6,5.5,15.93,16.74,3.7,300.2,7.5,753.6,752.5,15.8,251.2,105,0,101.2,179.4
40234,32,32.0113993,-81.1854439,2434.2,8052,75.4,173.39,0.268,7.5,279.56,284.8,5.3,15.38,19,3.5,300.2,7.5,751.1,750.2,15.7,253.6,105,0.1,101.2,176.7
40235,32,32.01159,-81.1863881,2459.7,8127,76.5,175.92,0.272,7.8,282.12,287.5,5.4,15.99,21.19,3.2,300.2,7.3,749,750.1,16,255.5,105,1.5,101.2,173.8
40236,32,32.0118172,-81.1869906,2485.2,8215,77.6,178.64,0.276,8.1,284.26,290.5,6.3,16.35,22.99,3,300.2,7.2,746.5,747.2,17,254.5,105,2.6,101.2,171.5
40237,32,32.0120823,-81.1875971,2511.1,8310,78.8,180.78,0.279,8.1,286.09,293.5,7.4,15.8,24.62,3.1,300.7,7.5,743.7,748.7,18,251.7,105,2.9,101.2,169.5
40238,32,32.0123839,-81.1885503,2538,8400,80.2,182.53,0.282,7.9,288.2,296.2,8,15.04,26.25,2.7,300.5,7.1,741.2,745.3,18.3,250.6,105,3.1,101.2,167.3
40239,32,32.0127228,-81.1891648,2565.5,8482,81.7,184.08,0.285,7.6,290.8,299,8.3,14.2,28.04,2.6,300.7,7.1,738.8,744,18.1,250.7,105,3.7,101.2,164.8
40240,32,32.0131016,-81.1901296,2592.4,8565,83.3,185.64,0.287,7.3,293.64,302.1,8.4,13.3,30.1,2.5,300.8,7,736.5,744.9,17.9,250.6,105,4.5,101.2,162
40241,32,32.0135234,-81.1907607,2618.4,8640,85.2,187.39,0.29,7,296.67,305.3,8.6,12.41,32.46,2.3,300.9,6.9,734.4,746.2,17.6,250.2,104.9,5.6,101.2,159.2
40242,32,32.0139916,-81.191407,2643.4,8710,86.8,189.14,0.292,6.7,299.99,308.8,8.9,11.77,33.23,2.2,301,6.9,732.4,744.4,17.6,250.9,104.9,6.8,101.2,156.3
40243,32,32.0145074,-81.1920771,2667.3,8782,88.4,190.5,0.295,6.5,303.16,312.5,9.3,11.3,32.43,2,301,6.8,730.3,744.9,17.9,250.1,104.9,7.6,101.2,153.6
40244,32,32.0150676,-81.1927729,2690.3,8860,90,191.27,0.296,6.1,305.93,315.6,9.7,9.99,29.11,2.2,301.5,7,728.2,744.8,18,248.6,104.9,6.4,101.2,151.4
40245,32,32.0156653,-81.193489,2712.5,8917,91.6,191.86,0.297,5.5,308.78,318.2,9.4,8.84,28.54,1.7,301.1,6.5,726.6,746.1,17.2,247.9,104.9,6.2,101.2,148.9
40246,32,32.0163009,-81.1942279,2733.8,8970,93.2,193.02,0.299,5.3,311.61,321.1,9.5,8.66,28.58,1.3,300.9,6.2,725.1,745.4,17,247.2,104.9,7.1,101.2,146.4
40247,32,32.0169755,-81.1946538,2753.1,9032,94.8,193.8,0.3,5.3,313.97,324.2,10.2,8.55,29.27,1.1,300.9,6.1,723.4,745.1,18,244.8,104.9,8.2,101.2,144.2
40248,32,32.0176867,-81.1954549,2771.4,9095,96.3,193.8,0.3,4.9,316.15,326.9,10.8,8.14,29.88,1.7,301.7,6.7,721.7,745.4,18.7,242,104.9,8.9,101.2,142.2
40249,32,32.018432,-81.1959431,2789.3,9145,98,194.58,0.302,4.5,318.6,329.5,10.9,7.3,30.78,1.3,301.4,6.3,720.3,744.3,18.9,240.4,104.9,9.7,101.2,140.1
40250,32,32.0192115,-81.196463,2806.4,9192,99.8,196.72,0.305,4.1,321.63,332.3,10.6,6.3,31.75,1.2,301.5,6.3,719,746.1,18.7,241.2,104.9,10.6,101.2,137.4
40251,32,32.0200262,-81.19702,2822.3,9232,101.7,197.88,0.307,3.7,324.96,335.1,10.2,5.33,32.73,1,301.4,6.2,717.8,745.6,18,240.3,104.9,11.7,101.2,134.5
40252,32,32.0208765,-81.1972746,2836.8,9267,103.6,199.83,0.31,3.3,328.26,338.1,9.9,4.47,33.78,1,301.5,6.2,716.8,744.6,17.7,240.6,104.9,13,101.2,131.6
40253,32,32.0217611,-81.197577,2850,9297,105.5,201.58,0.313,3.2,332.02,341.4,9.3,4.81,33.58,0.8,301.4,6.2,716,744.7,17.2,240.7,104.9,14.3,101.2,128
40254,32,32.0226802,-81.1979411,2862,9330,107.1,200.8,0.312,3.8,336.34,345.4,9,5.78,32.43,0.8,301.5,6.1,715.1,745.9,17,238,104.9,15,101.2,123.6
40255,32,32.0236279,-81.1983715,2873.1,9385,108.5,201.58,0.313,3.8,339.54,348.7,9.1,5.54,31.89,0.5,301.4,5.8,713.6,745.6,17.6,238.4,104.9,15.2,101.2,120.5
40256,32,32.0245981,-81.1985167,2885.2,9420,109.8,201.19,0.312,3.8,342.49,351.7,9.2,5.66,31.01,0.7,301.7,6,712.7,744.3,18.2,237,104.9,15.1,101.2,117.5
40257,32,32.0255878,-81.1987224,2898.2,9465,111.1,201.38,0.312,3.9,345.54,354.9,9.3,5.99,30.82,0.5,301.6,5.8,711.4,743.9,19,237.1,104.9,15.5,101.2,114.4
40258,32,32.0265932,-81.1986452,2911,9507,112.3,201.58,0.313,4,348.78,357.8,9,6.57,30.12,0.6,301.9,6,710.2,744.4,19,236.5,104.9,15.5,101.2,111.1
40259,32,32.0276101,-81.1986309,2924.2,9545,113.2,201.38,0.313,4.4,352.47,1,8.5,7.22,29.47,0.3,301.7,5.6,709.2,744.6,18.8,236,104.9,15.4,101.2,107.2
40260,32,32.0286338,-81.1986805,2937.6,9605,114.1,201.77,0.313,4.4,355.57,3.8,8.2,6.49,29.43,0.4,302,5.8,707.6,744.6,18.7,236.4,104.9,15.3,101.2,104.3
40261,32,32.0296623,-81.1984413,2951.9,9655,115,201.38,0.313,3.9,358.21,6.1,7.9,5.47,29.68,0.3,302.1,5.6,706.2,743.8,18.9,235.1,104.9,15.4,101.2,101.9
40262,32,32.0306941,-81.1982506,2967,9700,115.8,202.16,0.314,3.4,0.44,8.3,7.8,4.36,29.77,0.1,302,5.5,704.9,743.9,19.1,236.4,104.9,15.4,101.2,99.9
40263,32,32.0317284,-81.1981049,2981.1,9735,116.7,201.77,0.314,2.6,2.65,10.3,7.6,3.3,30.08,0,302,5.3,704,744.8,19.5,235.3,104.9,15.6,101.2,97.9
40264,32,32.0327637,-81.1980062,2993.4,9737,117.6,200.41,0.311,2.3,5.77,12.8,6.9,3.02,29.66,0.3,302.3,5.5,703.9,743.3,19.8,232.4,104.9,15.2,101.2,94.9
40265,32,32.0337957,-81.1976201,3003.3,9770,118.4,200.8,0.312,2,8.73,15.2,6.4,2.28,29.14,-0.2,301.9,5.1,703.1,741.8,19.6,231.7,104.9,14.6,101.2,92.1
40266,32,32.0348224,-81.1972874,3011.5,9795,119.2,202.16,0.314,1.8,11.46,17.6,6.1,1.68,28.58,-0.2,302,5.2,702.4,743.7,19.3,232.8,104.9,14,101.2,89.5
40267,32,32.0358425,-81.1970061,3019,9815,119.9,202.16,0.314,1.6,14.55,19.9,5.3,1.64,27.45,-0.3,301.9,5.1,701.8,744.2,19,230.6,104.9,12.7,101.2,86.5
40268,32,32.0368532,-81.1964336,3025.7,9817,120.6,202.16,0.314,1.9,17.91,22.4,4.4,2.1,23.92,-0.4,301.8,5,701.8,744.3,18.8,228.1,104.9,8.9,101.2,83.3
40269,32,32.0378512,-81.1959138,3031.7,9847,121.1,201.96,0.314,2.1,20.7,24.6,3.9,2.3,22.01,-0.4,301.9,5,700.9,743.4,18.8,226.7,104.9,6.8,101.2,80.6
40270,32,32.0388362,-81.1954384,3037.6,9872,121.5,202.35,0.315,2.3,22.84,26.6,3.7,2.91,19.75,-0.6,301.8,4.9,700.3,745.6,18.9,227.8,104.9,4.2,101.2,78.6
40271,32,32.0398073,-81.1946595,3044.8,9900,121.7,201.77,0.314,2.7,24.48,28.5,3.9,3.99,17.93,-0.6,301.9,4.8,699.5,745.4,19.6,230.3,104.9,2.1,101.2,77.1
40272,32,32.0407625,-81.1942592,3052.5,9922,121.5,202.16,0.314,3.2,26.19,30.2,3.9,5.52,16.81,-0.6,302,4.8,698.9,745.1,19.2,232.5,104.8,0.4,101.2,75.6
40273,32,32.041699,-81.1935481,3061.1,9942,121.1,200.22,0.311,4.3,28.7,31.9,3.2,8.5,13.38,-0.6,302,4.7,698.4,743.9,19.1,229.4,104.8,-4,101.2,73.6
40274,32,32.0426093,-81.1928653,3071.3,9990,119.4,197.69,0.307,6.3,32.12,33.8,1.6,13.59,11.94,-0.3,302.5,4.9,697.1,744.9,18,223.3,104.8,-7.5,101.2,71.1
40275,32,32.0434822,-81.1922033,3084,10075,116.6,194,0.302,8.1,34.32,35.6,1.2,16.7,12.38,-0.3,302.8,4.7,694.8,744.6,17,223.1,104.8,-8.7,101.2,69.3
40276,32,32.0443176,-81.1912104,3102.2,10170,113.9,189.91,0.296,8.9,35.24,37.1,1.8,19.02,12.08,-0.4,303,4.3,692.2,743.9,16.6,228.1,104.8,-9.9,101.2,68.9
40277,32,32.0451205,-81.1905669,3127.1,10272,111.6,185.64,0.289,9,35.68,38.3,2.5,19.22,10.33,-0.9,302.8,3.7,689.5,744.7,16.8,233.4,104.8,-11.8,101.2,69
40278,32,32.0458983,-81.1899261,3155.9,10372,109.8,182.33,0.284,8.8,36.78,39.1,2.3,19.08,8.59,-1.1,302.9,3.3,686.8,744.6,16.5,232.4,104.8,-13.8,101.2,68.4
40279,32,32.0466559,-81.1892858,3186.2,10472,108.2,177.67,0.277,8.3,38.22,39.8,1.5,18.36,7.62,-1.2,303.1,2.9,684.1,745.1,17,228.3,104.8,-15,101.2,67.2
40280,32,32.0473968,-81.1883028,3216.2,10552,106.9,173,0.27,7.8,39.58,40.5,0.8,17.86,7.72,-1.2,303.4,2.8,682,746.3,18,225.1,104.8,-15.2,101.2,65.7
40281,32,32.0481212,-81.1876637,3244.9,10637,105.5,169.7,0.264,7.4,40.18,41.1,0.8,18.01,5.83,-1.6,303.3,2.2,679.7,746.1,18.3,225.5,104.8,-17.2,101.2,65.6
40282,32,32.0488298,-81.1870237,3271.8,10715,104,166.2,0.259,7.4,40.65,41.7,1,19.74,5.52,-1.5,303.6,2.1,677.7,745.7,18.6,226.5,104.8,-18.3,101.2,65.7
40283,32,32.0495186,-81.1863787,3297.4,10797,101.7,163.67,0.255,8,41.2,42.3,1,22.18,3.69,-1.6,303.8,1.9,675.5,746.4,17.6,227.6,104.8,-21.1,101.2,66.4
40284,32,32.0501849,-81.1853799,3322.2,10892,99,160.17,0.25,8.8,41.98,42.7,0.7,24.36,2.95,-1.7,304,1.7,673,747.3,16.6,226.3,104.8,-22.9,101.2,66.7
40285,32,32.0508298,-81.1847114,3348.4,10992,96.5,157.84,0.246,9.3,42.76,43.1,0.2,25.74,1.84,-2,304,1.3,670.4,746.8,15.3,224.9,104.8,-24.7,101.2,66.8
40286,32,32.0514557,-81.1840288,3377,11100,94.1,154.54,0.241,9.7,43.49,43.3,-0.2,27.46,1.16,-1.8,304.6,1.3,667.6,746.4,14.6,222.3,104.8,-26.3,101.2,67.1
40287,32,32.0520635,-81.1833308,3407.6,11207,91.7,150.45,0.235,10.1,43.88,43.5,-0.5,29.47,0.83,-2.2,304.5,0.8,664.7,746.4,14.3,221.4,104.8,-27.5,101.3,67.7
40288,32,32.0526565,-81.1826192,3439.7,11315,89.9,148.31,0.231,10.4,44.01,43.6,-0.5,30.52,1.39,-2,305.1,0.9,662,746.8,13.6,221.3,104.8,-27.5,101.3,67.9
40289,32,32.0532382,-81.1822416,3472.9,11437,88.7,145.79,0.228,10.4,43.84,43.7,-0.2,30.23,1.93,-2.5,305,0.3,658.8,748.7,13.7,222.9,104.8,-26.8,101.3,67.7
40290,32,32.0538128,-81.1815161,3507.4,11547,88.2,143.07,0.223,10.1,43.33,43.9,0.5,29.33,2,-2.7,305.1,0,656,749.4,14.6,226.8,104.8,-26.1,101.3,67.8
40291,32,32.0543844,-81.18079,3542.3,11657,88.1,141.32,0.221,9.5,42.93,44,1,27.99,1.96,-3,305.2,-0.3,653.1,750.1,15.5,229,104.8,-25.5,101.3,67.6
40292,32,32.0549551,-81.1800656,3576.5,11755,88.2,139.76,0.218,9,42.83,44.1,1.2,27.51,1.83,-3,305.5,-0.4,650.7,748.8,16.4,229.7,104.8,-25.4,101.3,67.5
40293,32,32.0555239,-81.1796855,3609.2,11850,87.9,138.98,0.217,8.8,43.14,44.3,1.1,27.75,1.59,-3.7,305,-1.1,648.2,748.7,16.5,229.3,104.8,-25.8,101.3,67.4
40294,32,32.0560894,-81.1789613,3640,11942,87.6,137.82,0.216,8.7,43.51,44.4,0.8,27.14,1.37,-3.6,305.4,-1.1,645.9,748.7,16.7,228.2,104.8,-26,101.3,66.8
40295,32,32.0566529,-81.1782377,3669.8,12040,87.8,137.24,0.215,8.3,43.2,44.5,1.2,25.53,0.86,-3.9,305.4,-1.4,643.4,748.5,17.3,229.8,104.8,-25.7,101.3,66.6
40296,32,32.0572186,-81.1775177,3699.1,12122,88.4,137.04,0.215,7.7,42.46,44.5,2,23.69,0.87,-3.9,305.7,-1.4,641.3,749,18.1,232.5,104.8,-24.7,101.3,66.5
40297,32,32.0577891,-81.1768034,3727.6,12200,89.2,137.24,0.215,7.1,41.74,44.5,2.7,22.48,0.98,-4.1,305.8,-1.7,639.3,748.6,19,234.8,104.8,-23.8,101.3,66.7
40298,32,32.0583643,-81.1760948,3754.1,12275,89.8,138.4,0.217,6.9,41.26,44.5,3.2,22.38,0.55,-4.3,305.8,-1.8,637.4,748.2,19.1,236.6,104.7,-24,101.3,67.2
40299,32,32.0589424,-81.1757331,3778.8,12352,90.2,139.18,0.218,6.9,41.29,44.6,3.2,22.66,0.71,-4.6,305.7,-2.1,635.5,750.7,19.2,237.1,104.7,-24,101.3,67.3
40300,32,32.0595221,-81.1750243,3802.1,12427,90.4,139.96,0.219,7,41.68,44.6,2.9,22.65,1.29,-4.6,306,-2,633.6,747.8,18.9,235.8,104.7,-23.6,101.3,66.8
40301,32,32.0601023,-81.1743247,3825.2,12502,90.7,139.57,0.219,7,41.9,44.8,2.8,22.58,1.76,-4.8,306,-2.2,631.8,749.4,19.3,235.6,104.7,-23.2,101.3,66.4
40302,32,32.0606835,-81.1736295,3848.4,12577,91.1,139.37,0.219,6.9,41.59,44.9,3.2,22.52,0.34,-4.8,306.3,-2.2,629.9,749.2,20,236.9,104.7,-24.4,101.3,67
40303,32,32.061267,-81.172937,3871.8,12655,91.4,139.57,0.219,6.9,41.13,44.7,3.6,22.15,-3.22,-4.6,306.8,-2,628,748,20.2,237.5,104.7,-27.3,101.3,68.1
40304,32,32.0618563,-81.1722456,3895,12722,92.2,139.96,0.22,6.5,40.8,44.4,3.6,20.45,-4.34,-4.8,306.8,-2.2,626.3,748.2,20.8,236.9,104.7,-27.6,101.3,67.8
40305,32,32.0624555,-81.1715569,3918.1,12792,93.4,140.73,0.221,6,40.01,44,4,18.44,-4.63,-5.1,306.7,-2.5,624.5,748.6,21.8,237.4,104.7,-26.8,101.3,67.7
40306,32,32.063067,-81.1708726,3940.5,12850,94.7,142.48,0.223,5.5,38.63,43.6,4.9,17.68,-4.87,-5,307,-2.4,623.1,749,22.6,239.9,104.7,-26.4,101.3,68.8
40307,32,32.0636911,-81.1701907,3961.3,12910,95.7,144.62,0.227,5.4,37.06,43.1,6,17.85,-5.08,-5.3,306.9,-2.6,621.6,748.6,23.1,242.9,104.7,-26.2,101.3,70.6
40308,32,32.064327,-81.1694998,3980.3,12967,96.4,145.79,0.229,5.6,35.66,42.5,6.8,18.2,-5.11,-5.4,306.9,-2.6,620.2,749.2,23.7,244.7,104.7,-26,101.3,72.2
40309,32,32.0649739,-81.1688149,3998.5,13027,97.4,147.54,0.232,5.5,34.69,41.9,7.2,16.78,-4.92,-5.4,307.1,-2.6,618.8,748.2,24.1,245.2,104.7,-25.1,101.3,72.5
40310,32,32.0656343,-81.1681312,4017,13087,98.8,149.09,0.234,5,33.86,41.4,7.5,14.67,-4.48,-5.4,307.4,-2.5,617.3,749,24.9,245.3,104.7,-23.8,101.3,72.4
40311,32,32.0663109,-81.1674522,4035.7,13137,100.6,151.62,0.238,4.3,33.04,40.9,7.9,12.53,-4.25,-5.5,307.4,-2.4,616.1,748.5,25.7,245.5,104.7,-22.8,101.3,72.4
40312,32,32.0670058,-81.1667799,4053.3,13177,102.6,154.54,0.243,3.6,32.39,40.4,8,10.98,-4.43,-5.4,307.7,-2.2,615.1,749,26.3,245.3,104.7,-22.3,101.3,72.4
40313,32,32.0677202,-81.1661142,4069,13215,104.7,157.45,0.247,3.3,32,39.9,7.9,10.39,-4.49,-5.6,307.6,-2.3,614.2,749.5,26.9,244.4,104.7,-22.1,101.3,72.6
40314,32,32.0684538,-81.165111,4082.1,13242,106.6,160.76,0.252,3.2,31.75,39.4,7.6,10.33,-3.1,-5.6,307.7,-2.2,613.5,748.5,27,243.5,104.7,-20.8,101.3,72.8
40315,32,32.0692053,-81.1644571,4093.7,13275,108.5,163.67,0.257,3.3,31.33,39,7.7,10.71,-1.85,-5.8,307.6,-2.3,612.7,748.3,27.5,243.2,104.7,-19.6,101.3,73.2
40316,32,32.069973,-81.1638098,4104.5,13315,110.2,166,0.261,3.6,30.85,38.7,7.8,11.24,-1.19,-5.8,307.7,-2.2,611.7,749.2,28.1,243.2,104.7,-19,101.3,73.8
40317,32,32.070755,-81.1631694,4115.6,13352,111.8,168.53,0.264,4,30.61,38.5,7.9,11.77,-0.6,-5.7,307.9,-1.9,610.8,749,28.5,243.2,104.7,-18.6,101.3,74.2
40318,32,32.0715499,-81.1621923,4127.5,13397,113.2,171.06,0.268,4.4,30.88,38.3,7.4,12.22,0.12,-5.4,308.5,-1.5,609.7,747.8,28.3,242,104.7,-18,101.3,74
40319,32,32.0723563,-81.1615656,4140.6,13447,114.7,173.58,0.272,4.6,31.56,38.2,6.6,12.36,-0.2,-5.5,308.5,-1.6,608.5,748.7,28,239.9,104.7,-18.5,101.3,73.4
40320,32,32.0731738,-81.1609468,4154.8,13500,116.1,175.92,0.275,4.7,32.18,38.1,5.9,12.24,-0.33,-5.3,308.9,-1.3,607.2,750.2,27.7,237.8,104.7,-18.7,101.3,72.7
40321,32,32.0740026,-81.1599932,4170.1,13555,117.6,177.47,0.278,4.7,31.97,38.1,6.1,11.87,-0.88,-3.9,310.7,0.3,605.9,750.4,28.5,238.1,104.7,-19.1,101.3,72.9
40322,32,32.0748438,-81.1593911,4186,13605,119.2,179.03,0.28,4.6,30.92,37.9,6.9,11.48,-1.34,-4,310.8,0.2,604.7,749.2,30,239.8,104.7,-19.2,101.3,73.9
40323,32,32.0756983,-81.1584528,4202,13652,120.8,181.36,0.283,4.5,29.67,37.7,8,11.14,-1.47,-3.6,311.4,0.7,603.6,749.5,31.3,242.3,104.6,-19,101.3,75
40324,32,32.0765671,-81.1578636,4217.9,13700,122.4,183.89,0.288,4.4,29.27,37.4,8.1,10.66,0.18,-3.1,312.2,1.4,602.4,748.5,31.7,242.4,104.6,-17.2,101.3,75.1
40325,32,32.0774495,-81.1569382,4233.3,13745,124,187.39,0.293,4.4,30.29,37.3,7,10.72,1.38,-2.9,312.6,1.8,601.3,748.1,30.7,239.9,104.6,-16.3,101.3,74
40326,32,32.0783433,-81.1560224,4248.5,13790,125.5,190.89,0.298,4.6,31.74,37.4,5.6,10.7,1.47,-3.3,312.3,1.5,600.2,750.6,29.4,236.6,104.6,-16.5,101.3,72.5
40327,32,32.0792471,-81.1554608,4263.4,13840,127,193.8,0.303,4.7,32.48,37.5,5,10.86,1.65,-3.1,312.7,1.8,599.1,749,29,235,104.6,-16.5,101.3,71.8
40328,32,32.0801597,-81.1545672,4278.6,13892,128.4,197.49,0.308,5.1,32.21,37.6,5.3,11.38,1.7,-2.9,313.1,2.2,597.8,748.1,28.9,236.9,104.6,-16.5,101.3,72.2
40329,32,32.0810801,-81.1536833,4294.5,13947,129.4,200.22,0.313,5.6,31.58,37.7,6,12.09,1.59,-3.3,312.8,2,596.5,748.8,29.1,239.8,104.6,-16.7,101.3,73.1
40330,32,32.082007,-81.1528071,4311.2,14007,130.4,203.52,0.318,6,31.49,37.7,6.2,12.64,1.42,-3.4,312.9,2,595.1,749,28.6,241,104.6,-17,101.3,73.3
40331,32,32.0829396,-81.1519369,4329.2,14070,131.1,206.44,0.323,6.6,32.22,37.7,5.5,13.73,0.08,-3.5,313,2.1,593.6,748.5,27.3,239.5,104.6,-18.7,101.3,73.2
40332,32,32.083875,-81.1510697,4348.9,14145,131.2,207.8,0.325,7.6,33.13,37.7,4.6,15.61,0.03,-3.3,313.5,2.4,591.8,749.5,26.1,236.8,104.6,-19.6,101.4,72.9
40333,32,32.0848091,-81.1502028,4370.3,14235,130.9,208.96,0.327,8.6,33.3,37.8,4.5,17.02,0.75,-3.7,313.4,2,589.7,749,25.2,237.4,104.6,-19.3,101.4,73.1
40334,32,32.0857401,-81.149336,4394.4,14337,130.9,210.91,0.33,9.1,32.78,37.9,5.1,16.85,1.13,-3.9,313.5,2,587.3,748.7,24.8,240.9,104.6,-18.8,101.4,73.4
40335,32,32.0866719,-81.1484715,4421.9,14440,131.2,212.66,0.333,9,32.36,37.9,5.5,16.26,1.16,-4.1,313.7,1.8,584.9,750,24.7,243.2,104.6,-18.4,101.4,73.6
40336,32,32.087607,-81.147611,4451.9,14535,131.8,213.43,0.334,8.8,32.46,38,5.5,15.92,0.97,-4.1,314,1.9,582.6,749.5,24.9,243.2,104.6,-18.6,101.4,73.5
40337,32,32.0885452,-81.1467544,4482.3,14622,132.1,214.02,0.335,9,32.88,38,5.1,16.62,0.41,-4.5,313.8,1.6,580.6,749.6,24.5,241.6,104.6,-19.4,101.4,73.4
40338,32,32.0894832,-81.1458994,4512.1,14720,132,214.79,0.336,9.4,33.07,38,4.9,17.45,-0.25,-4.5,314.2,1.6,578.3,748.8,23.9,241.4,104.6,-20.3,101.4,73.6
40339,32,32.0904194,-81.1450434,4541.9,14820,131.8,215.96,0.339,9.9,32.6,38,5.4,18.1,-0.87,-5,314,1.1,576,748.5,23.6,244.3,104.6,-20.9,101.4,74.5
40340,32,32.0913516,-81.1441735,4573,14930,131.3,216.16,0.339,10.3,31.66,38,6.3,18.8,-1.83,-5,314.4,1.1,573.4,748.6,24.1,248.6,104.6,-21.8,101.4,75.9
40341,32,32.0922838,-81.1433087,4605.5,15042,130.8,215.96,0.339,10.7,30.86,37.8,6.9,19.37,-3.06,-5.1,314.7,1.1,570.8,747.8,24.5,251,104.6,-22.9,101.4,77.2
40342,32,32.0932149,-81.1427798,4639.6,15160,130.3,215.96,0.339,10.8,30.53,37.5,7,19.57,-3.58,-4.9,315.3,1.3,568.2,748.5,24.1,251.5,104.6,-23.3,101.4,77.8
40343,32,32.0941462,-81.1419006,4675,15280,130,215.18,0.337,10.9,30.3,37.3,7,19.68,-3.7,-5.2,315.4,0.9,565.4,749.9,24.2,251.1,104.6,-23.4,101.4,78.1
40344,32,32.0950784,-81.141015,4711.2,15395,129.8,212.85,0.334,10.7,29.79,37.1,7.2,19.68,-3.88,-5.1,315.9,0.9,562.8,750.2,25.4,250.4,104.6,-23.4,101.4,78.6
40345,32,32.0960128,-81.1401236,4747.7,15507,129.6,211.88,0.333,10.5,29.06,36.8,7.7,19.58,-4.37,-5.3,316.1,0.6,560.2,749.1,26.1,251,104.6,-23.6,101.4,79.4
40346,32,32.0969496,-81.1392254,4784,15617,129.4,211.88,0.333,10.4,28.4,36.5,8,19.49,-5.22,-5.9,315.8,0,557.7,750.1,26.4,252.1,104.6,-24.2,101.4,80.3
40347,32,32.0978889,-81.138662,4819.7,15727,129.1,212.07,0.333,10.4,28.12,36.1,7.9,19.45,-5.59,-5.9,316.2,0,555.2,749.6,25.9,251.8,104.6,-24.5,101.4,80.7
40348,32,32.0988282,-81.1377292,4855,15840,128.8,211.68,0.333,10.4,27.88,35.7,7.8,19.33,-5.44,-6.5,315.9,-0.6,552.7,749.2,25.6,251,104.6,-24.2,101.4,80.8
40349,32,32.0997716,-81.1368045,4890.1,15947,128.5,211.49,0.333,10.3,27.08,35.4,8.3,19.21,-4.95,-7,315.7,-1.1,550.3,749,26.1,252.5,104.5,-23.5,101.4,81.4
40350,32,32.1007175,-81.1362152,4925.2,16057,128.3,211.1,0.332,10.2,25.86,35,9.1,19.09,-5.44,-7.2,315.9,-1.4,547.9,749.4,27.2,254.3,104.5,-23.5,101.4,82.7
40351,32,32.1016658,-81.1352734,4960.1,16170,128.1,211.3,0.333,10.1,25.03,34.6,9.6,18.99,-6.47,-7.3,316.2,-1.4,545.4,749.9,27.6,255.4,104.5,-24.3,101.4,83.8
40352,32,32.1026178,-81.1346653,4994.7,16280,127.9,211.49,0.333,9.9,24.58,34.1,9.6,18.89,-7.2,-7.4,316.5,-1.5,542.9,750.5,27.4,255.2,104.5,-24.9,101.4,84.4
40353,32,32.1035737,-81.1337036,5029.1,16380,127.6,210.32,0.332,9.8,24.23,33.7,9.4,18.9,-7.5,-7.9,316.2,-2.1,540.7,750.1,27.4,254.2,104.5,-25,101.4,84.9
40354,32,32.1045331,-81.1330735,5063,16487,127.4,210.13,0.332,9.8,23.68,33.1,9.5,18.76,-7.06,-8.3,316.2,-2.4,538.4,750,27.3,253.5,104.5,-24.4,101.4,85.2
40355,32,32.1054964,-81.1324331,5096.4,16590,127.3,209.55,0.331,9.5,23.2,32.7,9.5,18.13,-4.4,-8.5,316.3,-2.7,536.1,750,27.5,253,104.5,-21.5,101.4,84.7
40356,32,32.1064622,-81.1317748,5129.6,16695,127.5,209.93,0.332,9.2,22.51,32.5,9.9,17.49,-3.5,-9,316.1,-3.2,533.8,750.5,28.2,254.1,104.5,-20.4,101.4,84.9
40357,32,32.107434,-81.130781,5162.4,16795,127.7,211.3,0.334,9,21.62,32.2,10.6,16.98,-3.27,-9,316.5,-3.1,531.6,749.9,28.9,256,104.5,-19.8,101.4,85.5
40358,32,32.1084105,-81.130127,5194.3,16887,128.1,209.74,0.332,8.6,21.19,32,10.8,16.33,-2.11,-9.4,316.3,-3.6,529.7,749.1,30,254.5,104.5,-18.5,101.4,85.4
40359,32,32.1093919,-81.1294713,5225.3,16977,128.4,209.74,0.332,8.6,21.13,31.8,10.7,16.39,-0.93,-9.9,316.1,-4.1,527.7,751,30,253.6,104.5,-17.3,101.4,85.2
40360,32,32.1103755,-81.1288151,5255.2,17065,128.5,208.38,0.331,8.6,21.09,31.8,10.7,16.77,0.08,-9.7,316.6,-3.9,525.8,750.7,30.6,252.5,104.5,-16.5,101.4,85.1
40361,32,32.1113595,-81.1281594,5284.4,17157,128.5,208.96,0.331,8.8,20.79,31.8,11,17.3,0.07,-9.9,316.7,-4.1,523.9,751.7,30.8,253.6,104.5,-16.4,101.4,85.5
40362,32,32.1123418,-81.1275034,5313.8,17255,128.2,208.57,0.331,9.3,20.3,31.9,11.6,18.08,0.23,-10.4,316.5,-4.7,521.7,753.3,31.6,255,104.5,-16,101.4,86.1
40363,32,32.1133216,-81.1265037,5343.6,17367,128.2,208.96,0.331,9.3,20.08,31.9,11.8,17.55,1.92,-10.6,316.7,-4.9,519.3,751.4,31.8,255.7,104.5,-14.2,101.4,85.7
40364,32,32.1142987,-81.1258247,5374.7,17470,128.6,209.55,0.332,8.8,20.29,32,11.7,16.36,2.16,-10.7,316.9,-4.9,517.2,751.5,31.8,255.5,104.5,-14,101.4,85.1
40365,32,32.1152842,-81.1251754,5406.4,17560,129.4,209.74,0.332,8.3,20.92,32.1,11.1,15.51,2.42,-10.9,317,-5.1,515.3,752.5,31.5,253.7,104.5,-13.8,101.4,84.2
40366,32,32.1162738,-81.1245323,5437.3,17642,130,210.91,0.335,8,21.37,32.2,10.8,15.18,3.09,-11.5,316.6,-5.6,513.5,753.4,31.1,253.2,104.5,-13.2,101.4,83.6
40367,32,32.1172657,-81.1238963,5466.4,17725,130.4,211.49,0.336,8.1,21.34,32.4,11.1,15.52,3.11,-11.5,316.9,-5.6,511.8,752.3,31.5,253.9,104.5,-13.2,101.4,83.7
40368,32,32.1182567,-81.1229234,5494.2,17815,130.5,212.27,0.337,8.4,21.15,32.7,11.5,16.18,3.09,-12.1,316.5,-6.1,509.9,752.4,32.1,255.6,104.5,-13.2,101.4,84
40369,32,32.1192457,-81.1222994,5521.8,17917,130.7,213.43,0.34,8.6,21.05,32.9,11.9,15.91,3.72,-12.4,316.5,-6.4,507.7,752.5,32.4,257,104.5,-12.6,101.4,83.9
40370,32,32.1202365,-81.1213389,5550.3,18015,131.6,214.41,0.341,8,21.06,33.1,12,14.43,4.61,-12.6,316.6,-6.6,505.7,751.7,33.1,257.2,104.5,-11.5,101.4,83.3
40371,32,32.1212338,-81.1207301,5579.6,18092,132.7,215.18,0.342,7.3,21.43,33.2,11.7,13.5,4.64,-12.6,316.9,-6.5,504.1,753.3,33.2,256.1,104.5,-11.5,101.4,82.8
40372,32,32.1222349,-81.1201184,5608,18167,133.6,215.77,0.343,7.1,22.41,33.4,11,13.22,4.22,-12.8,317,-6.7,502.5,753.4,32.5,254.1,104.5,-12.1,101.4,81.9
40373,32,32.1232416,-81.119185,5634,18250,134.5,216.16,0.345,6.9,23.38,33.6,10.2,12.87,3.1,-13.1,316.9,-6.9,500.8,751.4,31.9,251.8,104.5,-13.4,101.4,81.1
40374,32,32.1242531,-81.1182609,5658.7,18325,135.4,218.88,0.349,6.7,23.64,33.8,10.1,12.34,2.28,-13.4,316.8,-7.1,499.2,750.9,31.6,252.8,104.4,-14.2,101.4,80.9
40375,32,32.1252707,-81.1176885,5682.8,18387,136.5,218.88,0.349,6.4,23.16,33.9,10.7,11.97,2.47,-13.6,316.8,-7.3,498,750.5,33.3,252.9,104.4,-13.8,101.4,81.2
40376,32,32.1262944,-81.116781,5706.1,18460,137.5,220.82,0.352,6.2,22.46,34,11.5,11.38,4.53,-13.9,316.7,-7.4,496.5,748.3,34.7,254.9,104.4,-11.6,101.4,81.4
40377,32,32.1273252,-81.1158829,5728.5,18527,138.7,221.99,0.354,5.8,22.64,34.2,11.5,10.7,6.59,-14,316.9,-7.5,495.1,748,35.3,254.7,104.4,-9.5,101.4,80.8
40378,32,32.1283626,-81.1149978,5750.2,18582,140,223.15,0.356,5.6,23.83,34.5,10.7,10.49,8.38,-14.2,316.8,-7.7,494,745.9,34.5,252.5,104.4,-7.9,101.5,79.3
40379,32,32.1294033,-81.1141301,5770.9,18642,141.2,225.29,0.359,5.7,25.08,35.1,10,10.52,9.55,-14.7,316.4,-8.1,492.7,745.4,33.8,251.8,104.4,-7,101.5,77.9
40380,32,32.1304456,-81.113283,5790.5,18710,142.5,226.85,0.362,5.8,25.94,35.7,9.7,10.43,10.34,-15,316.3,-8.2,491.4,744.9,33.9,251.4,104.4,-6.4,101.5,77
40381,32,32.1314887,-81.1124573,5810.1,18775,143.8,228.6,0.365,5.8,26.67,36.3,9.6,10.38,10.94,-15.2,316.3,-8.3,490,743.8,34.1,251.5,104.4,-5.9,101.5,76.2
40382,32,32.1325321,-81.1116537,5830.3,18840,145,229.57,0.367,6,27.38,37,9.6,10.54,9.51,-15.3,316.4,-8.4,488.7,742.5,34.7,251.6,104.4,-7.5,101.5,75.8
40383,32,32.1335764,-81.1105272,5850.4,18915,146.4,232.09,0.37,5.7,27.89,37.4,9.5,9.4,6,-15.1,317,-8,487.2,741.3,34.8,252,104.4,-10.8,101.5,75.6
40384,32,32.1346274,-81.1097594,5870.8,18977,147.8,234.23,0.376,5.2,28.44,37.6,9.2,8.49,3.91,-15.6,316.6,-8.3,485.9,739.6,34.6,251.2,104.4,-12.7,101.5,75.1
40385,32,32.1356872,-81.1086614,5891.1,19012,149.3,237.15,0.379,5,28.99,37.8,8.8,8.65,2.98,-15.8,316.5,-8.4,485.2,738.4,34.3,250.8,104.4,-13.7,101.5,74.7
40386,32,32.1367532,-81.1079183,5909.8,19067,150.3,239.29,0.383,5.4,29.3,38,8.6,9.92,3.21,-15.9,316.6,-8.4,484.1,737.2,34.1,251.1,104.4,-13.9,101.5,74.6
40387,32,32.1378219,-81.1068422,5927.1,19122,150.9,240.65,0.385,6.3,29.15,38.2,9,11.52,2.35,-16.3,316.3,-8.7,483,736.3,34.6,252.4,104.4,-15.1,101.5,75.3
40388,32,32.1388906,-81.1057728,5945.1,19200,151.2,242.98,0.39,7.1,29.09,38.3,9.2,12.18,2.32,-16.6,316.2,-8.8,481.5,735.1,34.3,254,104.4,-15.2,101.5,75.5
40389,32,32.1399584,-81.1047085,5965.4,19295,151.4,244.54,0.392,7.7,29.43,38.5,9.1,12.36,1.86,-16.4,316.8,-8.6,479.5,734.2,33.6,254.6,104.4,-15.8,101.5,75.3
40390,32,32.1410276,-81.1036495,5988.5,19377,152,245.31,0.394,7.8,29.85,38.6,8.7,12.12,1.15,-16.7,316.7,-8.8,477.9,732.1,33.3,253.7,104.4,-16.5,101.5,74.9
40391,32,32.1421,-81.1029393,6013.9,19470,152.7,247.06,0.397,7.6,29.83,38.6,8.8,11.63,0.14,-17.2,316.5,-9.2,476.1,730.8,33.3,254.2,104.4,-17.3,101.5,74.9
40392,32,32.1431781,-81.1018909,6040.2,19540,153.5,246.67,0.395,7.3,29.48,38.6,9.1,11.33,0.02,-17.4,316.5,-9.4,474.7,729.5,34.6,254.1,104.4,-17.4,101.5,75.2
40393,32,32.1442614,-81.100846,6066.3,19635,154.1,246.67,0.396,7.5,29.34,38.5,9.2,11.63,-0.3,-17.5,316.7,-9.5,472.8,726.4,35.2,253.5,104.4,-17.7,101.5,75.5
40394,32,32.1453492,-81.0998032,6091.6,19700,154.4,248.81,0.4,7.7,29.37,38.5,9.1,12.35,-1.49,-17.8,316.6,-9.6,471.5,726.4,34.6,254.4,104.4,-19,101.5,75.8
40395,32,32.1464391,-81.0987597,6117,19790,154.4,249.01,0.4,8.3,29.53,38.4,8.9,13.07,-0.81,-17.9,316.8,-9.7,469.7,724.7,34.1,253.8,104.4,-18.5,101.5,75.8
40396,32,32.1475283,-81.0977011,6142.6,19880,154.4,249.01,0.401,8.7,29.34,38.3,9,13.54,-1.13,-18.3,316.7,-10.1,468,722.8,34.3,253.9,104.4,-18.9,101.5,76.2
40397,32,32.1486197,-81.0966543,6169.8,19985,154.4,251.34,0.403,8.9,29.07,38.3,9.2,13.48,-0.65,-18.9,316.3,-10.6,465.9,719.9,33.9,256.1,104.4,-18.4,101.5,76.4
40398,32,32.149713,-81.0956069,6198.7,20082,154.5,251.73,0.404,9,29.17,38.2,9,13.49,-0.97,-18.7,316.9,-10.4,464,718.9,33.5,255.6,104.4,-18.7,101.5,76.4
40399,32,32.1508087,-81.094559,6228.6,20197,154.9,251.14,0.403,8.6,29.84,38.1,8.3,12.69,-0.12,-18.9,317.1,-10.7,461.8,716,32.8,252.6,104.3,-17.8,101.5,75.3
40400,32,32.1519101,-81.0938579,6258.6,20282,155.8,248.81,0.401,7.6,30.39,38.1,7.7,11.57,-0.12,-19.2,317.1,-11,460.1,714.9,33.7,248.8,104.3,-17.7,101.5,74.4
40401,32,32.1530182,-81.0928182,6288.4,20350,156.6,248.62,0.4,7,30.29,38,7.7,11.41,-2.28,-19.4,317.1,-11.3,458.9,712.9,34.4,247.9,104.3,-19.7,101.5,74.7
40402,32,32.154132,-81.0917797,6315.6,20400,156.8,248.42,0.4,7.2,29.71,37.9,8.2,12.28,-2.99,-19.9,316.6,-11.8,457.9,712.2,35.4,248.9,104.3,-20.5,101.5,75.7
40403,32,32.1552473,-81.0907353,6340.1,20495,156.3,248.42,0.402,8.2,29.17,37.6,8.4,13.17,-3.95,-19.9,317,-11.7,456.1,709.7,35.3,249.7,104.3,-21.5,101.5,76.7
40404,32,32.1563605,-81.089657,6363.9,20597,156.3,250.17,0.403,8,29.21,37.4,8.2,12.04,-4.8,-20.5,316.6,-12.3,454.1,708.7,34.2,249.8,104.3,-22,101.5,76.3
40405,32,32.157483,-81.0886012,6390.1,20675,156.8,248.81,0.402,7.4,28.6,37.2,8.5,11.21,-5.03,-20.5,316.9,-12.4,452.6,706.2,35.8,249.5,104.3,-22,101.5,76.6
40406,32,32.1586123,-81.0875416,6417.5,20752,157.2,250.37,0.405,7.1,27.53,36.8,9.3,10.58,-5.06,-20.8,316.9,-12.5,451.2,705.7,36.5,251.4,104.3,-21.7,101.5,77.5
40407,32,32.1597496,-81.0868202,6443.3,20830,157.5,248.62,0.403,6.7,27.24,36.5,9.3,10.03,-5.06,-21,316.9,-12.8,449.7,705.3,37.4,249.9,104.3,-21.5,101.5,77.6
40408,32,32.1608953,-81.0857509,6467.7,20900,158.1,250.37,0.404,6.3,27.88,36.2,8.3,9.72,-4.17,-21.2,316.9,-13,448.3,702.6,35.9,247.5,104.3,-20.6,101.5,76.7
40409,32,32.1620481,-81.0846787,6490.9,20962,158.4,250.56,0.406,6.4,28.1,36,7.9,10.27,-4.41,-21.3,317,-13,447.2,700.7,35.5,246,104.3,-21,101.5,76.7
40410,32,32.1632059,-81.083602,6512.8,21025,158.5,250.76,0.406,6.8,27.27,35.7,8.4,10.87,-3.67,-21.9,316.5,-13.6,446,700.1,36.2,247.2,104.3,-20.3,101.5,77.7
40411,32,32.1643675,-81.0828628,6534.3,21107,158.6,253.28,0.41,7,26.03,35.5,9.4,10.52,-2.94,-21.7,317.1,-13.3,444.4,698,36.9,251,104.3,-19.3,101.5,78.8
40412,32,32.1655312,-81.0817627,6556.7,21197,159,252.89,0.411,6.6,25.46,35.3,9.8,9.24,-1.41,-22.3,316.7,-13.8,442.7,696.3,38,251.1,104.3,-17.4,101.5,78.8
40413,32,32.1667038,-81.0806756,6580.2,21265,159.7,252.12,0.41,5.8,25.97,35.2,9.2,8.59,-1.09,-22.3,316.9,-13.9,441.5,694.9,37.9,248.5,104.3,-17.1,101.5,78
40414,32,32.1678823,-81.0799325,6603.4,21312,160.1,253.09,0.411,5.6,27.02,35.1,8,9.01,-1.33,-22.3,317.1,-13.9,440.6,693.9,36.2,245.5,104.3,-17.6,101.5,77.1
40415,32,32.1690637,-81.0788465,6624,21385,160.3,253.09,0.411,5.7,27.64,35,7.4,9.09,-0.27,-22.7,316.9,-14.3,439.2,691.9,35.4,243.1,104.3,-16.6,101.5,76.5
40416,32,32.1702471,-81.077762,6643,21427,160.4,252.7,0.41,6,27.18,35,7.8,9.72,-0.81,-22.9,316.8,-14.4,438.5,691.4,36.2,244.2,104.3,-17.2,101.5,77.2
40417,32,32.1714307,-81.0770203,6662.2,21512,160.4,254.64,0.414,6.2,26.11,35,8.8,9.05,-1.61,-22.9,317.1,-14.3,436.9,692,37,248.2,104.3,-17.7,101.5,78.1
40418,32,32.1726187,-81.0759343,6681.6,21572,161,252.5,0.411,5.6,25.86,34.8,9,8.4,-1.58,-23.6,316.5,-15.2,435.7,689.4,38.4,246.5,104.3,-17.5,101.5,78.2
40419,32,32.1738117,-81.0748477,6702.5,21620,161.3,253.28,0.412,5.8,26.55,34.7,8.2,8.82,-1.16,-23.9,316.3,-15.4,434.9,688.5,37.2,244.5,104.3,-17.3,101.5,77.5
40420,32,32.1750058,-81.0740892,6722.1,21702,161.7,253.09,0.411,5.5,27.47,34.6,7.2,7.99,-1.3,-24.2,316.2,-15.7,433.4,687.4,36.3,241,104.3,-17.3,101.5,76.4
40421,32,32.1762067,-81.0730035,6741,21740,162.1,255.61,0.416,5.5,27.69,34.6,6.9,8.51,-2.26,-24.6,315.8,-16,432.7,685.2,35.3,241.2,104.3,-18.4,101.5,76.4
40422,32,32.17741,-81.0719163,6760.2,21807,162,254.64,0.414,6.3,26.77,34.4,7.6,9.63,-3.02,-24.2,316.6,-15.7,431.4,685.8,36.6,242.8,104.3,-19.3,101.5,77.8
40423,32,32.1786154,-81.0711676,6778.6,21885,162,255.03,0.415,6.4,25.53,34.2,8.7,9.43,-4,-24.6,316.4,-16.1,430,684.6,37.9,245.7,104.3,-20,101.6,79
40424,32,32.1798249,-81.0700701,6798.7,21957,162.1,254.45,0.415,6.3,25,33.9,8.9,9.55,-4.88,-24.8,316.4,-16.2,428.7,682.7,38.5,245.6,104.2,-20.8,101.6,79.7
40425,32,32.1810392,-81.0693086,6820.1,22020,162.2,254.84,0.415,6.3,25.54,33.6,8.1,9.7,-5.01,-24.9,316.5,-16.3,427.5,682.3,37.2,243.2,104.2,-21,101.6,79.2
40426,32,32.1822575,-81.0681965,6841.4,22077,162,255.03,0.416,6.6,25.98,33.3,7.4,10.35,-5.38,-24.9,316.8,-16.3,426.5,679.4,36,241,104.2,-21.6,101.6,79.1
40427,32,32.1834779,-81.0674191,6862.5,22162,161.7,255.42,0.417,7,25.07,33,8,10.28,-6.98,-25.6,316.2,-17,425,679.2,36.4,242.9,104.2,-23,101.6,80.1
40428,32,32.1847007,-81.066274,6884,22250,162.1,257.17,0.42,6.2,23.67,32.7,9,8.46,-8.07,-25.8,316.3,-17.1,423.4,677.9,37.7,246.1,104.2,-23.5,101.6,80.9
40429,32,32.1859345,-81.0654808,6906.8,22317,162.6,255.81,0.418,5.3,22.84,32.3,9.5,6.77,-7.71,-25.8,316.5,-17.2,422.2,676.5,39.3,245.7,104.2,-22.8,101.6,81.1
40430,32,32.1871762,-81.0646813,6928.9,22375,163,256,0.418,4,23.04,32,9,4.94,-6.04,-25.7,316.9,-17.1,421.1,673.2,38.8,243.9,104.2,-20.8,101.6,80.1
40431,32,32.1884252,-81.0635354,6948.1,22402,163.6,256.78,0.42,2.7,23.56,31.8,8.3,3.61,-4.77,-26,316.6,-17.3,420.6,673.5,37.9,241.7,104.2,-19.4,101.6,79.1
40432,32,32.1896808,-81.0627308,6963.4,22397,164,256.2,0.419,2.6,23.4,31.6,8.2,4.17,-3.3,-26.3,316.2,-17.7,420.7,674.1,38.5,240.9,104.2,-18,101.6,79.4
40433,32,32.1909418,-81.0619225,6974.2,22440,164.3,256.78,0.42,2.7,22.85,31.4,8.6,3.98,-2.69,-26.1,316.6,-17.4,420,673.7,39,241.7,104.2,-17.4,101.6,79.9
40434,32,32.1922079,-81.0607684,6982.8,22472,164.7,257.75,0.421,2.6,22.34,31.2,8.9,3.96,-2.74,-26.6,316.1,-17.9,419.4,672.5,39.4,242.4,104.2,-17.4,101.6,80.4
40435,32,32.1934788,-81.0599548,6992,22490,164.9,257.17,0.42,2.9,22.01,31,9,4.89,-3.57,-26.8,315.9,-18.1,419,671.8,40,242.1,104.2,-18.3,101.6,81.1
40436,32,32.1947534,-81.059128,7001,22525,164.9,259.5,0.424,3.3,21.98,30.8,8.8,5.39,-4.52,-26.7,316.2,-17.9,418.4,671.3,38.8,242.6,104.2,-19.3,101.6,81.3
40437,32,32.1960316,-81.0583023,7010.1,22572,164.9,260.28,0.426,3.4,21.93,30.5,8.6,5.17,-3.81,-26.7,316.4,-17.8,417.6,670.7,38.1,242.1,104.2,-18.6,101.6,81.3
40438,32,32.1973119,-81.0574713,7020.8,22600,164.8,259.89,0.425,3.3,21.59,30.4,8.8,5.13,-2.77,-26.5,316.7,-17.6,417.1,669.1,38.6,242.5,104.2,-17.5,101.6,81.6
40439,32,32.1985921,-81.0562917,7032.3,22632,164.4,259.31,0.424,3.3,21.15,30.3,9.1,5.38,-2.11,-26.6,316.7,-17.7,416.5,668.2,39,243.3,104.2,-16.9,101.6,82.1
40440,32,32.1998692,-81.0554503,7043.4,22665,163.8,258.92,0.424,3.5,20.96,30.2,9.2,5.52,-1.06,-26.8,316.6,-18,415.9,666.9,38.8,243.7,104.2,-15.8,101.6,82.2
40441,32,32.201142,-81.0546049,7054.5,22710,163.2,256.78,0.42,3.5,20.86,30.2,9.4,5.32,0.43,-26.6,317,-17.9,415.2,665.4,39.2,243.3,104.2,-14.3,101.6,82.2
40442,32,32.2024102,-81.0537577,7065.9,22745,162.8,255.42,0.418,3.3,21.03,30.3,9.2,5.21,1.22,-26.8,316.9,-18.2,414.5,667.4,39.3,242.9,104.2,-13.5,101.6,81.9
40443,32,32.2036738,-81.0529104,7077.6,22780,162.3,254.64,0.417,3.3,21.51,30.4,8.9,5.15,1.14,-27.1,316.7,-18.6,413.9,665.1,38.6,242,104.2,-13.6,101.6,81.5
40444,32,32.2049288,-81.0520478,7089,22812,161.9,253.28,0.414,3.2,21.93,30.5,8.6,5.2,1.82,-27,316.9,-18.5,413.3,665.1,38.3,240.9,104.2,-13,101.6,81
40445,32,32.2061822,-81.051203,7100,22847,161.5,252.31,0.413,3.3,21.91,30.7,8.8,5.31,1.93,-27.3,316.7,-18.9,412.7,665.4,38.7,241.5,104.2,-12.9,101.6,81.1
40446,32,32.2074302,-81.0503601,7110.9,22887,161,250.56,0.411,3.2,21.86,30.8,9,5.26,1.51,-27,317.2,-18.7,412,662.6,39.2,241.6,104.2,-13.3,101.6,81.1
40447,32,32.2086735,-81.0495182,7121.8,22922,160.6,250.17,0.41,3.1,21.97,30.9,9,4.8,1.29,-27.5,316.7,-19.2,411.4,662,39,241.7,104.2,-13.4,101.6,80.9
40448,32,32.2099127,-81.0486772,7132.8,22957,160.3,249.78,0.409,2.7,22.14,31,8.9,4.17,1.53,-27.3,317.1,-19.1,410.8,663,38.8,241.7,104.2,-13.1,101.6,80.6
40449,32,32.2111482,-81.0478374,7143.4,22977,160.1,249.2,0.408,2.4,22.18,31.2,9,3.86,2.25,-27.4,317,-19.2,410.4,660.2,39.1,242.2,104.1,-12.4,101.6,80.5
40450,32,32.2123798,-81.0470003,7152.9,23005,159.9,247.65,0.406,2.3,22.18,31.3,9.2,3.77,3.02,-27.5,317,-19.4,409.9,660.7,39.6,241.9,104.1,-11.6,101.6,80.4
40451,32,32.2136074,-81.045823,7161.4,23030,159.6,246.67,0.404,2,22.43,31.5,9.1,3.01,2.57,-27.7,316.9,-19.7,409.5,662.6,39.7,241.8,104.1,-11.9,101.6,80
40452,32,32.2148299,-81.0449791,7169.2,23057,159.5,246.28,0.404,1.6,23.02,31.7,8.6,2.13,2.29,-27.9,316.7,-19.9,409,660.3,39.2,240.9,104.1,-12.1,101.6,79.3
40453,32,32.216052,-81.0441505,7176.6,23067,159.5,246.48,0.404,0.9,23.72,31.8,8.1,1.63,2.93,-28.2,316.4,-20.3,408.8,660.1,38.4,239.5,104.1,-11.4,101.6,78.5
40454,32,32.2172716,-81.0433262,7182.6,23077,159.5,244.34,0.401,1.1,24.1,32,7.9,2.46,1.59,-28.2,316.4,-20.4,408.7,658.6,39,238.3,104.1,-12.8,101.6,78.3
40455,32,32.2184884,-81.0425058,7186.7,23080,159.3,243.95,0.4,1.2,23.89,32.1,8.2,3.16,1.23,-28.2,316.4,-20.3,408.6,659.3,39.4,239.2,104.1,-13.3,101.6,78.6
40456,32,32.2197025,-81.0413444,7190.1,23092,159.2,243.17,0.399,1.9,23.42,32.2,8.8,4.53,1.31,-28,316.7,-20.2,408.4,659.6,40.4,240.4,104.1,-13.5,101.6,79.4
40457,32,32.2209163,-81.0405293,7194,23122,159.5,244.92,0.402,2.8,23.4,32.3,8.9,5.8,0.78,-28.1,316.7,-20.2,407.9,662.2,40.1,241.4,104.1,-14.2,101.6,79.8
40458,32,32.2221301,-81.0397174,7199.3,23147,159.5,244.34,0.401,3.5,23.64,32.4,8.8,6.75,1.06,-28.1,316.8,-20.2,407.4,660.7,40.1,240.9,104.1,-14.1,101.6,79.8
40459,32,32.2233423,-81.0389083,7207.2,23197,159.5,243.95,0.4,4.3,23.62,32.5,8.9,7.55,1.65,-28.3,316.7,-20.5,406.6,661.4,40.4,241.1,104.1,-13.7,101.6,79.9
40460,32,32.2245482,-81.0377453,7217.9,23252,159.3,243.76,0.4,4.8,23.52,32.7,9.1,8.17,0.94,-28.2,317.1,-20.3,405.6,660.6,40.8,242.1,104.1,-14.5,101.6,80.3
40461,32,32.2257558,-81.0369404,7231.3,23305,159.3,243.76,0.4,5.2,23.8,32.7,8.9,8.82,0.48,-28.4,317,-20.5,404.7,659.6,40.4,241.4,104.1,-15.1,101.6,80.2
40462,32,32.2269625,-81.0361371,7246.7,23367,159.3,244.15,0.401,5.6,24.17,32.8,8.6,9.55,0.97,-28.5,317.1,-20.6,403.6,660.3,39.9,241,104.1,-14.8,101.6,80
40463,32,32.2281679,-81.0349924,7263.3,23430,159.2,244.54,0.402,6.1,24.26,32.9,8.6,10.39,1.55,-28.8,317,-21,402.5,659.1,39.6,241.4,104.1,-14.3,101.6,80
40464,32,32.2293704,-81.0341935,7281.3,23492,159,244.54,0.402,6.7,24.13,33.1,8.9,11.38,2,-28.8,317.2,-20.9,401.4,656.8,39.9,242.6,104.1,-14,101.6,80.3
40465,32,32.230568,-81.0333969,7300.9,23567,158.6,244.15,0.401,7.4,24.11,33.2,9.1,12.49,1.98,-28.8,317.5,-21,400.1,655.2,39.9,243.1,104.1,-14.2,101.6,80.6
40466,32,32.2317599,-81.0322585,7322.2,23652,158.1,243.56,0.401,8.1,24.46,33.4,9,13.52,1.81,-29.1,317.5,-21.2,398.6,653.2,39.5,243,104.1,-14.6,101.6,80.6
40467,32,32.2329459,-81.031465,7345.8,23747,157.7,243.17,0.4,8.7,25.04,33.6,8.5,14.35,1.67,-29.4,317.5,-21.6,397,652.8,38.8,242.3,104.1,-15,101.6,80.3
40468,32,32.2341247,-81.0306653,7371.6,23845,157.2,242.01,0.398,9.2,25.54,33.7,8.2,15.02,1.67,-29.3,318,-21.6,395.4,651.1,38.3,241.2,104.1,-15.3,101.6,79.9
40469,32,32.2352987,-81.0295306,7399.6,23952,156.6,241.62,0.398,9.6,25.44,33.9,8.4,15.58,0.76,-29.5,318.1,-21.8,393.5,650.5,38.3,242.4,104.1,-16.2,101.7,80.4
40470,32,32.2364672,-81.0287386,7429.4,24052,156,241.42,0.397,9.8,24.84,33.9,9.1,16.19,0.12,-29.8,318.1,-22.1,391.8,647.7,38.7,244.3,104.1,-16.8,101.7,81.3
40471,32,32.2376296,-81.0279435,7460.6,24160,155.2,240.26,0.396,10.2,24.49,34,9.5,16.87,0.05,-29.9,318.4,-22.3,390,647.3,39.1,245.5,104.1,-16.8,101.7,81.9
40472,32,32.2387852,-81.0268011,7492.6,24267,154.3,238.51,0.393,10.4,24.68,34,9.4,17.43,0.45,-30.3,318.3,-22.8,388.2,646,38.7,244.9,104.1,-16.6,101.7,81.8
40473,32,32.2399332,-81.0259984,7525.6,24385,153.4,236.57,0.39,10.7,25.13,34.1,9,17.88,0.27,-30.4,318.7,-23,386.2,643.3,38.2,243.9,104.1,-16.9,101.7,81.5
40474,32,32.2410737,-81.0251925,7559.7,24505,152.7,234.04,0.386,10.7,25.33,34.2,8.9,17.81,0.06,-30.6,318.9,-23.4,384.2,638.9,38.5,243,104.1,-17.2,101.7,81.4
40475,32,32.2422097,-81.0240417,7594.5,24637,152.5,231.32,0.381,10.1,24.78,34.2,9.4,16.39,0.03,-30.5,319.5,-23.5,382,638.4,40.1,243.2,104,-16.9,101.7,81.5
40476,32,32.2433456,-81.0232266,7629.9,24742,153,228.4,0.377,9.1,23.67,34.2,10.5,14.67,0.04,-30.8,319.5,-23.9,380.3,636.1,43.2,244,104,-16.3,101.7,82
40477,32,32.2444888,-81.0224219,7664.3,24827,153.7,226.26,0.373,7.9,22.92,34.1,11.2,13,0.1,-30.7,320,-24,378.8,634.5,45.5,243.8,104,-15.8,101.7,82.3
40478,32,32.2456388,-81.0212761,7695.6,24900,154.5,225.29,0.372,6.9,23.01,34,11,11.55,-0.15,-30.6,320.5,-23.9,377.6,634.1,46.3,242.5,104,-15.9,101.7,81.8
40479,32,32.2467959,-81.0204758,7723.2,24962,155.2,223.15,0.368,6.1,23.93,33.9,10,11.08,0.03,-30.5,320.8,-24,376.6,633,46.6,239.2,104,-15.8,101.7,80.8
40480,32,32.2479586,-81.0196784,7747.2,25017,155.7,221.99,0.366,5.9,24.91,33.9,9,11.28,0.17,-30.5,321.1,-24,375.7,630.3,46.5,236.5,104,-15.9,101.7,79.8
40481,32,32.2491244,-81.0185407,7768.2,25077,156.1,219.65,0.362,6,25.26,33.9,8.7,11.81,0.58,-30.5,321.3,-24.1,374.8,629.2,47.5,234.8,104,-15.7,101.7,79.6
40482,32,32.250292,-81.017749,7787.7,25140,156.5,218.49,0.36,6.1,24.77,34,9.2,11.96,0.66,-29.9,322.3,-23.6,373.7,628.2,49,235.6,104,-15.5,101.7,80.1
40483,32,32.2514617,-81.0166169,7807.1,25207,156.8,215.77,0.355,6,23.9,34,10.1,11.88,1.58,-29.7,322.9,-23.6,372.6,626.4,51.4,236.3,104,-14.4,101.7,80.8
40484,32,32.2526329,-81.0158239,7827,25270,157.4,214.21,0.353,5.7,23.37,34,10.7,11.46,2.43,-29.5,323.4,-23.4,371.6,626.3,53.1,236.5,104,-13.4,101.7,81
40485,32,32.253809,-81.0150433,7846.7,25330,157.9,213.04,0.35,5.4,23.44,34.1,10.7,10.98,2.41,-29.3,323.9,-23.4,370.6,624.9,54.1,236.1,104,-13.3,101.7,80.9
40486,32,32.2549891,-81.0139248,7865.9,25385,158.6,212.66,0.349,5.1,24.07,34.2,10.1,10.17,1.36,-29,324.5,-23.1,369.7,624.1,54.4,234.9,104,-14.4,101.7,80.2
40487,32,32.2561753,-81.0131551,7884,25445,159.7,213.24,0.35,4.4,24.83,34.1,9.3,8.36,-0.91,-28.7,325.2,-22.7,368.8,624.2,54.4,233.1,104,-16.4,101.7,79.2
40488,32,32.2573704,-81.0120478,7901.3,25482,160.9,214.6,0.353,3.6,25.01,34.1,9.1,7.29,1.52,-28.7,325.3,-22.6,368.2,623.7,54.7,232.7,104,-13.8,101.7,78.6
40489,32,32.2585746,-81.0112915,7916.8,25505,162.1,215.57,0.354,3.2,24.4,34.2,9.8,7.25,4,-28.6,325.5,-22.5,367.8,623.1,56.1,233.9,104,-11.3,101.7,78.9
40490,32,32.2597859,-81.0102021,7929.6,25540,163.3,216.16,0.355,3.3,23.75,34.3,10.6,7.71,4.57,-28.6,325.7,-22.4,367.3,622.2,57.7,235,104,-10.7,101.7,79.6
40491,32,32.2610028,-81.0091241,7940.6,25572,164.4,217.32,0.357,3.4,23.89,34.6,10.7,7.75,5.61,-28.4,326.1,-22.2,366.7,622,58.4,235.5,104,-9.7,101.7,79.4
40492,32,32.2622225,-81.0080503,7951.2,25612,165.4,218.29,0.358,3.4,24.78,34.8,10.1,7.33,6.83,-28.5,326.1,-22.2,366.1,621.2,58.2,234.4,104,-8.6,101.7,78.3
40493,32,32.2634473,-81.0073425,7962.4,25647,166.6,219.46,0.36,3.2,25.93,35.1,9.2,6.6,6.15,-28.5,326.3,-22.1,365.5,619.7,58,233.2,104,-9.2,101.7,77.2
40494,32,32.264677,-81.0063056,7973.8,25680,167.8,221.21,0.363,2.9,26.99,35.4,8.4,5.81,4.27,-28.2,326.8,-21.8,365,618.6,57.7,232.2,104,-11,101.7,76.1
40495,32,32.2659129,-81.0052819,7984.7,25707,169.1,222.57,0.366,2.5,27.5,35.6,8.1,5.44,3.38,-28.4,326.6,-21.9,364.5,617.9,58,231.7,104,-11.9,101.7,75.6
40496,32,32.2671554,-81.0039269,7994.8,25725,170.3,224.51,0.369,2.7,27.32,35.7,8.4,6.53,2.17,-28.4,326.7,-21.7,364.2,618.3,58.5,232.4,104,-13.3,101.7,76.1
40497,32,32.2684035,-81.0029246,8003.6,25752,171.2,226.07,0.371,3.3,26.83,35.8,9,7.58,1.22,-28.5,326.7,-21.7,363.8,618.1,59.2,233.6,104,-14.4,101.7,76.9
40498,32,32.2696561,-81.0019289,8012.1,25795,171.9,228.01,0.374,3.7,26.48,35.8,9.4,7.79,0.9,-28.3,327.1,-21.5,363.2,617.4,59.3,234.5,104,-14.7,101.7,77.3
40499,32,32.2709137,-81.0009381,8022.2,25840,172.6,229.57,0.377,3.8,26.52,35.8,9.3,7.5,0.76,-28.5,327.1,-21.5,362.4,617,59.2,234.6,103.9,-14.7,101.7,77.2
40500,32,32.2721776,-80.9999525,8034.1,25880,173.5,231.12,0.38,3.7,26.86,35.8,9,7,0.16,-28.7,326.9,-21.7,361.8,616.4,59,234,103.9,-15.3,101.7,76.8
40501,32,32.273448,-80.9986282,8046.8,25922,174.4,232.68,0.382,3.4,27.2,35.8,8.6,6.58,-0.43,-28.7,327.1,-21.5,361.1,614.3,58.8,233.5,103.9,-15.8,101.7,76.3
40502,32,32.2747257,-80.997652,8059.3,25950,175.3,234.43,0.385,3.5,27.28,35.8,8.5,7.04,-0.43,-28.7,327.2,-21.4,360.7,615.7,58.8,233.5,103.9,-15.9,101.7,76.4
40503,32,32.27601,-80.9966796,8071.1,25987,176,235.98,0.388,3.7,27.04,35.7,8.7,7.43,0.13,-28.7,327.4,-21.4,360.1,614,58.9,233.8,103.9,-15.4,101.7,76.7
40504,32,32.2772994,-80.9953676,8082.6,26027,176.6,237.34,0.39,4,26.65,35.7,9.1,7.75,0.5,-28.9,327.3,-21.4,359.5,612.4,59.2,234.6,103.9,-15.1,101.7,77.1
40505,32,32.2785937,-80.9944026,8094.7,26072,177.3,239.09,0.392,4.2,26.5,35.7,9.2,7.89,0.71,-28.6,327.9,-21,358.7,613.5,59.2,235.1,103.9,-14.8,101.7,77.3
40506,32,32.2798924,-80.9934416,8107.8,26122,177.9,240.06,0.394,4.3,26.68,35.7,9.1,7.67,0.69,-28.5,328.2,-20.9,358,613.8,59.2,234.8,103.9,-14.8,101.7,77.1
40507,32,32.2811961,-80.9921419,8121.7,26170,178.7,241.62,0.397,4.1,26.94,35.7,8.8,7.03,0.41,-28.6,328.3,-20.9,357.2,611.7,59,234.4,103.9,-15,101.7,76.7
40508,32,32.2825025,-80.9911775,8136,26215,179.5,243.17,0.399,3.7,26.96,35.7,8.8,6.43,0.51,-29,327.9,-21.2,356.5,612.5,59,234.5,103.9,-14.8,101.7,76.5
40509,32,32.2838191,-80.9898884,8150,26247,180.5,244.92,0.402,3.4,26.72,35.7,9,6.09,0.94,-29,328.1,-21.1,356,610.2,59.4,235,103.9,-14.2,101.7,76.6
40510,32,32.2851425,-80.9889485,8163,26285,181.4,246.48,0.405,3.3,26.5,35.7,9.2,6.09,1.49,-29.1,328.1,-21,355.4,609.6,59.8,235.5,103.9,-13.7,101.7,76.8
40511,32,32.2864718,-80.9876716,8175,26315,182.3,248.42,0.408,3.4,26.53,35.8,9.3,6.21,2.15,-29.2,328.1,-21,354.9,608.5,59.8,235.9,103.9,-13.1,101.7,76.8
40512,32,32.2878063,-80.9867453,8186.3,26352,183.1,250.17,0.411,3.6,26.83,35.9,9.1,6.33,2.81,-29.3,328.1,-21.1,354.4,608.6,59.6,235.8,103.9,-12.5,101.7,76.5
40513,32,32.2891451,-80.9854841,8197.7,26395,184,252.12,0.414,3.6,27.16,36,8.8,5.94,3.53,-29.4,328.1,-21.1,353.7,608.1,59.3,235.6,103.9,-11.7,101.7,76
40514,32,32.2904888,-80.9843052,8209.6,26440,185.1,254.06,0.418,3.2,27.27,36.1,8.9,4.85,4.07,-29.3,328.4,-20.8,353,608,59.4,235.8,103.9,-10.9,101.8,75.7
40515,32,32.2918393,-80.983065,8221.7,26487,186.5,256.59,0.423,2.2,27.22,36.2,9,2.75,3.66,-29.5,328.4,-20.8,352.2,608.8,59.8,236.4,103.9,-10.8,101.8,75.4
40516,32,32.2931965,-80.9820937,8233.2,26510,187.8,259.7,0.427,0.9,27.21,36.2,9,0.76,3,-29.8,328.1,-21,351.9,607.3,59.6,236.7,103.9,-10.9,101.8,75
40517,32,32.2945666,-80.9808723,8242.5,26500,189.3,261.84,0.431,0.1,27.41,36.3,8.9,0.43,2.8,-29.8,328,-20.8,352,606.4,59.9,236.6,103.9,-11,101.8,74.7
40518,32,32.2959467,-80.9796623,8247.7,26480,190.9,263.78,0.434,0.1,27.72,36.4,8.7,0.97,3.99,-29.8,328,-20.6,352.3,607.8,60.3,236.2,103.9,-10,101.8,74.6
40519,32,32.2973354,-80.9784661,8249.1,26485,192.4,266.5,0.439,0.3,27.94,36.5,8.6,0.89,4.64,-29.8,328,-20.4,352.3,607.1,60.4,236.3,103.9,-9.4,101.8,74.4
40520,32,32.2987319,-80.9772838,8249.4,26495,193.8,269.03,0.443,0.2,28.2,36.7,8.5,0.29,4.06,-30,327.7,-20.5,352.1,606.8,60.5,236.5,103.9,-9.8,101.8,74
40521,32,32.3001362,-80.975848,8250.5,26500,195.3,271.36,0.447,-0.2,28.63,36.8,8.1,-0.29,1.84,-29.9,327.9,-20.2,352,607.6,60.5,236,103.9,-11.8,101.8,73.3
40522,32,32.3015497,-80.9746891,8251.5,26497,196.7,274.47,0.452,-0.5,29.11,36.8,7.7,-0.7,1.15,-30,327.7,-20,352.1,606.7,59.8,235.2,103.9,-12.3,101.8,72.7
40523,32,32.3029733,-80.9734615,8251.7,26485,198.1,276.8,0.456,-0.5,29.16,36.8,7.7,-0.48,1.9,-29.9,327.8,-19.8,352.3,606.7,60,235.2,103.9,-11.7,101.8,72.8
40524,32,32.3044148,-80.9723266,8250.7,26480,199.5,279.14,0.46,-0.4,28.8,36.9,8.1,-0.42,2.48,-30.3,327.3,-20.1,352.4,607.2,60.8,236.3,103.8,-11.1,101.8,73.2
40525,32,32.3058566,-80.9708547,8249.2,26470,200.8,281.27,0.463,-0.1,28.77,36.9,8.2,0.09,2.37,-30,327.6,-19.5,352.5,607.3,61.1,236.5,103.8,-11.4,101.8,73.3
40526,32,32.3073063,-80.9697363,8247.9,26475,202.1,283.8,0.468,0.1,29.32,37,7.7,0.12,2.22,-29.9,327.8,-19.3,352.4,607.3,60.6,235.8,103.8,-11.5,101.8,72.8
40527,32,32.3087632,-80.9682847,8247.2,26472,203.3,285.94,0.471,0.4,29.99,37.1,7.1,0.75,2.29,-30.2,327.4,-19.4,352.5,606.2,60.2,234.7,103.8,-11.6,101.8,72.2
40528,32,32.3102261,-80.9668435,8247.5,26472,204.3,287.88,0.474,1,30.23,37.2,7,1.7,2.14,-30.2,327.4,-19.3,352.5,606.7,60,234.6,103.8,-12.1,101.8,72.2
