Time_Start,Day_Of_Year,Latitude,Longitude,GPS_Altitude,Pressure_Altitude,Ground_Speed,True_Air_Speed,Mach_Number,Vertical_Speed,True_Heading,Track_Angle,Drift_Angle,Pitch_Angle,Roll_Angle,Static_Air_Temp,Potential_Temp,Total_Air_Temp,Static_Pressure,Cabin_Pressure,Wind_Speed,Wind_Direction,Solar_Zenith_Angle,Aircraft_Sun_Elevation,Sun_Azimuth,Aircraft_Sun_Azimuth
55444,62,32.0095415,-81.1288273,10.1,-200,0.1,22.74,0.033,0,274.28,274.3,0,4.96,-0.31,48.9,320.2,49,1020.6,1013.1,11.6,274.3,50.3,43.8,134.7,-136.5
55445,62,32.0095412,-81.1288284,10.1,-200,0.1,22.74,0.033,0,274.28,274.3,0,4.98,-0.31,48.3,319.6,48.4,1020.6,1013.7,11.6,274.3,50.2,43.8,134.7,-136.5
55446,62,32.0095411,-81.1288277,10.1,-200,0.3,22.74,0.033,0,274.3,274.3,0,5,-0.36,48.3,319.6,48.4,1020.6,1014.5,11.4,274.3,50.2,43.9,134.7,-136.5
55447,62,32.0095413,-81.1288196,10.1,-200,1.4,22.94,0.033,0,274.39,274.4,0,5.01,-0.32,55.3,326.5,55.4,1020.6,1020.1,10.4,274.4,50.2,43.9,134.7,-136.6
55448,62,32.0095424,-81.128795,10.1,-200,3.5,22.94,0.033,0,274.38,274.4,0,4.99,-0.37,54.7,325.9,54.7,1020.6,1026.2,8.3,274.4,50.2,43.9,134.7,-136.6
55449,62,32.0095447,-81.1287409,10.1,-197,6.9,22.94,0.033,0,273.6,273.6,0,5,-0.34,54.7,326,54.8,1020.5,1036.8,4.9,273.6,50.2,43.8,134.7,-135.7
55450,62,32.009547,-81.128984,10.1,-197,11.3,22.94,0.032,0,272.82,272.8,0,4.94,-0.32,58.2,329.4,58.2,1020.5,1032.4,0.5,273.3,50.2,43.7,134.7,-134.9
55451,62,32.0095511,-81.129184,10.1,-200,15.8,32.66,0.045,0,273,273,0,4.86,-0.28,70,341.2,70.1,1020.6,1023.3,1,273,50.2,43.7,134.7,-135.2
55452,62,32.0095575,-81.1293362,10.2,-200,20.3,41.79,0.058,0,272.98,273,0,4.84,-0.66,70,341.2,70.2,1020.6,1019.8,1.2,272.6,50.2,43.9,134.7,-135.4
55453,62,32.0095645,-81.1294402,10.3,-200,24.9,54.04,0.075,0,272.37,272.4,0,4.99,-1.12,70,341.2,70.4,1020.6,1018.6,2.9,272.1,50.2,44.3,134.7,-134.9
55454,62,32.0095717,-81.129839,10.4,-202,29.5,62.79,0.089,0.1,272.91,271.8,-1.1,4.91,-0.43,57.1,328.3,57.6,1020.6,1019.3,2.9,284.4,50.2,43.8,134.7,-135.1
55455,62,32.0095815,-81.1301892,10.6,-205,34.1,65.7,0.094,0.1,272.55,272,-0.6,4.92,-0.77,47.4,318.7,48,1020.8,1019.1,0.4,44.9,50.2,44,134.7,-134.9
55456,62,32.0095919,-81.130491,10.7,-205,38.6,76.59,0.111,0.1,272.18,271.6,-0.5,4.84,-0.49,40.8,312.1,41.6,1020.8,1020,0.9,298.2,50.2,43.8,134.7,-134.4
55457,62,32.0096022,-81.1310885,11,-205,43.1,82.03,0.12,0.1,273.31,271.7,-1.6,4.78,-0.61,34.5,305.8,35.4,1020.8,1019.8,1.5,39.4,50.2,43.9,134.7,-135.7
55458,62,32.0096151,-81.1312953,11.2,-207,47.5,87.28,0.128,0.1,273.64,272.1,-1.6,4.96,-0.48,30.6,302,31.6,1020.9,1020.1,2.9,67.3,50.2,43.9,134.7,-135.9
55459,62,32.0096321,-81.1321428,11.5,-212,51.8,98.94,0.146,0.3,273.11,272.3,-0.9,6.38,-0.59,27.6,299,28.9,1021.1,1021.2,1.2,53.8,50.2,45,134.7,-134.4
55460,62,32.0096513,-81.1326025,11.8,-212,55.9,110.99,0.165,0.5,272.51,272.3,-0.2,4.26,-0.83,25.5,296.9,27.1,1021,1019.8,1.2,282.2,50.2,43.6,134.8,-135.3
55461,62,32.0096716,-81.1330189,12.6,-202,60,114.1,0.17,0.5,271.79,272.2,0.4,4.48,0.05,23.5,294.9,25.2,1020.7,1020.4,1.4,110.1,50.2,43.2,134.8,-134
55462,62,32.009693,-81.1337372,14.1,-197,63.7,122.07,0.182,1.1,271.43,272.2,0.8,7.3,-0.72,22.3,293.7,24.2,1020.5,1019.3,1.2,135.2,50.2,45.6,134.8,-131.9
55463,62,32.0097148,-81.1344217,15.8,-175,66.2,133.74,0.2,3,271.55,272.1,0.5,13.67,-0.83,21.5,293,23.9,1019.7,1020.7,2.7,257.8,50.2,49.7,134.8,-126.7
55464,62,32.0097354,-81.1350937,18.7,-125,66,138.98,0.208,5.9,272.16,271.9,-0.2,20.95,-1.63,20.8,292.5,23.4,1017.9,1020,5.5,275.3,50.2,54.6,134.8,-120
55465,62,32.0097549,-81.1357741,25.9,-47,65.1,140.54,0.211,7.4,272.8,271.9,-0.9,23.35,-0.98,20.3,292.2,22.9,1015,1016.5,7.3,280.9,50.2,55.4,134.8,-117.5
55466,62,32.0097739,-81.1364667,41.7,42,63.7,141.71,0.209,8.7,271.91,271.8,-0.1,25.25,-2.55,19.6,291.8,22.2,1011.7,1012.7,9.2,272.7,50.2,57.4,134.8,-114.2
55467,62,32.0097911,-81.1371656,64.8,147,64,142.68,0.218,8.5,270.15,271.6,1.4,23.91,-4.91,19.6,292.1,22.4,1007.9,1009,9.6,260.4,50.2,58.3,134.8,-114.4
55468,62,32.0098052,-81.1378614,92.2,227,63.6,141.12,0.21,8.9,267.39,271.1,3.7,25.67,-3.78,19,291.7,21.6,1004.9,1006,10,243.1,50.2,56.9,134.8,-108.2
55469,62,32.0098132,-81.1385687,120.9,342,62.5,146.18,0.22,9.5,265.27,270.5,5.3,25.74,-3.83,18.1,291.2,20.9,1000.7,1002.3,14.2,241.5,50.2,56.2,134.8,-105.6
55470,62,32.0098159,-81.1392783,149.4,442,63,145.59,0.219,9.1,264.35,270,5.7,25.13,-4.36,18.1,291.5,20.9,997.2,998.7,13.7,237.4,50.2,56.2,134.8,-105.3
55471,62,32.0098136,-81.1399818,180.5,522,63.3,143.26,0.216,8.8,263.74,269.5,5.7,26.76,-7.12,17.8,291.4,20.5,994.3,996.3,12.5,233.1,50.2,59,134.8,-102
55472,62,32.0098025,-81.1406884,211.3,620,62.7,140.54,0.213,9.1,261.29,268.1,6.9,28.05,-14.55,17.6,291.5,20.2,990.8,992,12.5,224.8,50.2,65.5,134.8,-95.9
55473,62,32.009773,-81.1414024,240.8,720,62.4,142.29,0.213,9,258.7,265.9,7.2,25.99,-18.92,16.8,291,19.5,987.1,986.6,13.7,224,50.2,68.3,134.8,-96.6
55474,62,32.0097191,-81.1417715,270.5,812,62.8,143.65,0.216,8.5,255.76,263.5,7.8,24.93,-20.17,16.7,291.2,19.4,983.8,983.8,14.4,219.8,50.2,68.3,134.8,-93.9
55475,62,32.0096416,-81.1424842,300.7,907,63.3,145.2,0.22,8.2,252.91,260.8,8,23.55,-19.95,16.1,290.9,18.9,980.5,980.1,14.8,217,50.2,66.8,134.8,-91.9
55476,62,32.0095366,-81.1431985,329.8,990,63.4,145.79,0.221,8.2,250.12,257.9,7.8,23.04,-20.74,16.2,291.2,19,977.5,975.1,14.9,215,50.2,66.6,134.8,-88.2
55477,62,32.0094034,-81.1439139,357.6,1100,64.8,146.95,0.221,7.4,248.05,255.7,7.6,21.14,-20.37,15.8,291.2,18.7,973.6,970.9,14.3,210.9,50.2,65.3,134.8,-88.7
55478,62,32.0092489,-81.1446131,385,1145,66.8,148.12,0.222,6.3,245.12,253.9,8.8,19.89,-22.24,15.6,291.1,18.5,972,968,14.4,200.1,50.2,66.1,134.8,-86.1
55479,62,32.0090605,-81.1453193,411.2,1217,65.8,152.2,0.23,7.7,239.69,248.9,9.4,22.36,-25.63,15.2,290.9,18.2,969.5,966.9,17,201.4,50.2,67.3,134.8,-70
55480,62,32.0088237,-81.1457198,433.2,1312,64.6,153.56,0.232,8.5,236.03,243.6,7.7,23.82,-29.19,15,291,18.1,966.1,963.1,17.2,206.4,50.2,68.6,134.8,-57.4
55481,62,32.0085464,-81.1464903,456.7,1407,65.2,156.09,0.236,8.1,234.99,239.9,5,22.4,-29.15,14.8,291.1,18,962.7,959.8,16.3,215,50.2,68.5,134.8,-59
55482,62,32.0082349,-81.1469286,484.4,1487,66.3,158.23,0.24,7.5,233.32,236.6,3.3,21.62,-29.03,14.5,291,17.8,960,958.5,15.7,219.3,50.2,67.8,134.8,-58.1
55483,62,32.0078885,-81.1477243,512.3,1567,67.2,159.39,0.24,7.2,230.64,233,2.4,21.51,-28.67,14.3,291.1,17.6,957.2,953.2,15.1,220.1,50.2,66.1,134.8,-54.9
55484,62,32.0075072,-81.148197,538.2,1647,67.8,160.56,0.243,7.2,226.86,229.3,2.5,21.02,-26.74,14.2,291.2,17.6,954.4,951.6,15.1,215.9,50.2,62.6,134.8,-53.2
55485,62,32.0070911,-81.1486969,562.7,1720,68.4,161.73,0.244,7.4,222.65,225.3,2.7,19.6,-24.69,14.2,291.4,17.6,951.8,948.7,15.2,210.6,50.2,59.3,134.8,-52.6
55486,62,32.0066421,-81.1492256,586.9,1815,69.4,166.78,0.254,7.3,220.28,222.2,1.9,16.84,-20.2,13.5,291,17.2,948.6,946.2,16.6,212.2,50.2,55.4,134.8,-58.1
55487,62,32.0061647,-81.1497611,611.4,1885,71.7,169.5,0.257,6.3,218.03,220.6,2.5,16.29,-18.21,13.1,290.8,16.9,946.1,944.5,15.9,206.4,50.2,53,134.8,-58
55488,62,32.005661,-81.1503089,636.5,1955,72.5,172.61,0.261,6.8,215.57,217.8,2.2,16.96,-17.72,13.3,291.2,17.2,943.7,941.4,16.6,205.8,50.2,51.3,134.8,-55
55489,62,32.0051321,-81.1505327,658.7,2025,73.9,175.53,0.266,6.8,214.04,215.6,1.5,16.23,-18.74,13.3,291.5,17.4,941.2,939.2,16.6,207.1,50.1,51.9,134.9,-53.3
55490,62,32.0045779,-81.1511194,681,2097,75,176.31,0.268,7.1,212.01,213,0.9,16.31,-20.01,12.8,291.2,16.9,938.7,935.4,15.8,207.3,50.1,52.1,134.9,-49.8
55491,62,32.0039982,-81.1513858,703.7,2177,76.2,182.72,0.278,7.3,210.05,210.4,0.3,15.62,-18.91,12.8,291.4,17.2,936,934.6,17.8,208.6,50.1,50.8,134.9,-49.5
55492,62,32.0033928,-81.1520172,727,2260,77.9,186.61,0.283,7,208.38,208.3,-0.1,14.75,-18.78,12.1,291,16.6,933.1,930.6,18.1,208.7,50.1,50.5,134.9,-48.7
55493,62,32.0027618,-81.1523209,751,2337,79.7,190.5,0.29,6.6,207.05,206.4,-0.7,14.4,-18.57,12.3,291.4,17.1,930.5,928,18.3,209.9,50.1,50,134.9,-47.9
55494,62,32.0021063,-81.1526434,774.9,2395,81,194.97,0.296,6.9,205.14,204.1,-1,16.12,-18.75,12.1,291.4,17.1,928.6,926.5,19.4,209.5,50.1,48.4,134.9,-44.3
55495,62,32.0014308,-81.1529981,797.6,2482,81.5,196.52,0.298,7.9,203.12,201.4,-1.8,17.18,-17.38,12,291.5,17.1,925.6,923.6,19.8,210.2,50.1,45.8,134.9,-42.9
55496,62,32.0007391,-81.1533858,820,2575,82.1,199.44,0.303,8.3,200.9,199.2,-1.8,17.53,-17.09,11.9,291.7,17.1,922.5,920.7,20.7,207.7,50.1,44.5,134.9,-40.9
55497,62,32.0000317,-81.1534578,845.1,2660,82.9,202.55,0.309,8.6,198.86,197,-1.9,17.89,-17.79,11.3,291.4,16.8,919.5,917.4,21.5,206,50.1,43.9,134.9,-38.1
55498,62,31.9993112,-81.1539051,872.5,2757,83.1,204.49,0.311,9.4,196.79,194.5,-2.3,18.77,-17.96,11,291.3,16.5,916.3,914,22.4,205.3,50.1,42.5,134.9,-35.6
55499,62,31.9985816,-81.1540477,900.6,2870,83.3,205.66,0.313,10,194.43,192.1,-2.4,18.68,-18.18,10.9,291.6,16.5,912.5,910.4,22.8,203,50.1,41.7,134.9,-33.4
55500,62,31.9978401,-81.1542213,930.7,2985,84.4,207.02,0.315,9.8,192.35,190.1,-2.3,17.86,-18.9,10.8,291.8,16.4,908.6,908.4,22.4,200.9,50.1,41.9,134.9,-31.3
55501,62,31.9970839,-81.1544225,963.4,3082,85.5,207.99,0.317,9.6,190.85,188.1,-2.8,17.96,-19.46,10.7,292,16.4,905.4,904.5,22,201.6,50.1,41.5,134.9,-29.4
55502,62,31.9963156,-81.1543129,996.3,3182,86.2,209.74,0.32,9.9,189.33,185.8,-3.6,18.67,-19.55,10.2,291.8,16.1,902,901.2,22.5,203,50.1,40.3,134.9,-27.7
55503,62,31.9955387,-81.1545833,1028.4,3300,86.8,212.07,0.324,10.1,187.42,183.5,-4,18.42,-19.77,9.6,291.6,15.5,898.1,896.7,23.3,202.2,50.1,39.8,134.9,-26.1
55504,62,31.9947524,-81.1545449,1060.9,3410,87.8,214.02,0.327,10,185.34,181.4,-4,17.71,-20.33,9.9,292.2,15.9,894.5,894.2,23.3,200.3,50.1,39.7,134.9,-24.1
55505,62,31.9939548,-81.154539,1094.3,3522,89.2,215.38,0.329,9.6,183.77,179.4,-4.4,16.8,-20.74,9.6,292.3,15.7,890.8,889.2,22.9,201,50.1,40,134.9,-22.8
55506,62,31.9931436,-81.1545634,1127.8,3625,90.9,216.74,0.331,9.2,182.67,177.7,-5,15.86,-20.86,8.7,291.7,14.9,887.3,887.7,22.4,203.3,50.1,40.3,134.9,-22.1
55507,62,31.9923178,-81.1546167,1160.4,3720,92.7,218.88,0.335,8.6,181.48,176.1,-5.5,14.9,-20.89,8.7,291.9,15,884.3,883.4,22.1,204.7,50.1,40.6,134.9,-21.5
55508,62,31.9914774,-81.1543566,1191.6,3805,94.4,220.63,0.338,8.3,179.65,174.2,-5.5,14.77,-21.45,8.3,291.8,14.8,881.5,880.3,21.5,204.3,50.1,40.2,134.9,-19.4
55509,62,31.9906268,-81.1541338,1221,3882,95.5,221.99,0.34,8.8,177.8,172,-5.8,16.53,-17.84,8.1,291.8,14.7,878.9,878.1,21.5,204.5,50.1,36.4,134.9,-20.8
55510,62,31.9897794,-81.1539534,1248.9,3980,94.6,221.6,0.339,10.8,176.53,169.4,-7.1,20.48,-12.17,8,292,14.5,875.8,875,23.3,206.8,50.1,30,134.9,-23.7
55511,62,31.9889501,-81.153808,1277.2,4117,93.2,222.18,0.34,12.4,175.48,167.8,-7.8,22.03,-8.19,7.7,292.1,14.2,871.3,870.8,25.2,205.1,50.1,26.4,134.9,-25.8
55512,62,31.9881346,-81.1536806,1310.1,4262,92.3,222.18,0.341,13.1,174.36,166.9,-7.6,22.78,-4.86,7.3,292.2,13.8,866.6,867.6,25.7,202.1,50.1,23.8,134.9,-27.4
55513,62,31.9873264,-81.1535617,1349.5,4422,92.1,219.85,0.337,13.2,173.66,166.6,-7.2,22.33,-1.31,7.3,292.7,13.7,861.4,862.3,24.5,201.2,50.1,22.3,134.9,-29.7
55514,62,31.9865164,-81.153102,1392.2,4562,92.6,217.71,0.334,12.8,173.56,166.6,-7.1,21.69,1.64,6.8,292.6,13.1,857,857.3,23,202.8,50.1,21.3,134.9,-32
55515,62,31.9857018,-81.1529843,1436.2,4697,93,216.93,0.333,12.5,173.92,166.8,-7.2,21.51,2.47,6.6,292.8,12.8,852.7,853.1,22.5,204.7,50.1,21.1,135,-32.9
55516,62,31.9848846,-81.1528625,1479,4825,93,216.16,0.332,12.5,174.07,167.1,-7.1,21.77,2.39,6.1,292.7,12.2,848.6,850.6,22,204.9,50.1,20.9,135,-32.9
55517,62,31.9840672,-81.1527366,1520.6,4965,93,214.21,0.329,12.4,173.79,167.3,-6.6,21.86,1.46,6.2,293.2,12.3,844.2,845,20.7,204.4,50.1,21.3,135,-32
55518,62,31.9832487,-81.1522659,1561.8,5102,93.1,213.04,0.328,12.3,173.97,167.4,-6.7,21.7,0.71,5.9,293.3,11.9,839.9,840.4,20.2,205.9,50.1,21.8,135,-31.6
55519,62,31.982428,-81.1521381,1603,5230,93.5,212.07,0.326,12.1,174.7,167.4,-7.4,21.32,0.46,5.9,293.7,11.8,835.8,835.3,20.2,210.7,50.1,22.4,135,-32.1
55520,62,31.9816037,-81.1520098,1643.9,5357,93.8,210.91,0.324,11.9,175.83,167.5,-8.4,21.41,0.88,5.7,293.9,11.6,831.8,830.7,20.8,216.7,50.1,22.3,135,-33.3
55521,62,31.9807784,-81.1518791,1684.1,5477,93.6,208.38,0.321,12,176.76,167.7,-9.1,22.12,1.32,6,294.6,11.7,828.1,828.6,20.9,221.7,50.1,21.7,135,-34.2
55522,62,31.9799564,-81.1513963,1723.5,5610,93.2,209.16,0.321,12.2,176.16,168,-8.3,22.32,1.05,6.4,295.5,12.2,824,823.7,20.3,216.9,50,21.6,135,-33.5
55523,62,31.9791361,-81.1512562,1763,5740,92.9,209.35,0.321,12.3,174.32,168.1,-6.4,22.51,-0.36,6.6,296.1,12.3,819.9,819.3,18.4,207.6,50,21.8,135,-30.9
55524,62,31.978319,-81.1511163,1803,5867,92.5,209.93,0.323,12.4,173.33,167.9,-5.5,22.7,-1.31,6.4,296.3,12.2,816.1,815.8,18.2,202.1,50,21.9,135,-29.4
55525,62,31.9775061,-81.1509782,1843.6,6012,92,209.16,0.321,12.5,173.98,167.8,-6.3,22.96,-0.95,6.8,297.2,12.6,811.6,812.1,18.9,205.5,50,21.6,135,-30.1
55526,62,31.9766967,-81.1508403,1884.5,6142,91.7,208.77,0.321,12.5,174.97,167.8,-7.3,22.94,-0.23,6.6,297.4,12.4,807.6,807.4,20,209.9,50,21.5,135,-31.4
55527,62,31.9758895,-81.1503575,1925.8,6282,91.5,208.38,0.32,12.4,174.83,167.9,-7.1,22.77,-1.02,6.1,297.3,11.9,803.4,802.4,19.7,208.8,50,22,135,-30.7
55528,62,31.9750825,-81.1502185,1967.3,6417,91.7,208.38,0.32,12.1,173.17,167.7,-5.6,21.9,-5.03,5.8,297.4,11.6,799.3,799.8,18.2,201.9,50,24.4,135,-26.5
55529,62,31.9742734,-81.150087,2008.5,6535,92.1,207.8,0.32,11.7,171.1,167.1,-4.1,21.28,-9.72,5.3,297.2,11,795.8,794.4,16.3,194.3,50,26.5,135,-21.2
55530,62,31.9734682,-81.1499705,2049,6662,92.5,207.99,0.32,11.4,169.82,165.9,-3.9,20.83,-13.57,5,297.3,10.7,792,792.1,16,193.1,50,28,135,-17
55531,62,31.9726592,-81.1495336,2088.1,6785,93.1,208.38,0.321,11.2,169.27,164.6,-4.7,20.39,-16.88,4.8,297.5,10.5,788.3,788.1,16.3,197,50,29.4,135,-13.8
55532,62,31.9718507,-81.1494664,2126.2,6902,93.8,209.16,0.322,10.9,168.5,162.9,-5.6,20.01,-21.06,4.2,297.3,10,784.7,784.7,16.9,201.2,50,30.8,135,-9.6
55533,62,31.9710434,-81.1490881,2163.5,7020,94.6,209.93,0.324,10.6,166.9,161,-5.9,19.27,-23.52,4,297.4,9.8,781.3,780.9,17,201.9,50,31.4,135,-6.3
55534,62,31.9702372,-81.1487456,2199.9,7132,95.8,209.74,0.324,10,164.67,159,-5.7,18.17,-25.15,4.1,297.9,9.9,778,777.1,15.7,201.7,50,31.7,135,-3.4
55535,62,31.9694315,-81.1484415,2235.3,7232,97,210.32,0.325,9.7,162.38,156.8,-5.6,17.78,-26.2,3.7,297.8,9.5,775,774.3,15,201.4,50,31.2,135,-0.8
55536,62,31.9686306,-81.1478373,2269.3,7327,98.1,212.07,0.327,9.5,159.92,154.4,-5.6,17.71,-27.83,3.6,298,9.5,772.2,771.2,14.8,199.4,50,30.3,135,2.3
55537,62,31.9678406,-81.1472826,2301.7,7430,98.9,213.43,0.329,9.7,156.65,151.3,-5.4,17.78,-29.54,3.5,298.2,9.5,769.2,768.3,14.6,195.8,50,28.8,135,6
55538,62,31.967067,-81.1467821,2333.2,7535,99.8,214.21,0.331,9.7,153.67,148.2,-5.4,17.65,-30.01,3.9,299,10,766.1,765.3,14.4,194.9,50,27.5,135,8.4
55539,62,31.966312,-81.146335,2365,7635,100.6,215.38,0.333,9.8,150.95,145,-5.9,18.33,-30.72,3.1,298.4,9.3,763.2,763.7,15,195.1,50,25.6,135,10.7
55540,62,31.9655817,-81.1455999,2397.1,7745,101.3,216.35,0.334,10.1,148.49,141.6,-6.8,19.07,-31.62,2.6,298.3,8.8,760,759.7,16.2,197,50,23.8,135.1,13.1
55541,62,31.9648794,-81.1449188,2429.5,7862,102.2,217.13,0.336,10.2,145.87,138.4,-7.4,18.73,-31.97,2.6,298.6,8.8,756.6,757.2,16.9,197.9,50,22.8,135.1,15
55542,62,31.9642026,-81.1442865,2462.7,7975,103.2,217.9,0.337,10,142.51,135.5,-7,17.67,-32.89,2.3,298.7,8.5,753.4,752.9,15.9,195,50,22,135.1,17.8
55543,62,31.9635519,-81.1433592,2496.5,8072,104.4,218.88,0.339,9.6,139.29,132.6,-6.7,16.84,-33.41,2,298.7,8.3,750.5,751,15.1,193.1,50,21.1,135.1,20.3
55544,62,31.9629282,-81.1424796,2529.9,8180,105.8,219.46,0.34,9.3,136.79,129.7,-7,16.43,-33.44,1.7,298.7,8,747.5,749,15.3,195.6,50,20.3,135.1,21.9
55545,62,31.9623327,-81.1416458,2562.2,8275,107.1,220.43,0.341,8.9,134.62,127,-7.6,15.92,-33.22,1.4,298.7,7.9,744.8,747.1,15.9,197.6,50,19.8,135.1,23.3
55546,62,31.9617667,-81.1408554,2593.5,8367,108.4,220.82,0.342,8.5,131.87,124.2,-7.6,15.22,-33.62,1.5,299.1,7.9,742.1,745.2,15.7,198.8,50,19,135.1,25.4
55547,62,31.9612341,-81.1397645,2623.5,8452,109.6,221.21,0.343,8.2,128.7,121.3,-7.3,14.36,-34.35,1,298.8,7.5,739.7,744.9,15,198.8,50,18.1,135.1,27.9
55548,62,31.9607387,-81.1387161,2652.3,8545,110.9,221.79,0.344,7.8,125.89,118.4,-7.4,13.42,-34.51,1,299.1,7.5,737.1,744.8,15,199.9,50,17.6,135.1,29.9
55549,62,31.9602788,-81.1377066,2680,8632,112.4,222.76,0.346,7.1,123.93,116,-7.9,12.21,-34.35,0.6,299,7.1,734.6,743.9,15.8,202,50,17.7,135.1,31.3
55550,62,31.9598504,-81.1367334,2706.6,8705,114,223.93,0.347,6.4,122.06,113.7,-8.4,11.05,-34.93,0.4,299,7,732.6,744.3,16.7,203.8,50,17.6,135.1,32.9
55551,62,31.9594533,-81.1354528,2731.5,8770,115.8,225.87,0.351,5.6,120.09,111.4,-8.6,9.76,-35.27,0.7,299.6,7.4,730.7,745.4,17.6,204.4,50,17.5,135.1,34.5
55552,62,31.9590872,-81.1342073,2753.8,8822,117.7,228.01,0.354,4.7,117.63,109.3,-8.3,8.24,-35.02,0.3,299.3,7.1,729.2,745.9,17.1,204.8,49.9,17.7,135.1,36.3
55553,62,31.9587542,-81.1333386,2773.5,8862,119.4,229.57,0.357,4,114.67,107,-7.6,7.2,-34.08,0.1,299.2,7.1,728.1,745.3,15.9,205.5,49.9,17.8,135.1,38.1
55554,62,31.9584632,-81.1318162,2790.3,8897,120.8,230.15,0.357,3.9,111.58,104.1,-7.4,7.14,-34.17,0.1,299.3,7.1,727.2,744.8,15.8,206.6,49.9,16.6,135.1,40.3
55555,62,31.9582228,-81.1306651,2804.6,8942,121.9,231.12,0.359,3.6,109.2,101.3,-7.8,6.72,-33.58,0.1,299.5,7.1,725.9,743.5,16.9,205.5,49.9,16.3,135.1,41.8
55556,62,31.9580293,-81.1295364,2817.7,8977,123,231.71,0.36,3.3,106.74,98.8,-7.8,6.22,-32.83,0.2,299.7,7.3,724.9,744.3,17.2,205.5,49.9,16.3,135.1,43.4
55557,62,31.9578818,-81.1280838,2830.3,9012,124,232.09,0.361,2.9,104.17,96.4,-7.7,5.64,-31.87,-0.4,299.2,6.7,723.9,744.2,17.1,205.8,49.9,16.4,135.1,45
55558,62,31.9577797,-81.1269914,2841.8,9045,125,233.07,0.362,2.6,101.57,94,-7.5,5.08,-30.88,-0.4,299.2,6.7,723.1,745.4,16.9,205.3,49.9,16.6,135.1,46.7
55559,62,31.9577229,-81.1255709,2852.2,9070,126.1,233.65,0.363,2.4,99.11,91.7,-7.3,4.65,-30.23,-0.2,299.6,7,722.3,745.1,17,205.7,49.9,16.6,135.2,48.4
55560,62,31.9577114,-81.1241634,2861.5,9095,127.2,234.62,0.365,2.2,96.83,89.4,-7.3,4.48,-29.92,-0.5,299.3,6.8,721.7,744.3,17.3,205.1,49.9,16.3,135.2,50
55561,62,31.9577462,-81.1227668,2870,9115,128.3,235.79,0.366,2.2,94.4,87.1,-7.2,4.73,-29.69,-0.6,299.3,6.7,721.1,745.4,17.4,204.5,49.9,15.7,135.2,51.7
55562,62,31.9578316,-81.1213779,2877.8,9135,129.3,235.79,0.367,2.7,91.4,84.4,-6.9,5.68,-28.92,-0.7,299.2,6.7,720.5,746.3,17.3,205.5,49.9,15,135.2,53.6
55563,62,31.9579739,-81.1199916,2885.2,9167,130,235.59,0.367,3.3,88.34,81.6,-6.6,6.39,-28.08,-0.6,299.4,6.8,719.6,744.7,17.2,205.7,49.9,14.6,135.2,55.6
55564,62,31.9581688,-81.1186037,2893.5,9220,130.7,236.18,0.367,3.3,86.16,79.4,-6.7,5.66,-28.14,-0.4,299.8,7,718.2,745.6,17.5,204.5,49.9,14.5,135.2,57.4
55565,62,31.9584057,-81.1172149,2903.7,9250,131.5,235.79,0.367,3,84.09,77.4,-6.6,5.47,-27.46,-0.7,299.6,6.6,717.4,745.2,17.9,205.4,49.9,14.8,135.2,58.9
55566,62,31.9586842,-81.116167,2915,9280,132.3,235.98,0.367,2.9,81.97,75.4,-6.4,5.34,-26.92,-0.5,299.9,6.9,716.5,743.9,18.2,205.5,49.9,15,135.2,60.4
55567,62,31.9590048,-81.1147716,2925.3,9312,133.1,236.37,0.368,2.7,79.97,73.5,-6.4,4.88,-27.19,-0.7,299.8,6.6,715.6,745.3,18.4,205.4,49.9,14.6,135.2,62.1
55568,62,31.959365,-81.1133718,2935.1,9342,133.9,237.15,0.369,2.3,78.13,71.7,-6.4,4.22,-27.67,-0.8,299.8,6.6,714.8,744.8,18.6,204.5,49.9,14.2,135.2,63.8
55569,62,31.9597641,-81.1119674,2944.4,9362,134.9,237.93,0.37,2,76.12,69.8,-6.2,3.88,-27.83,-0.9,299.8,6.5,714.2,744.7,18.9,204.3,49.9,13.9,135.2,65.4
55570,62,31.9602051,-81.1105552,2952.9,9372,135.9,238.31,0.371,2.2,73.51,67.6,-5.8,4.83,-27.64,-1.1,299.6,6.3,714,745.6,18.8,205.5,49.9,13.4,135.2,67.2
55571,62,31.9606971,-81.1094708,2960,9397,136.5,238.12,0.371,3,70.82,65.1,-5.6,6.07,-26.78,-0.7,300.1,6.8,713.3,744.4,19,205.2,49.9,13.4,135.2,68.9
55572,62,31.9612396,-81.1080205,2966.9,9437,136.7,237.93,0.37,3.6,68.16,62.7,-5.4,6.73,-25.79,-0.6,300.3,6.9,712.2,743.8,18.9,204.6,49.9,13.9,135.2,70.7
55573,62,31.9618251,-81.10689,2975.8,9487,136.9,238.31,0.371,3.7,65.62,60.7,-4.8,6.29,-25.51,-0.7,300.4,6.8,710.8,743.8,18.1,205.2,49.9,14.2,135.2,72.7
55574,62,31.9624468,-81.1053949,2987.1,9530,137.2,238.51,0.371,3.5,63.19,58.9,-4.2,5.75,-25.97,-1,300.2,6.5,709.6,744.3,17.5,207.2,49.9,13.9,135.2,74.8
55575,62,31.963103,-81.1042218,2999.5,9567,137.4,238.51,0.371,3.2,61.23,57.1,-4,5.3,-26.37,-1.1,300.2,6.4,708.6,744.6,17.4,206.6,49.9,13.5,135.2,76.5
55576,62,31.9637926,-81.1030274,3011.6,9597,137.8,238.7,0.372,2.9,59.58,55.4,-4.1,4.89,-25.06,-1.1,300.3,6.4,707.8,745.4,17.7,205.1,49.9,14.8,135.3,77.7
55577,62,31.9645141,-81.1018119,3022.7,9625,138.1,239.09,0.372,2.7,57.56,53.6,-3.8,4.96,-24.69,-1.2,300.3,6.3,707,743.9,17.6,204.7,49.9,15.2,135.3,79.3
55578,62,31.9652689,-81.1005709,3032.9,9652,138.3,239.29,0.372,2.9,55.27,51.7,-3.4,4.94,-24.53,-1.2,300.4,6.3,706.2,744.3,17.2,205.3,49.9,15.3,135.3,81.1
55579,62,31.9660555,-81.0996457,3042.2,9690,138.4,239.48,0.373,2.6,53.33,50.1,-3.2,4.25,-24.35,-1.5,300.2,6,705.2,742.5,16.9,205.8,49.9,15.6,135.3,82.8
55580,62,31.9668683,-81.0983508,3051.7,9720,138.3,239.09,0.373,2.2,51.65,48.5,-3,3.32,-24.04,-1.4,300.4,6.2,704.4,741.5,16.9,204.9,49.9,16.1,135.3,84.3
55581,62,31.9677038,-81.0973756,3060.9,9742,138.3,239.29,0.373,1.3,50.36,47.3,-2.9,1.75,-23.47,-1.5,300.4,6,703.8,744.8,16.7,204.2,49.9,16.8,135.3,85.7
55582,62,31.9685592,-81.0963807,3068.8,9745,138.5,239.48,0.373,0.5,48.72,46,-2.5,1.03,-23.07,-1.2,300.7,6.4,703.7,744.9,16.5,205.3,49.9,17.2,135.3,87.2
55583,62,31.9694387,-81.095362,3074.4,9740,138.8,239.29,0.373,0.5,46.75,44.4,-2.2,1.24,-22.99,-1.7,300.1,5.8,703.9,745.6,16.6,206.7,49.9,17.3,135.3,88.7
55584,62,31.9703457,-81.0943136,3077.1,9745,139,239.48,0.373,0.6,44.86,42.7,-2,1.42,-22.04,-1.6,300.3,6,703.7,743.5,16.6,206.4,49.9,18.3,135.3,90.2
55585,62,31.9712785,-81.0932352,3078.7,9752,139.1,239.48,0.373,0.7,42.95,41.1,-1.7,1.48,-20.9,-1.6,300.3,6,703.5,744.3,16.5,207.1,49.9,19.5,135.3,91.7
55586,62,31.9722326,-81.0924697,3080.7,9760,139.2,239.68,0.373,0.8,41.22,39.5,-1.5,1.8,-19.88,-1.6,300.3,6,703.3,743.8,16.4,206.4,49.8,20.6,135.3,92.9
55587,62,31.9732104,-81.0913323,3082.9,9772,139.4,239.87,0.374,1,40.06,38.1,-1.8,2.31,-18.62,-1.5,300.5,6.1,703,744.3,16.6,203.4,49.8,21.9,135.3,93.7
55588,62,31.9742102,-81.0905117,3085.5,9777,140,241.23,0.376,1.7,38.54,36.6,-1.8,4,-17.12,-1.6,300.4,6.1,702.8,748,16.5,201.9,49.8,23.6,135.3,94.2
55589,62,31.975238,-81.0896652,3088.7,9802,141.3,244.34,0.381,2.9,36.49,35,-1.3,5.77,-15.6,-1.4,300.7,6.5,702.2,750,16,203.2,49.8,25.4,135.3,95.1
55590,62,31.9762959,-81.088794,3093.2,9845,142.7,247.84,0.386,4.4,34.28,33.5,-0.7,7.6,-14.91,-1.8,300.4,6.3,701,747.1,15.3,207,49.8,26.5,135.3,96
55591,62,31.9773808,-81.0878971,3101.2,9900,143.6,250.76,0.391,5.8,32.59,32.1,-0.4,9.62,-12.99,-1.5,300.9,6.8,699.5,746.7,14.6,207.8,49.8,28.9,135.3,96.2
55592,62,31.9784864,-81.0873169,3113.8,9965,143.8,252.31,0.393,7.5,31.27,30.8,-0.3,12.3,-10.9,-1.5,301.1,6.9,697.7,747.1,14,206.5,49.8,31.4,135.3,95.5
55593,62,31.9796041,-81.0863658,3131.1,10062,143.3,253.67,0.395,9.3,30.25,29.8,-0.3,14.48,-8,-1.6,301.3,6.9,695.2,746.6,12.8,205.2,49.8,34.7,135.4,94.4
55594,62,31.9807268,-81.0857356,3153.7,10180,142.8,254.45,0.397,10.6,29.43,29.1,-0.2,15.8,-5.88,-1.7,301.6,6.9,692,746.6,11.9,205.5,49.8,37,135.4,93.7
55595,62,31.9818515,-81.0850904,3182.2,10300,142.3,255.61,0.399,11.3,28.91,28.7,-0.1,16.59,-4.3,-2.1,301.6,6.5,688.7,747.6,10.8,206.1,49.8,38.8,135.4,93.2
55596,62,31.9829769,-81.0840921,3215.7,10430,141.9,256.98,0.401,11.9,28.41,28.4,0.1,17.16,-3.24,-2.4,301.7,6.3,685.3,748,9.7,208.3,49.8,40,135.4,92.9
55597,62,31.9841015,-81.0834298,3252.2,10555,141.5,256.98,0.401,12.3,27.86,28.2,0.4,17.9,-2.5,-2.6,301.8,6.1,682,747.5,9.3,213,49.8,41,135.4,92.6
55598,62,31.9852235,-81.0827603,3290.7,10687,140.8,256.98,0.401,12.9,27.38,28,0.8,18.9,-2.01,-2.8,302.1,5.9,678.4,747.8,8.7,217.4,49.8,41.6,135.4,92
55599,62,31.98634,-81.0820827,3330.8,10837,139.9,257.56,0.402,13.5,27.19,27.9,0.8,19.3,-0.97,-3.1,302.2,5.7,674.5,746.8,7.6,220.4,49.8,42.7,135.4,91.4
55600,62,31.9874521,-81.0814005,3372.6,10975,139.3,256.98,0.402,13.6,27.13,27.9,0.9,19.92,-0.55,-3.1,302.7,5.6,670.8,747.7,7.3,221.9,49.8,43.2,135.4,90.8
55601,62,31.9885568,-81.0807133,3416.5,11122,137.9,256.78,0.402,14.4,26.8,27.9,1.2,21.14,-1.11,-3.2,303.1,5.5,667,747.7,6.4,231.4,49.8,42.8,135.4,90.2
55602,62,31.9896505,-81.0800181,3461.1,11287,136.6,256.2,0.401,14.8,26.1,27.8,1.8,21.57,-1.56,-3.5,303.3,5.1,662.7,747.7,6.2,246.6,49.8,42.6,135.4,90.6
55603,62,31.9907359,-81.0793155,3507.5,11442,135.4,255.23,0.399,15.1,25.1,27.7,2.7,22.41,-1.61,-4.1,303.2,4.5,658.7,748.1,7.3,262.3,49.8,42.9,135.4,90.8
55604,62,31.9918113,-81.0786031,3556.1,11612,134,253.87,0.398,15.5,24.14,27.6,3.5,22.91,-1.85,-4.5,303.3,4,654.3,747.7,8.7,272.8,49.8,43,135.4,91.3
55605,62,31.9928782,-81.0782247,3605.5,11780,132.9,252.5,0.396,15.6,24.27,27.4,3.3,23.11,-1.63,-5,303.3,3.4,650,746.8,7.8,273.2,49.8,43.2,135.4,90.9
55606,62,31.9939374,-81.0774961,3656.3,11947,131.9,250.56,0.393,15.5,24.94,27.4,2.6,23.26,-0.57,-5.1,303.8,3.2,645.8,747.6,6.4,268,49.8,44,135.4,89.7
55607,62,31.9949888,-81.0767633,3707.7,12110,130.9,248.42,0.39,15.5,24.52,27.5,3,23.48,0.36,-5.4,304,2.7,641.6,747.6,7.4,271.3,49.8,45.1,135.4,89.4
55608,62,31.9960315,-81.0760268,3759.1,12275,129.9,246.48,0.387,15.5,23.33,27.5,4.3,23.69,0.02,-5.6,304.3,2.4,637.4,747.2,9.8,277.1,49.8,45.2,135.4,90.5
55609,62,31.9970653,-81.0756282,3810.4,12442,128.8,245.7,0.386,15.4,23.02,27.5,4.6,23.7,-0.57,-6.2,304.2,1.8,633.3,749.5,10.3,281.7,49.8,44.8,135.4,91
55610,62,31.9980914,-81.0748803,3861.5,12612,127.8,244.73,0.385,15.3,24.13,27.4,3.4,23.46,-0.34,-6.3,304.7,1.6,629,748.5,7.5,281.1,49.8,44.6,135.4,90.1
55611,62,31.999111,-81.0741293,3912.7,12770,127.2,243.17,0.383,15,25.16,27.5,2.5,23.24,0.51,-6.7,304.8,1.2,625.1,747.5,5.6,274.2,49.8,45,135.5,89
55612,62,32.0001236,-81.0737202,3963.6,12932,126.3,242.2,0.381,14.9,24.74,27.7,3,23.28,0.88,-7.6,304.3,0.1,621.1,748,6.7,281.5,49.8,45.6,135.5,89.2
55613,62,32.0011276,-81.0729655,4013.7,13092,125.3,241.04,0.38,14.9,23.64,27.7,4.2,23.32,1.76,-7.7,304.7,-0.1,617.1,748.6,8.9,287.3,49.8,46.9,135.5,89.8
55614,62,32.0021239,-81.0725517,4063.3,13252,124.6,238.31,0.376,14.6,23.47,27.8,4.5,23.2,2.05,-7.9,305.1,-0.4,613.3,747.7,9.6,283.6,49.8,47.2,135.5,90
55615,62,32.003114,-81.0717939,4112.6,13412,124,236.18,0.373,14.3,24.1,28,4,22.86,2.25,-8.2,305.3,-0.9,609.3,748.5,8.7,279.4,49.8,47.2,135.5,89.7
55616,62,32.0040983,-81.0710366,4161.5,13560,123.5,236.18,0.373,14.1,24.36,28.1,3.9,22.59,1.25,-8.9,305,-1.5,605.8,748.2,8.2,282.2,49.8,46.1,135.5,90.1
55617,62,32.0050759,-81.0706211,4209.4,13710,122.8,236.18,0.373,13.9,24.31,28.2,4,22.32,-0.32,-9.2,305.2,-1.8,602.2,747.8,8.4,287.3,49.8,44.5,135.5,91.1
55618,62,32.0060582,-81.0698439,4256.3,13855,122.1,235.79,0.373,13.7,23.64,28.1,4.5,22.12,-2.61,-9.4,305.4,-2,598.7,748.6,9.5,291,49.8,42.5,135.5,92.8
55619,62,32.0070274,-81.0694176,4302.9,14002,121.4,234.43,0.371,13.5,22.79,27.8,5.1,21.95,-4.98,-9.5,305.8,-2.2,595.2,748,10.6,291,49.8,40.5,135.5,94.6
55620,62,32.0079946,-81.068637,4348.4,14147,120.7,232.68,0.368,13.3,22.47,27.4,5,21.85,-5.98,-10,305.8,-2.9,591.7,749.1,10.4,289.4,49.8,39.6,135.5,95.3
55621,62,32.0089602,-81.0681875,4393.5,14290,120.1,231.71,0.367,13.1,22.7,26.9,4.3,21.76,-5.49,-10.1,306.1,-3,588.4,748.7,8.8,288.9,49.8,40,135.5,95
55622,62,32.0099241,-81.0677266,4437.8,14430,119.4,230.73,0.366,13,23.01,26.5,3.6,21.67,-5.13,-10.8,305.8,-3.7,585.1,747.2,7.3,289.2,49.8,40.2,135.5,94.7
55623,62,32.0108855,-81.0672555,4481.7,14570,118.7,228.6,0.362,12.8,22.51,26.2,3.8,21.62,-4.86,-10.8,306.3,-3.9,581.8,747.8,7.7,286.1,49.8,40.7,135.5,95.1
55624,62,32.0118442,-81.0664312,4524.9,14705,118,226.85,0.36,12.7,20.91,25.8,5,21.7,-5.55,-11.1,306.4,-4.3,578.6,749.4,10.1,286,49.8,40.6,135.5,96.6
55625,62,32.0128,-81.0659379,4567.7,14840,117.2,226.46,0.359,12.7,19.17,25.3,6.2,21.53,-7.17,-11.6,306.3,-4.8,575.5,748.6,12.5,289,49.8,39.6,135.5,98.8
55626,62,32.0137537,-81.0654293,4610.1,14982,116.4,227.62,0.361,12.6,18.52,24.7,6.3,21.18,-8.11,-11.5,306.9,-4.7,572.2,748.3,12.6,294.8,49.8,38.9,135.5,99.9
55627,62,32.0147064,-81.0649068,4652.3,15117,115.9,228.21,0.362,12.3,18.58,24.2,5.7,20.52,-5.25,-11.6,307.3,-4.8,569.1,748.3,11.5,298.9,49.8,41.6,135.5,99.6
55628,62,32.0156591,-81.0643755,4694.2,15255,115.7,228.4,0.363,11.9,18.14,23.9,5.9,19.62,-1.9,-11.9,307.4,-5,566,748.8,11.9,299.7,49.8,45,135.5,100.1
55629,62,32.0166129,-81.063841,4735.4,15377,115.8,227.62,0.361,11.3,17.11,23.8,6.8,18.72,0.09,-11.6,308.2,-4.8,563.2,749.7,13.7,295.9,49.8,46.9,135.6,101.8
55630,62,32.0175684,-81.0636491,4775.4,15500,116,226.26,0.359,10.8,16.32,23.8,7.6,17.85,1.04,-11.8,308.4,-5.1,560.4,748.3,15.2,291.6,49.8,48.1,135.6,103.4
55631,62,32.0185267,-81.0631152,4813.8,15607,116.5,225.49,0.358,10.2,16.28,23.8,7.7,16.92,2.66,-11.7,308.9,-5,557.9,748.6,15.3,288.2,49.8,49.4,135.6,104.4
55632,62,32.0194884,-81.0625852,4850.4,15712,117,225.49,0.358,9.6,16.51,24,7.6,16.06,3.59,-12,308.9,-5.3,555.6,749.2,15.3,286.5,49.8,50,135.6,105.2
55633,62,32.0204534,-81.0620609,4885.1,15810,117.6,225.87,0.359,9.2,16.76,24.2,7.5,15.27,4.41,-12,309.3,-5.2,553.4,748.8,15.2,285.2,49.7,50.5,135.6,105.9
55634,62,32.0214289,-81.0615309,4917.8,15907,118.2,226.26,0.36,8.8,16.92,24.4,7.6,14.6,4.84,-12.1,309.5,-5.3,551.2,749.1,15.4,284,49.7,50.7,135.6,106.5
55635,62,32.0224007,-81.0610219,4949,16002,118.9,226.26,0.36,8.4,17,24.7,7.8,13.94,5,-12.2,309.8,-5.4,549.1,749.6,16,281.9,49.7,50.7,135.6,107.2
55636,62,32.0233769,-81.0605217,4978.7,16090,119.8,226.07,0.36,7.9,17.05,24.9,8,13.06,5.05,-12.3,309.9,-5.6,547.2,749.9,16.5,278.8,49.7,50.4,135.6,108.2
55637,62,32.0243592,-81.0600303,5007.1,16167,120.8,226.26,0.36,7.4,17.1,25.1,8.1,12.22,4.98,-12.5,310,-5.7,545.4,748.8,17.1,276.2,49.7,50.1,135.6,109.1
55638,62,32.0253479,-81.0592047,5034,16240,121.8,227.82,0.362,7.1,17.27,25.4,8.2,12.16,4.89,-12.6,310.1,-5.8,543.8,748.7,17.6,276.2,49.7,49.9,135.6,108.9
55639,62,32.0263406,-81.0587319,5059.3,16310,122.4,228.98,0.364,7.3,17.55,25.7,8.3,12.9,4.64,-12.8,310.1,-5.9,542.3,749.7,17.7,276.6,49.7,49.9,135.6,107.7
55640,62,32.0273337,-81.0582684,5083.1,16387,122.6,229.57,0.365,7.9,17.92,26.1,8.3,13.97,4.22,-12.9,310.3,-6,540.6,749.9,17.7,277.4,49.7,49.8,135.6,106.1
55641,62,32.0283242,-81.0578129,5107.1,16475,122.5,230.15,0.367,8.6,18.29,26.5,8.3,15.11,3.78,-13.4,310,-6.4,538.7,749.7,17.7,279.1,49.7,49.6,135.6,104.3
55642,62,32.0293188,-81.0570048,5132.6,16572,122.2,230.93,0.368,9.2,18.56,26.8,8.4,16.09,3.27,-13.3,310.5,-6.3,536.5,748.5,17.6,281.6,49.7,49.3,135.6,102.9
55643,62,32.0302985,-81.0565602,5160.3,16680,121.8,231.51,0.369,9.8,18.79,27.1,8.4,16.8,2.71,-13.6,310.5,-6.5,534.2,749.1,17.7,284.2,49.7,48.8,135.6,101.9
55644,62,32.0312722,-81.0557754,5190.3,16787,121.3,233.07,0.372,10.2,19.03,27.4,8.4,17.17,2.29,-13.8,310.7,-6.6,531.8,749.4,17.7,288.7,49.7,48.4,135.6,101.3
55645,62,32.0322404,-81.0553364,5222.3,16900,120.9,234.43,0.374,10.4,19.05,27.6,8.6,17.44,1.44,-14.1,310.7,-6.9,529.4,747.7,18,292.4,49.7,47.6,135.6,101
55646,62,32.0332036,-81.0545549,5255.7,17015,120.4,235.01,0.375,10.6,18.99,27.7,8.8,17.63,0.98,-14.2,311,-6.9,526.9,749.2,18.3,294.9,49.7,47.2,135.6,100.9
55647,62,32.0341624,-81.0541163,5290.1,17135,120.1,235.2,0.375,10.7,19.02,27.7,8.8,17.52,0.52,-14,311.7,-6.7,524.3,748.8,18.3,296.2,49.7,46.8,135.7,101.1
55648,62,32.0351189,-81.0536771,5325.3,17250,119.9,235.2,0.376,10.5,19.42,27.8,8.5,17.13,0.42,-14.3,311.8,-7,521.8,749.6,17.6,297.2,49.7,46.5,135.7,101.1
55649,62,32.0360747,-81.0528945,5360.9,17362,119.9,235.2,0.375,10.3,20.23,27.8,7.7,16.79,0.55,-14.7,311.7,-7.4,519.5,749.9,15.9,298,49.7,46.3,135.7,100.6
55650,62,32.0370377,-81.0524418,5396.2,17470,119.9,235.01,0.375,10.1,20.56,27.9,7.4,16.57,0.8,-14.7,312.1,-7.5,517.2,749.5,15.4,297.9,49.7,46.4,135.7,100.5
55651,62,32.0379915,-81.0516624,5430.7,17575,119.8,236.37,0.378,10,19.71,28,8.4,16.44,0.43,-15,312.1,-7.7,514.9,754,17.5,299.7,49.7,46.3,135.7,101.5
55652,62,32.0389443,-81.0512263,5464.6,17685,119.7,236.37,0.378,9.9,18.71,27.9,9.3,16.17,-0.49,-15.2,312.3,-7.9,512.6,754.5,19.4,298.9,49.7,45.6,135.7,102.9
55653,62,32.0398973,-81.0504451,5498.1,17790,119.7,236.76,0.379,9.7,18.68,27.8,9.3,15.71,-1.23,-15.4,312.4,-8,510.4,749.9,19.3,299.5,49.7,44.8,135.7,103.4
55654,62,32.0408522,-81.0500054,5531.2,17895,119.9,237.15,0.379,9.3,19.41,27.7,8.4,15.05,-1.37,-15.7,312.4,-8.2,508.2,750.5,17.6,300.4,49.7,44.3,135.7,103.3
55655,62,32.0418105,-81.0495652,5563.8,17995,120.3,237.54,0.38,8.9,19.88,27.6,7.9,14.38,-1.16,-16.1,312.3,-8.6,506.1,752.3,16.4,300.4,49.7,44.3,135.7,103.5
55656,62,32.0427723,-81.048782,5595.4,18082,120.6,238.12,0.381,8.6,19.89,27.6,7.8,14.11,-0.85,-16.3,312.4,-8.8,504.3,753,16.5,300.4,49.7,44.5,135.7,103.7
55657,62,32.0437369,-81.0483424,5625.8,18175,120.8,238.7,0.383,8.6,19.74,27.5,7.9,13.96,-0.24,-16.5,312.5,-9,502.4,750.1,16.6,300.5,49.7,45.1,135.7,104
55658,62,32.0447146,-81.0475403,5655,18272,121.2,239.48,0.384,8.4,19.63,27.5,8,13.39,0.2,-16.8,312.5,-9.3,500.4,751.6,16.9,300.3,49.7,45.4,135.7,104.7
55659,62,32.0456848,-81.047103,5683.6,18365,121.7,240.26,0.385,8,19.71,27.5,7.9,12.7,0.47,-17.2,312.4,-9.6,498.4,750.1,16.8,300.1,49.7,45.5,135.7,105.3
55660,62,32.0466598,-81.0463254,5712,18445,122.3,240.84,0.387,7.6,19.86,27.5,7.8,11.95,0.73,-17.3,312.5,-9.7,496.8,750.1,16.5,299.2,49.7,45.5,135.7,105.9
55661,62,32.0476405,-81.045895,5739.2,18525,123.1,241.62,0.388,7.1,19.91,27.5,7.7,11.17,0.97,-17.6,312.4,-9.9,495.2,748.8,16.4,297.9,49.7,45.5,135.7,106.6
55662,62,32.0486276,-81.0451259,5765.1,18600,124,242.59,0.39,6.6,19.92,27.5,7.7,10.4,1.15,-17.8,312.5,-10,493.6,745.9,16.5,296.5,49.7,45.4,135.7,107.4
55663,62,32.0496221,-81.0447049,5789.5,18672,125,244.15,0.392,6.2,20.12,27.5,7.6,9.6,1.27,-17.9,312.6,-10.1,492.1,745.6,16.1,295.9,49.7,45.3,135.7,108
55664,62,32.0506247,-81.0439462,5812.4,18737,126.1,246.09,0.396,5.7,20.39,27.6,7.3,8.84,1.48,-18.2,312.5,-10.2,490.8,743.9,15.9,295.8,49.7,45.2,135.7,108.4
55665,62,32.0516355,-81.0435371,5833.8,18782,127.1,247.65,0.398,5.5,20.55,27.6,7.2,9.02,1.31,-18.4,312.4,-10.3,489.9,742.9,15.7,295.2,49.7,45.1,135.8,108.1
55666,62,32.0526576,-81.042777,5853.5,18832,127.6,248.42,0.4,5.9,20.7,27.8,7.2,9.9,1.49,-18.5,312.5,-10.3,488.8,742.2,15.8,295,49.7,45.5,135.8,107.1
55667,62,32.0536745,-81.0420344,5872.1,18905,127.7,249.01,0.401,6.5,20.82,27.9,7.2,10.74,2.1,-18.6,312.6,-10.4,487.4,740.4,15.8,295.8,49.7,46.3,135.8,106.2
55668,62,32.05469,-81.0416395,5891.3,18982,127.6,249.59,0.402,7,20.86,28.2,7.4,11.24,2.56,-18.6,312.9,-10.4,485.8,738.6,16.4,297.3,49.7,46.9,135.8,105.7
55669,62,32.0557028,-81.0409057,5912.4,19057,127.6,250.17,0.403,7.3,20.99,28.4,7.5,11.32,2.57,-18.8,313,-10.6,484.3,738.1,16.6,298.5,49.7,46.9,135.8,105.5
55670,62,32.0567135,-81.0401761,5935.2,19147,127.7,250.95,0.404,7.1,21.26,28.6,7.4,10.74,2.44,-18.9,313.2,-10.6,482.5,737,16.5,299.8,49.7,46.6,135.8,105.8
55671,62,32.0577244,-81.0394512,5959.2,19227,128,251.92,0.406,6.7,21.54,28.7,7.3,9.98,2.32,-19.1,313.2,-10.7,480.9,734.3,16.2,300.8,49.7,46.2,135.8,106.3
55672,62,32.0587373,-81.0390748,5983.4,19300,128.5,252.31,0.407,6.2,21.66,28.9,7.3,9.24,2.18,-19.3,313.3,-10.9,479.4,733.3,16.4,299.8,49.7,45.8,135.8,106.9
55673,62,32.0597526,-81.0383602,6006.5,19350,128.9,252.5,0.407,6.1,21.52,29,7.6,9.58,1.77,-19.8,312.8,-11.4,478.5,731.7,16.9,298.6,49.7,45.6,135.8,106.6
55674,62,32.0607835,-81.0376219,6028,19410,128.9,252.31,0.407,6.6,21.33,29.1,7.9,10.59,1.09,-19.4,313.5,-11,477.2,730.8,17.6,298.1,49.7,45.2,135.8,105.8
55675,62,32.0617959,-81.0369131,6048.4,19480,128.5,252.31,0.407,7.1,21.32,29.3,8.1,11.39,1.22,-19.6,313.5,-11.2,475.9,728,18,299.4,49.7,45.6,135.8,105
55676,62,32.0628038,-81.0362052,6069.6,19567,128.1,251.53,0.406,7.6,21.51,29.4,8,11.88,0.38,-20,313.4,-11.7,474.1,728.3,17.8,299.6,49.7,44.9,135.8,104.3
55677,62,32.0638068,-81.0358403,6092.6,19647,127.6,251.34,0.406,7.8,21.62,29.5,8,12.08,0.09,-20.3,313.3,-12,472.5,725.9,17.7,301,49.7,44.4,135.8,104
55678,62,32.0648055,-81.0351312,6117.3,19737,127.1,250.56,0.405,7.9,21.44,29.5,8.2,12.32,-0.36,-20.4,313.5,-12.2,470.8,725.1,18.1,301.2,49.7,44.3,135.8,104
55679,62,32.0658,-81.0344203,6143,19827,126.7,250.17,0.404,8,20.95,29.6,8.8,12.36,0.09,-20.6,313.6,-12.4,469,723,19.4,301.2,49.7,44.7,135.8,104.4
55680,62,32.0667908,-81.0337081,6169.3,19910,126.3,249.39,0.403,8,20,29.6,9.7,12.35,0.66,-20.8,313.7,-12.6,467.4,721.2,21.4,300.1,49.6,45.6,135.8,105.5
55681,62,32.067778,-81.0329943,6195.9,19995,125.8,248.62,0.402,7.9,19.56,29.6,10.2,12.34,0.04,-21,313.7,-12.8,465.7,718.2,22.3,300,49.6,45.1,135.8,105.9
55682,62,32.0687704,-81.0322618,6222.5,20085,125.5,247.65,0.401,7.8,20.02,29.6,9.8,12.18,-0.54,-21.2,313.8,-13.1,464,718.4,21.2,299.9,49.6,44.4,135.8,105.5
55683,62,32.069752,-81.0318877,6249,20165,125.2,247.45,0.4,7.7,20.58,29.6,9.2,12.04,-0.58,-21.2,314.1,-13.1,462.4,716.1,20,301.1,49.6,44.2,135.9,105.1
55684,62,32.0707313,-81.0311691,6275.3,20245,124.9,246.87,0.4,7.6,20.46,29.7,9.3,11.96,-0.62,-21.7,313.8,-13.6,460.9,713.6,20.4,301,49.6,44.2,135.9,105.3
55685,62,32.071708,-81.0304487,6301,20327,124.6,246.28,0.399,7.5,19.74,29.6,10,11.99,-0.75,-21.5,314.4,-13.5,459.3,712.9,21.7,300.2,49.6,44.2,135.9,106
55686,62,32.0726821,-81.029726,6326.4,20405,124.2,244.92,0.397,7.5,18.85,29.6,10.9,12.02,-0.62,-22,314,-14.1,457.8,713.4,23.5,298.6,49.6,44.5,135.9,106.9
55687,62,32.0736539,-81.0290007,6351.5,20490,123.9,243.95,0.395,7.4,18.37,29.6,11.3,12,-0.58,-22,314.4,-14.2,456.1,711.1,24.5,297.7,49.6,44.6,135.9,107.4
55688,62,32.0746234,-81.0286162,6376.5,20567,123.5,242.98,0.394,7.3,18.57,29.5,11.1,11.84,-0.61,-21.9,314.8,-14.1,454.7,709,23.7,297.6,49.6,44.5,135.9,107.4
55689,62,32.0755911,-81.0278866,6401.4,20650,123.3,242.01,0.393,7.2,19.12,29.5,10.5,11.61,-0.33,-22.6,314.2,-14.8,453.1,707.6,22.4,297.4,49.6,44.6,135.9,107.1
55690,62,32.0765705,-81.0271306,6426,20725,123.1,241.23,0.391,7,19.29,29.5,10.4,11.46,-0.25,-23,314,-15.3,451.7,705,22,297,49.6,44.6,135.9,107
55691,62,32.0775352,-81.0267425,6450.1,20797,123,240.65,0.391,7,18.83,29.5,10.8,11.49,-1.42,-23,314.3,-15.4,450.3,702.6,23,296.2,49.6,43.6,135.9,107.4
55692,62,32.0784985,-81.026008,6473.6,20872,122.6,240.06,0.39,7,18.09,29.4,11.4,11.56,-3.33,-23.5,313.9,-15.9,448.9,701.6,24.3,295.9,49.6,41.9,135.9,107.9
55693,62,32.0794612,-81.0252668,6496.9,20947,122.2,239.48,0.389,7,17.67,29,11.5,11.56,-5.22,-23.7,314,-16.1,447.4,702,24.2,295.7,49.6,40.2,135.9,108.3
55694,62,32.0804241,-81.0245166,6520,21027,121.9,238.7,0.388,6.9,17.52,28.7,11.3,11.36,-5.56,-23.7,314.2,-16.2,446,699.2,23.9,295.3,49.6,39.9,135.9,108.5
55695,62,32.0813882,-81.0241005,6543.2,21097,121.6,238.31,0.387,6.7,17.13,28.3,11.3,11.23,-5.27,-24.1,314,-16.6,444.6,697.1,23.8,295.1,49.6,40.2,135.9,109
55696,62,32.0823533,-81.0233322,6566.2,21172,121.3,237.93,0.387,6.6,16.3,27.9,11.7,11.12,-5.2,-24.1,314.3,-16.6,443.2,696.6,24.7,294.6,49.6,40.4,135.9,109.9
55697,62,32.0833195,-81.0228979,6588.7,21240,121,237.73,0.387,6.5,15.34,27.5,12.3,10.99,-5.47,-24.2,314.4,-16.8,441.9,695.4,25.8,294.3,49.6,40.3,135.9,110.9
55698,62,32.0842943,-81.0224364,6610.8,21310,120.7,237.15,0.386,6.4,14.56,27.1,12.7,10.88,-5.78,-24.1,314.8,-16.7,440.6,693.4,26.5,293.6,49.6,40.2,135.9,111.7
55699,62,32.0852632,-81.021639,6632.7,21380,120.4,236.95,0.386,6.3,14.08,26.6,12.7,10.69,-5.25,-24.4,314.7,-17.1,439.3,692.5,26.5,293.6,49.6,40.7,135.9,112.4
55700,62,32.0862337,-81.0211762,6654.2,21445,120.3,236.37,0.385,6.1,14.02,26.3,12.5,10.39,-2.43,-24.3,315.1,-17,438.1,691.5,25.9,293,49.6,43.2,135.9,113.1
55701,62,32.0872053,-81.020709,6675.4,21512,120.3,236.57,0.385,6,14.01,26.2,12.4,10.12,-0.76,-24.7,314.8,-17.3,436.9,689.6,25.7,293.2,49.6,44.7,136,113.7
55702,62,32.0881776,-81.0198976,6696,21575,120.3,236.18,0.385,5.9,13.25,26.2,13.1,10.01,0.08,-24.6,315.2,-17.3,435.7,688.5,27.3,292.2,49.6,45.5,136,114.8
55703,62,32.0891501,-81.0194292,6716.2,21637,120.3,236.18,0.385,5.9,11.87,26.1,14.4,10.03,-0.12,-24.7,315.3,-17.3,434.6,687.1,30,291.3,49.6,45.6,136,116.2
55704,62,32.0901231,-81.0189591,6736,21702,120.3,235.79,0.385,5.9,11.54,26.1,14.7,9.84,-0.69,-24.8,315.4,-17.4,433.4,688.4,30.6,290.7,49.6,45,136,116.6
55705,62,32.0910971,-81.0184875,6755.6,21767,120.4,235.98,0.384,5.7,12.33,26,13.8,9.49,-0.52,-25.1,315.3,-17.8,432.2,687.1,28.8,291.1,49.6,44.9,136,116.1
55706,62,32.0920796,-81.0176545,6775.1,21827,120.6,236.18,0.385,5.5,12.86,25.9,13.2,9.16,-0.47,-25,315.7,-17.6,431.1,684.6,27.5,291.2,49.6,44.7,136,115.9
55707,62,32.0930572,-81.0171832,6794.3,21882,120.8,236.18,0.385,5.3,12.58,25.9,13.5,9.22,-0.48,-25.3,315.5,-18,430.1,683.4,28.1,290.7,49.6,44.8,136,116.1
55708,62,32.0940362,-81.0167114,6812.7,21940,120.8,236.57,0.386,5.4,11.82,25.8,14.2,9.27,-1.02,-25.2,315.9,-17.8,429,682.6,29.5,290.5,49.6,44.4,136,116.7
55709,62,32.0950168,-81.0162378,6830.6,22002,120.9,237.54,0.387,5.3,11.4,25.7,14.5,8.97,-1.55,-25.4,315.8,-17.9,427.9,681.9,30.3,291,49.6,43.9,136,117.3
55710,62,32.0959983,-81.0154181,6848.4,22057,120.9,236.37,0.386,5,11.52,25.6,14.2,8.39,-1.54,-25.7,315.7,-18.3,426.9,679.2,29.7,289.9,49.6,43.6,136,117.7
55711,62,32.0969806,-81.0149397,6866.2,22107,120.9,235.98,0.385,4.6,11.65,25.5,14,7.89,-1.01,-25.6,316,-18.2,426,677,29.2,289.5,49.6,43.8,136,118.1
55712,62,32.0979638,-81.0144604,6883.2,22157,121,235.01,0.384,4.3,11.24,25.5,14.4,7.54,-0.51,-25.8,315.9,-18.5,425,678.5,30,288.2,49.6,44.2,136,119
55713,62,32.0989476,-81.0139805,6899,22197,121,234.43,0.383,4,10.49,25.4,15.1,7.31,-0.5,-25.9,316,-18.7,424.3,677.3,31.3,287.2,49.6,44.1,136,120
55714,62,32.0999368,-81.0134855,6913.6,22237,121,234.43,0.383,3.9,10.07,25.3,15.4,7.1,-1.29,-25.9,316.1,-18.7,423.6,676.9,32,287,49.6,43.4,136,120.3
55715,62,32.1009231,-81.0130021,6927.3,22280,121.1,234.23,0.382,3.8,10.24,25.2,15.1,6.88,-2.5,-25.8,316.4,-18.5,422.8,676.3,31.5,286.6,49.6,42.2,136,119.9
55716,62,32.101911,-81.0121726,6940.3,22325,121.2,233.07,0.381,3.6,10.62,25.1,14.6,6.49,0.21,-25.7,316.7,-18.6,422,675.2,30.4,285.4,49.6,44.3,136,120.8
55717,62,32.1029008,-81.0116875,6953,22360,121.5,234.04,0.382,3.3,10.76,25.2,14.6,6,4.68,-26.2,316.2,-18.9,421.4,674.1,30.4,285.9,49.6,47.9,136,123.1
55718,62,32.1038923,-81.0112096,6965.3,22387,122.1,232.68,0.38,3.1,10.82,25.6,14.9,6.24,7.28,-25.9,316.7,-18.7,420.9,674.7,31.2,283.8,49.6,50.1,136,124.2
55719,62,32.1048833,-81.0107448,6976.6,22415,122.5,232.68,0.38,3.5,11.24,26.2,15.1,7.25,7.76,-25.9,316.8,-18.8,420.4,672,31.7,283.7,49.6,51.1,136.1,123
55720,62,32.1058716,-81.0099524,6987.2,22457,122.8,233.46,0.381,4,12.1,26.9,15,7.53,7.95,-25.9,316.9,-18.8,419.7,670.8,31.4,284.6,49.6,51.4,136.1,121.8
55721,62,32.1068564,-81.0095189,6998.2,22507,123.2,233.26,0.381,4,13.05,27.6,14.7,7.26,8.78,-25.8,317.3,-18.6,418.7,671.8,31,284.4,49.6,51.9,136.1,121.4
55722,62,32.1078445,-81.0087398,7010.9,22550,123.7,233.07,0.381,4,13.75,28.3,14.7,7.06,10.05,-26.3,316.8,-19.1,418,670.8,31.1,284.1,49.6,52.9,136.1,121.5
55723,62,32.1088243,-81.0083393,7024.3,22597,124.2,232.68,0.38,3.7,14.05,29,15.1,6.32,9.6,-26.3,317,-19.2,417.1,669.6,32,283.5,49.6,52.1,136.1,121.6
55724,62,32.1098032,-81.0076114,7037.6,22637,124.9,232.48,0.38,3.2,14.11,29.5,15.6,5.45,8.13,-26.4,317,-19.2,416.4,669.4,33.2,282.7,49.6,50.4,136.1,121.6
55725,62,32.110783,-81.0068964,7050.4,22662,125.7,232.48,0.38,2.9,14.4,30,15.7,5.6,6.79,-26.2,317.4,-19.1,416,669.1,33.8,281.9,49.6,49.3,136.1,120.4
55726,62,32.1117632,-81.006194,7061.8,22692,126.2,232.87,0.38,3,14.99,30.4,15.6,5.78,6.06,-26.3,317.4,-19.2,415.4,667.7,33.6,281.8,49.6,48.8,136.1,119.2
55727,62,32.1127433,-81.0055032,7071.8,22725,126.7,233.07,0.381,3,15.6,30.9,15.4,5.81,5.33,-26.4,317.3,-19.2,414.9,668.3,33.5,281.6,49.5,48.1,136.1,118.2
55728,62,32.1137234,-81.0048231,7081.6,22762,127.3,233.46,0.382,3,16.07,31.2,15.3,5.46,4.98,-26.5,317.4,-19.3,414.2,666.4,33.3,281.3,49.5,47.6,136.1,117.8
55729,62,32.1147046,-81.0041522,7091.7,22802,127.9,234.23,0.383,2.5,16.2,31.5,15.4,4.24,4.35,-26.6,317.4,-19.3,413.5,666.4,33.9,281.3,49.5,46.5,136.1,118.6
55730,62,32.1156889,-81.0034886,7101.8,22830,128.7,235.4,0.385,1.8,16.18,31.6,15.6,2.78,3.33,-27,317,-19.7,413,666.4,34.3,281.2,49.5,44.9,136.1,119.5
55731,62,32.1166792,-81.0028317,7111.1,22847,129.6,236.95,0.388,0.8,16.14,31.6,15.6,1.18,2.09,-26.6,317.6,-19.2,412.7,666.7,34.7,281.2,49.5,43,136.1,120.3
55732,62,32.1176772,-81.0021799,7118,22857,130.6,238.51,0.39,-0.2,16.4,31.6,15.3,-0.38,0.99,-26.9,317.2,-19.4,412.5,664.5,34.4,280.8,49.5,41.3,136.1,120.8
55733,62,32.118684,-81.0011896,7122.1,22820,131.8,239.68,0.392,-0.6,16.75,31.5,14.9,0.81,0.5,-26.8,317.2,-19.2,413.2,666.8,33.8,279.7,49.5,41.5,136.1,119.3
55734,62,32.1196999,-81.0005473,7122.8,22802,132.7,241.04,0.394,0.8,17.02,31.5,14.6,3.76,0.02,-27.1,316.7,-19.4,413.5,666.5,33.5,279.3,49.5,42.4,136.1,116.5
55735,62,32.1207208,-80.999908,7121,22832,133,242.98,0.397,1.7,17.01,31.5,14.6,3.55,0.79,-27.1,316.9,-19.4,413,664.6,33.5,280.5,49.5,43,136.1,117
55736,62,32.1217439,-80.9992712,7121.4,22857,133.4,244.92,0.399,1.5,16.87,31.5,14.8,2.79,1.63,-27.4,316.6,-19.5,412.5,664.9,33.8,281.7,49.5,43.4,136.2,118.1
55737,62,32.1227687,-80.9982941,7126.1,22875,133.6,242.59,0.397,1.4,17.01,31.6,14.7,2.88,0.88,-26.9,317.3,-19.2,412.2,663.9,34,279.4,49.5,42.8,136.2,117.6
55738,62,32.1237968,-80.9976505,7131.4,22885,133.9,243.37,0.398,1.4,17.36,31.6,14.4,2.98,0.49,-27,317.2,-19.2,412.1,663.5,33.3,279.4,49.5,42.5,136.2,117
55739,62,32.1248238,-80.9970217,7136.2,22900,134.1,244.15,0.4,1.5,17.48,31.7,14.3,2.92,0.25,-27,317.2,-19.1,411.8,662.4,33.2,279.9,49.5,42.2,136.2,116.8
55740,62,32.125852,-80.9960511,7140.9,22915,134.3,244.15,0.4,1.4,17.28,31.7,14.6,2.72,-0.13,-27.2,317.1,-19.3,411.5,662.1,33.7,279.7,49.5,41.8,136.2,117
55741,62,32.1268817,-80.995425,7145.7,22927,134.5,244.73,0.4,1.3,16.94,31.7,14.9,2.36,-0.55,-27.1,317.2,-19.2,411.3,662.6,34.5,280,49.5,41.3,136.2,117.5
55742,62,32.1279139,-80.9947989,7150.4,22957,134.7,245.9,0.403,0.8,16.76,31.6,15,0.89,-0.83,-27.4,317,-19.4,410.8,662.7,34.7,280.6,49.5,40.4,136.2,118.7
55743,62,32.1289497,-80.99383,7154.8,22965,135.2,247.65,0.405,-0.1,16.8,31.5,14.9,-0.37,-0.24,-27.5,316.9,-19.4,410.6,662.2,34.5,281.2,49.5,40.3,136.2,119.9
55744,62,32.1299905,-80.9932059,7158.2,22952,135.8,248.42,0.407,-0.8,17,31.5,14.6,-0.91,0.72,-27.2,317.2,-19.1,410.8,663.1,34.2,280.8,49.5,40.8,136.2,120.5
55745,62,32.1310368,-80.9922417,7159,22932,136.6,250.37,0.41,-1,17.19,31.5,14.4,-0.89,1.64,-27.6,316.6,-19.4,411.2,664,34,281.2,49.5,41.6,136.2,120.7
55746,62,32.1320897,-80.9916135,7157.2,22917,137.4,251.34,0.413,-1,17.35,31.5,14.3,-0.73,2.03,-27.3,316.9,-19,411.4,662.6,33.8,280.7,49.5,42.1,136.2,120.6
55747,62,32.1331472,-80.9910037,7154.1,22907,138.2,253.28,0.415,-0.9,17.61,31.6,14.2,-0.74,2.24,-27.6,316.5,-19.1,411.6,662.9,33.6,281.1,49.5,42.2,136.2,120.5
55748,62,32.1342094,-80.9900571,7150.8,22877,138.9,253.67,0.416,-0.2,18.04,31.7,13.8,1.74,1.7,-27.3,316.8,-18.7,412.2,663.6,33.1,280.3,49.5,43,136.2,117.8
55749,62,32.1352741,-80.9894599,7147.7,22887,139.2,253.87,0.416,1.1,18.51,31.9,13.5,2.95,1.08,-27.2,316.9,-18.8,412,664.4,32.6,280,49.5,43,136.2,116.1
55750,62,32.136339,-80.9885237,7145.6,22917,139.4,255.03,0.418,1.5,18.54,32,13.6,2.8,1.44,-27.3,316.9,-18.8,411.5,663.6,32.7,280.9,49.5,43.2,136.2,116.3
55751,62,32.1374038,-80.9879342,7147.7,22937,139.5,255.23,0.418,1.4,18.22,32.1,14,2.54,1.36,-27.4,316.9,-18.8,411.1,663.1,33.7,281.2,49.5,43.1,136.2,116.8
55752,62,32.1384691,-80.9870041,7152.3,22952,139.7,255.61,0.419,1.3,18,32.2,14.3,2.2,0.83,-27,317.5,-18.4,410.8,663.3,34.5,281.5,49.5,42.4,136.2,117.2
55753,62,32.1395355,-80.9860761,7157.2,22970,140,255.81,0.419,0.9,18.15,32.2,14.2,1.64,0.37,-27.3,317.1,-18.6,410.5,663,34.2,281.1,49.5,41.8,136.2,117.3
55754,62,32.1406063,-80.985481,7161.7,22977,140.3,256.59,0.42,0.6,18.5,32.2,13.8,1.07,0.1,-27.3,317.2,-18.6,410.4,662.7,33.5,281.1,49.5,41.3,136.3,117.3
55755,62,32.1416776,-80.9845568,7165.2,22982,140.7,257.56,0.422,0.2,18.74,32.2,13.6,0.64,0.42,-27.6,316.8,-18.9,410.3,662.5,33,281.2,49.5,41.3,136.3,117.5
55756,62,32.1427521,-80.9839784,7167.6,22980,141.2,257.56,0.423,0,18.57,32.2,13.8,0.43,0.63,-27.6,316.8,-18.8,410.3,662.6,33.6,280.5,49.5,41.4,136.3,117.9
55757,62,32.1438302,-80.9830596,7168.7,22977,141.7,258.73,0.423,-0.1,18.28,32.2,14.1,0.4,0.58,-27.5,316.9,-18.7,410.4,661.7,34.4,280.9,49.5,41.4,136.3,118.2
55758,62,32.1449117,-80.9821434,7168.8,22960,142.1,258.73,0.424,0.2,18.2,32.2,14.1,1.75,0.18,-26.8,317.7,-18,410.7,661.5,34.7,280.3,49.5,41.7,136.3,117.1
55759,62,32.1459959,-80.9815723,7168.4,22960,142.3,258.73,0.424,1.2,18.42,32.2,13.9,3.51,-0.27,-26.8,317.7,-18,410.7,663,34.3,279.9,49.5,42,136.3,115.3
55760,62,32.1470807,-80.9806583,7168.4,22975,142.2,258.73,0.423,2.4,18.74,32.2,13.6,5.27,-0.28,-27,317.6,-18.1,410.4,663.3,33.5,279.8,49.5,42.7,136.3,113.5
55761,62,32.1481635,-80.9797437,7170.9,23010,141.9,257.95,0.423,3.6,18.76,32.3,13.6,6.95,0.02,-26.9,317.8,-18.1,409.8,662.2,33.6,279.8,49.5,43.7,136.3,112.1
55762,62,32.1492447,-80.9791562,7177.2,23057,141.2,256.59,0.42,4.6,18.41,32.3,14.1,8.19,-0.36,-26.6,318.4,-18,409,661.9,34.3,279.9,49.5,43.8,136.3,111.3
55763,62,32.150316,-80.9782372,7187.6,23125,140.4,255.81,0.418,5.2,18.07,32.4,14.4,8.73,-0.8,-26.7,318.5,-18.1,407.8,660.7,35,280.8,49.5,43.6,136.3,111.1
55764,62,32.1513809,-80.9773146,7201.5,23185,139.6,253.87,0.416,5.5,17.96,32.4,14.6,9.08,-0.91,-27,318.4,-18.5,406.8,660,35.1,280.4,49.5,43.7,136.3,110.9
55765,62,32.1524398,-80.9767315,7218.1,23247,138.8,251.92,0.413,5.7,17.95,32.4,14.6,9.31,-0.71,-27.1,318.5,-18.7,405.7,657.3,35,280,49.5,44,136.3,110.7
55766,62,32.1534925,-80.975802,7236,23310,138.1,250.76,0.41,5.7,17.82,32.5,14.8,9.45,-0.39,-27,318.9,-18.7,404.6,657.2,35.3,280.3,49.5,44.3,136.3,110.8
55767,62,32.1545388,-80.9752129,7254.5,23375,137.4,248.42,0.407,5.8,17.45,32.6,15.2,10.03,-0.4,-26.8,319.4,-18.7,403.5,656.4,36.2,279.8,49.5,44.6,136.3,110.7
55768,62,32.1555778,-80.9742771,7273.5,23432,136.4,246.09,0.403,6.1,16.77,32.6,16,10.69,-0.86,-27.4,318.8,-19.4,402.4,655.4,37.5,279.7,49.5,44.5,136.3,110.7
55769,62,32.1566086,-80.9736796,7292.6,23505,135.4,242.79,0.398,6.3,16.39,32.6,16.4,10.87,-1.53,-27.5,319,-19.7,401.2,654.2,38.1,278.7,49.5,44,136.3,110.8
55770,62,32.1576343,-80.9727242,7312.5,23587,134.6,241.04,0.395,5.9,16.41,32.6,16.4,9.72,-1.83,-27.4,319.4,-19.7,399.8,653,37.9,278.4,49.5,43.3,136.3,111.8
55771,62,32.1586534,-80.9721168,7333.2,23642,134,238.12,0.39,5.3,16.52,32.6,16.2,9.12,-1.89,-27.7,319.3,-20.2,398.8,651.1,37.6,277,49.5,43,136.4,112.2
55772,62,32.1596684,-80.9711618,7353.5,23687,133.3,236.37,0.387,5,16.36,32.5,16.3,9.55,-1.92,-27.8,319.3,-20.5,398.1,651.3,37.6,276.5,49.5,43.2,136.4,112
55773,62,32.1606776,-80.9705447,7371.8,23737,132.4,233.07,0.382,5.1,16.05,32.5,16.6,10.26,-2.17,-27.5,319.9,-20.3,397.2,648.6,38.2,275.4,49.5,43.3,136.4,111.6
55774,62,32.1616798,-80.9699208,7388.6,23800,131.4,232.09,0.38,5.2,15.83,32.4,16.8,9.83,-2.36,-27.7,319.9,-20.7,396.1,647.1,38,275.9,49.4,43,136.4,112.2
55775,62,32.1626764,-80.9689473,7405.4,23860,130.7,232.09,0.38,4.9,15.83,32.3,16.7,8.87,-2.13,-27.6,320.2,-20.5,395.1,647,37.5,276.7,49.4,42.8,136.4,113.1
55776,62,32.1636692,-80.9683125,7422.7,23912,130.2,231.9,0.38,4.3,15.99,32.3,16.5,7.72,-1.66,-27.6,320.5,-20.5,394.2,645.3,37,277.2,49.4,42.8,136.4,114
55777,62,32.1646589,-80.9676738,7439.4,23957,129.8,231.51,0.379,3.5,16.17,32.3,16.3,6.28,-1.05,-27.6,320.6,-20.5,393.4,644.7,36.5,277.4,49.4,42.7,136.4,115.2
55778,62,32.1656477,-80.9666796,7454.3,23985,129.4,230.54,0.378,2.8,16.23,32.2,16.2,5.55,-0.92,-27.6,320.7,-20.6,393,643.9,36.1,277,49.4,42.5,136.4,115.8
55779,62,32.1666333,-80.9660365,7466.8,24015,129.3,230.15,0.377,2.1,16.16,32.2,16.2,4.16,-1.01,-27.6,320.8,-20.6,392.5,642.9,36.2,276.8,49.4,41.9,136.4,117
55780,62,32.167618,-80.9653919,7476.8,24032,129.1,229.76,0.377,1.3,15.98,32.2,16.3,2.79,-1,-27.7,320.8,-20.8,392.1,642.9,36.5,276.9,49.4,41.2,136.4,118.2
55781,62,32.1686029,-80.9647457,7484.7,24035,129.1,229.57,0.377,0.7,15.83,32.1,16.4,2.53,-0.9,-27.8,320.7,-20.8,392.1,642.7,36.6,276.7,49.4,41.2,136.4,118.6
55782,62,32.1695882,-80.9637548,7490,24035,129.1,228.98,0.375,0.7,15.83,32,16.4,3.08,-0.93,-27.7,320.8,-20.8,392.1,642.9,36.5,276.1,49.4,41.4,136.4,118.2
55783,62,32.1705738,-80.9631044,7492.8,24040,128.9,228.4,0.374,0.8,16.07,31.8,16,3.37,-5.37,-27.7,320.8,-20.9,392,641.9,35.6,275.4,49.4,37.6,136.4,116.3
55784,62,32.1715605,-80.9624462,7494.8,24055,128.5,228.21,0.374,0.9,16.36,31.4,15.2,3.38,-8.73,-27.8,320.8,-20.9,391.8,641.8,34,275,49.4,34.5,136.4,115.2
55785,62,32.1725497,-80.9617749,7497.4,24060,128,228.01,0.374,0.8,15.76,30.8,15.2,3.43,-10.32,-27.9,320.6,-21,391.7,642.3,33.8,275,49.4,33.2,136.4,115.4
55786,62,32.1735419,-80.9610766,7500.2,24067,127.5,227.82,0.373,0.8,14.08,30,16.1,3.42,-11.9,-28.1,320.4,-21.2,391.6,640.4,35.4,275.3,49.4,32,136.4,116.5
55787,62,32.1745376,-80.9603679,7502.8,24077,126.7,227.43,0.373,0.8,12.19,29.1,17.1,3.31,-13.99,-28.1,320.5,-21.3,391.4,641.9,37.1,275.7,49.4,30.4,136.4,117.8
55788,62,32.1755374,-80.9596344,7505.5,24085,126,227.23,0.373,0.8,10.87,28,17.3,3.2,-15.87,-27.9,320.7,-21.1,391.3,641.9,37.3,275.5,49.4,28.9,136.5,118.6
55789,62,32.1765411,-80.9592169,7508.2,24095,125.1,227.23,0.373,0.7,10,26.9,17.1,3.1,-15.83,-28.1,320.5,-21.3,391.1,642.9,36.5,275.6,49.4,29,136.5,119.4
55790,62,32.1775488,-80.9584287,7511,24105,124.4,227.43,0.373,0.6,8.99,25.7,17,2.91,-15.3,-28.2,320.4,-21.4,390.9,641,35.8,275.6,49.4,29.6,136.5,120.4
55791,62,32.17856,-80.9579573,7513.5,24110,123.7,227.43,0.373,0.5,7.58,24.6,17.2,2.63,-14.86,-28,320.7,-21.2,390.8,641.4,36.2,275.6,49.4,30.1,136.5,121.9
55792,62,32.1795746,-80.9574597,7515.6,24115,123,227.43,0.373,0.4,6.04,23.5,17.7,2.32,-14.9,-28,320.7,-21.2,390.8,640.7,36.9,275.5,49.4,30.1,136.5,123.3
55793,62,32.1805924,-80.9569357,7517.5,24120,122.4,227.62,0.373,0.3,4.76,22.4,17.8,2.05,-15.21,-28.1,320.6,-21.2,390.7,640.5,37.1,275.5,49.4,30,136.5,124.5
55794,62,32.1816111,-80.9563839,7519.1,24125,121.7,228.01,0.374,0.2,3.79,21.2,17.7,1.76,-15.36,-28.1,320.6,-21.2,390.6,640.8,36.4,275.6,49.4,29.9,136.5,125.4
55795,62,32.182635,-80.956151,7520.3,24127,121.3,228.4,0.375,-0.1,2.96,20.1,17.4,0.92,-15.44,-28,320.8,-21.2,390.5,641.4,35.8,275.5,49.4,29.5,136.5,126.4
55796,62,32.1836623,-80.9555509,7521.1,24130,120.9,229.37,0.377,-0.7,1.99,19.1,17.3,-0.2,-15.57,-28.1,320.7,-21.2,390.5,640.9,35.7,275.9,49.4,28.9,136.5,127.7
55797,62,32.1846937,-80.9552712,7521.1,24120,120.7,230.35,0.378,-1.2,0.73,18,17.5,-1.1,-15.75,-28.5,320.1,-21.5,390.7,641,36,275.9,49.4,28.4,136.5,129.1
55798,62,32.18573,-80.9549676,7519.7,24097,120.5,231.51,0.38,-1.6,359.36,16.8,17.7,-1.48,-17.53,-28.4,320.2,-21.3,391,641.3,36.4,275.9,49.4,27,136.5,129.7
55799,62,32.1867715,-80.9546345,7516.4,24072,120.2,232.48,0.382,-1.7,357.93,15.3,17.6,-0.85,-20.03,-28.1,320.4,-21,391.5,641.8,36.2,275.7,49.4,25.8,136.5,129.8
55800,62,32.1878177,-80.9542637,7511.4,24052,119.7,233.65,0.383,-1.4,356.42,13.5,17.3,-0.21,-21.68,-28.1,320.4,-20.9,391.8,641.9,35.6,275.8,49.4,25.3,136.5,130.3
55801,62,32.188867,-80.9538499,7505.7,24037,119,235.01,0.385,-1.2,354.51,11.5,17.3,-0.11,-22.1,-27.9,320.6,-20.6,392.1,641.4,35.5,276,49.4,25.5,136.5,131.7
55802,62,32.1899171,-80.953736,7500.6,24025,118.3,236.37,0.388,-1.2,352.24,9.6,17.6,-0.49,-22.59,-28.1,320.2,-20.8,392.3,642.9,36.4,276.1,49.4,25.4,136.5,133.4
55803,62,32.1909672,-80.9535795,7496.3,24010,117.6,237.54,0.39,-1.2,349.96,7.6,17.9,-0.73,-23.48,-28.1,320.2,-20.6,392.5,642.5,37,275.8,49.4,25.3,136.5,135
55804,62,32.1920155,-80.9533792,7492.3,24000,116.8,238.31,0.391,-1.3,348,5.6,17.9,-0.65,-23.92,-28.2,320,-20.7,392.7,643.4,37.1,275.7,49.4,25.6,136.5,136.3
55805,62,32.1930607,-80.953134,7488.3,23985,116.1,239.29,0.393,-1.3,346.28,3.6,17.5,-0.7,-23.64,-28.2,319.9,-20.7,393,643.4,36.7,275.8,49.4,26.2,136.5,137.8
55806,62,32.1941017,-80.9531885,7484,23967,115.4,240.26,0.394,-1.4,344.39,1.6,17.4,-0.75,-23.19,-28,320.1,-20.4,393.3,643.8,36.7,275.8,49.4,27,136.5,139.5
55807,62,32.1951373,-80.9532001,7479.7,23952,114.6,241.42,0.396,-1.4,342.2,359.5,17.6,-0.74,-23.02,-28,320.1,-20.3,393.5,645.4,37.1,275.7,49.4,27.8,136.6,141.2
55808,62,32.1961661,-80.9531686,7475.1,23935,113.9,242.98,0.399,-1.4,339.88,357.5,17.9,-0.74,-23.07,-28.1,319.9,-20.3,393.8,644.4,38.2,275.4,49.4,28.5,136.6,143.1
55809,62,32.1971864,-80.9534368,7470.3,23917,113.1,243.95,0.4,-1.3,337.66,355.4,18,-0.64,-22.98,-28.3,319.6,-20.4,394.1,644.2,38.8,274.9,49.4,29.3,136.6,144.8
55810,62,32.1981962,-80.9533179,7465.6,23905,112.3,244.92,0.402,-1.2,335.79,353.2,17.7,-0.44,-22.92,-28.4,319.4,-20.5,394.3,645.1,38.5,275.1,49.4,30.1,136.6,146.3
55811,62,32.1991944,-80.9534996,7461,23892,111.4,245.9,0.404,-1.2,334.14,351.1,17.2,-0.24,-22.93,-28.4,319.3,-20.4,394.5,644.2,38.1,275.7,49.4,30.8,136.6,147.5
55812,62,32.2001799,-80.9536401,7456.8,23877,110.7,246.67,0.405,-1.2,332.34,349,16.9,-0.1,-22.78,-28.4,319.3,-20.4,394.8,646,38,275.6,49.4,31.5,136.6,149
55813,62,32.2011511,-80.9540829,7452.7,23867,109.8,247.65,0.407,-1.1,330.43,346.9,16.7,-0.24,-22.65,-28.5,319.1,-20.4,395,645.6,38.2,275.8,49.4,32.1,136.6,150.6
55814,62,32.2021078,-80.954144,7448.8,23852,109.2,249.01,0.409,-1.3,328.74,345,16.5,-0.42,-22.66,-28.5,319,-20.3,395.2,646.3,38.4,276,49.4,32.6,136.6,152.1
55815,62,32.2030477,-80.954508,7445.2,23822,108.1,248.23,0.408,-0.5,326.16,342.4,16.5,2.26,-22.37,-28.5,318.9,-20.4,395.8,645.1,38.5,274.5,49.4,35.8,136.6,153.5
55816,62,32.2039611,-80.9548225,7441.1,23827,106.5,248.23,0.408,0.7,324.27,339.5,15.5,3.85,-21.8,-28.3,319.2,-20.2,395.7,648.2,37.5,276,49.4,38,136.6,155
55817,62,32.2048458,-80.9554374,7438.1,23845,104.9,248.03,0.407,1.4,322.56,337.1,14.8,4.24,-21.27,-28.1,319.5,-19.9,395.3,645.8,37,277.3,49.4,39.2,136.6,156.7
55818,62,32.2057039,-80.9560181,7439,23872,103.7,247.65,0.407,1.6,320.67,335,14.6,3.94,-21.31,-28.4,319.2,-20.3,394.9,645.7,37.2,277,49.4,39.6,136.6,158.3
55819,62,32.2065386,-80.9562275,7443.1,23892,102.4,247.26,0.406,1.5,318.74,333.1,14.6,3.58,-21.96,-28.4,319.3,-20.3,394.5,644.7,37.8,276.5,49.4,39.8,136.6,159.7
55820,62,32.2073501,-80.9567528,7448.4,23915,101.3,246.67,0.405,1.2,317.26,331.2,14.1,2.55,-22.86,-28.3,319.5,-20.3,394.2,645.1,37.6,276.8,49.4,39.1,136.6,160.6
55821,62,32.2081409,-80.9572534,7453.5,23932,100.6,247.26,0.406,0.4,316.17,329.6,13.6,1.47,-23.08,-28.3,319.6,-20.3,393.8,645.3,37.5,277.6,49.4,38.5,136.6,161.6
55822,62,32.2089114,-80.9580725,7458,23912,99.8,245.9,0.404,0.2,314.24,327.4,13.4,2.42,-22.95,-28.2,319.7,-20.3,394.2,645.3,37.1,276.5,49.4,40.1,136.6,163.1
55823,62,32.2096546,-80.9585172,7460.4,23917,98.8,245.51,0.403,0.5,312.34,325,12.8,2.75,-22.9,-28.2,319.7,-20.3,394.1,645.2,36.9,276.4,49.4,41.2,136.6,164.7
55824,62,32.2103685,-80.9592749,7461.1,23925,97.7,245.31,0.403,0.6,310.16,322.6,12.6,2.81,-23.18,-28.1,319.8,-20.2,394,645.1,37.3,275.8,49.4,42,136.6,166.4
55825,62,32.2110522,-80.9596609,7462.4,23930,96.7,244.92,0.402,0.7,307.99,320.1,12.3,2.87,-23.59,-28.2,319.7,-20.3,393.9,644.6,37.4,275.2,49.4,42.8,136.6,167.9
55826,62,32.2117036,-80.9603617,7464.3,23942,95.8,244.92,0.402,0.8,306.16,317.5,11.6,2.9,-23.72,-28.2,319.8,-20.3,393.7,645.2,37.2,275.7,49.4,43.6,136.6,169.4
55827,62,32.2123244,-80.9610373,7466.6,23952,94.9,244.73,0.401,0.8,304.49,315.1,10.8,2.88,-22.69,-28.3,319.7,-20.5,393.5,644.8,37,276.3,49.4,44.4,136.6,171.8
55828,62,32.2129148,-80.9616895,7469.2,23960,94.1,244.73,0.402,0.8,302.62,312.8,10.3,2.79,-20.69,-28.4,319.6,-20.5,393.4,644.7,37.2,276.1,49.3,45.3,136.6,175.4
55829,62,32.2134765,-80.9626643,7471.8,23967,93.4,244.15,0.401,0.8,300.58,310.6,10.2,2.86,-18.92,-28.3,319.7,-20.4,393.3,644.6,37.3,274.8,49.3,46.1,136.7,179.1
55830,62,32.2140098,-80.9632772,7474.5,23975,92.7,243.56,0.4,1.1,298.78,308.4,9.8,3.53,-18.17,-28.7,319.3,-20.8,393.1,643.2,37.3,274.2,49.3,47.4,136.7,-178.3
