Time_Start,Day_Of_Year,Latitude,Longitude,GPS_Altitude,Pressure_Altitude,Ground_Speed,True_Air_Speed,Mach_Number,Vertical_Speed,True_Heading,Track_Angle,Drift_Angle,Pitch_Angle,Roll_Angle,Static_Air_Temp,Potential_Temp,Total_Air_Temp,Static_Pressure,Cabin_Pressure,Wind_Speed,Wind_Direction,Solar_Zenith_Angle,Aircraft_Sun_Elevation,Sun_Azimuth,Aircraft_Sun_Azimuth
68352,36,32.0094363,-81.1288059,4,15,0,20.8,0.031,0,271.46,271.5,0,5.16,-0.17,28.2,300.3,28.2,1012.7,996.3,10.7,271.5,51.6,36.3,-155.3,-62.8
68353,36,32.0094363,-81.1288057,4,15,0.1,20.8,0.031,0,271.46,271.5,0,5.16,-0.18,28.1,300.2,28.2,1012.7,998.8,10.6,271.5,51.6,36.3,-155.3,-62.8
68354,36,32.0094362,-81.128803,4,15,0.5,20.8,0.031,0,271.46,271.5,0,5.21,-0.18,28.7,300.8,28.8,1012.7,1003,10.2,271.5,51.6,36.2,-155.3,-62.8
68355,36,32.0094362,-81.1287921,4,15,1.7,20.99,0.031,0,271.43,271.4,0,5.27,-0.2,29,301.1,29.1,1012.7,1001.6,9.1,271.4,51.6,36.2,-155.3,-62.7
68356,36,32.0094363,-81.128764,4,15,3.8,20.99,0.031,0,271.47,271.5,0,5.25,-0.24,31.3,303.4,31.3,1012.7,1013.5,7,271.5,51.6,36.3,-155.3,-62.7
68357,36,32.0094369,-81.129049,4,15,7.4,21.19,0.031,0,271.73,271.7,0,5.12,-0.19,35.3,307.3,35.4,1012.6,1010.8,3.5,271.8,51.6,36.3,-155.3,-63.1
68358,36,32.0094386,-81.1289483,4.1,15,11.6,21.19,0.031,0,272.41,272.4,0,5.03,-0.36,37.6,309.6,37.7,1012.7,1006.3,0.7,92.2,51.6,36.6,-155.3,-63.7
68359,36,32.0094423,-81.129145,4.2,15,16,25.08,0.037,0,272.65,272.7,0,4.98,-0.24,38.4,310.4,38.5,1012.7,1005.6,3.1,92.9,51.6,36.5,-155.3,-64
68360,36,32.0094481,-81.1292946,4.2,15,20.5,38.1,0.055,0,272.86,272.9,0,5,0.28,37.7,309.7,37.9,1012.7,1005.4,0.9,93.8,51.6,36,-155.3,-64.4
68361,36,32.0094555,-81.1297404,4.3,12,25,42.76,0.063,0,272.85,272.8,0,4.97,0.02,34.9,306.9,35.1,1012.8,1006.9,3,92.4,51.6,36.3,-155.3,-64.3
68362,36,32.009464,-81.1297953,4.5,15,29.5,52.48,0.077,0,272.45,271.9,-0.6,4.94,-0.42,32.3,304.3,32.7,1012.7,1006,2.5,86,51.6,36.7,-155.3,-63.8
68363,36,32.0094731,-81.1301462,4.6,12,34,65.12,0.096,0.1,272.95,272,-1,4.98,0.02,30.5,302.5,31.1,1012.8,1005.5,0.8,44.3,51.6,36.3,-155.3,-64.4
68364,36,32.009485,-81.1304501,4.8,10,38.3,70.37,0.104,0.1,272.89,272.2,-0.7,4.91,0.69,28.5,300.5,29.2,1012.9,1005.8,2.1,80.5,51.6,35.7,-155.3,-64.7
68365,36,32.0094987,-81.131051,5.1,7,42.7,78.92,0.117,0.1,272.54,272.1,-0.4,4.83,0.16,27.5,299.5,28.3,1012.9,1005.9,2.1,83.7,51.6,36.2,-155.3,-64.2
68366,36,32.0095137,-81.1316064,5.3,5,46.9,86.7,0.129,0.1,272.4,272.1,-0.3,5.15,0.31,26.2,298.2,27.2,1013,1004.9,2.3,86.3,51.6,35.9,-155.3,-63.9
68367,36,32.00953,-81.1321176,5.7,5,51.1,94.47,0.14,0.3,272.08,272.1,0,7.37,0.51,26.6,298.6,27.7,1013.1,1005.1,2.5,92.5,51.6,34.7,-155.2,-62.3
68368,36,32.0095494,-81.1325863,6.4,7,54.8,100.11,0.149,0.8,271.59,272.3,0.6,8.99,0.1,26.9,298.9,28.2,1013,1005,3.4,103.2,51.6,34.2,-155.2,-60.6
68369,36,32.0095689,-81.1330196,8.3,25,57.8,111.58,0.166,1.8,270.8,272.1,1.3,12.27,-0.76,25.2,297.3,26.9,1012.4,1004.7,1.4,164.4,51.6,33.1,-155.2,-57.6
68370,36,32.009587,-81.1337714,12.8,65,59.4,115.46,0.172,3.5,270.32,271.8,1.4,18.58,-2.04,24.6,296.8,26.4,1010.9,1004.6,1.5,181.1,51.6,30.5,-155.2,-53.1
68371,36,32.0096006,-81.1345176,21.9,110,59,117.41,0.175,5.5,270.32,271.2,0.9,23.48,-2.78,24,296.4,25.8,1009.2,1001.8,1.7,237.5,51.6,28.1,-155.2,-50.3
68372,36,32.0096093,-81.1349262,37.4,167,58.6,119.74,0.179,6.5,270.41,270.7,0.3,23.51,-2.35,24.2,296.7,26.1,1007.1,1000.3,3,264.8,51.6,27.8,-155.2,-50.7
68373,36,32.0096154,-81.135677,57.9,240,59.3,120.71,0.18,6.4,269.43,270.5,1.1,21.52,-3.25,23.3,296.1,25.2,1004.5,997.3,3,247.9,51.6,29.4,-155.2,-50.1
68374,36,32.0096185,-81.1364175,79.6,307,60.2,121.1,0.181,6.3,267.25,270.1,2.9,21.65,-2.54,23.1,296.1,25,1002.1,995.7,3.7,213.2,51.6,28.1,-155.2,-48.8
68375,36,32.0096175,-81.1368081,100.4,370,60.6,123.05,0.184,6.5,265.81,269.7,3.9,22.42,-1.13,22.4,295.6,24.4,999.7,992.6,5,210.4,51.6,26.1,-155.2,-48.3
68376,36,32.0096135,-81.1375393,121.7,447,60.8,123.05,0.184,6.9,265.8,269.5,3.7,22.06,-0.38,22.7,296.1,24.7,997,989.5,4.7,209.6,51.6,25.8,-155.2,-49
68377,36,32.0096083,-81.1382657,144.2,520,61.5,124.6,0.186,6.8,266.35,269.4,3.1,21.58,0.57,22,295.6,24,994.3,987.5,4.2,215.7,51.6,25.5,-155.2,-50.3
68378,36,32.0096031,-81.1389839,167.1,590,62.2,129.07,0.193,6.8,266.93,269.5,2.6,21.65,0.93,21.7,295.5,23.9,991.9,983.5,5.1,233.7,51.6,25.3,-155.2,-51
68379,36,32.0095985,-81.1393551,189.7,660,62.3,130.63,0.195,7.2,267.32,269.5,2.2,22.03,-0.44,21.5,295.6,23.8,989.3,984.3,5.5,241.7,51.6,26.3,-155.2,-50.2
68380,36,32.0095935,-81.1400677,213.2,745,62.6,132.76,0.199,7.3,267.71,269.5,1.7,21.7,-0.87,21.7,296,24,986.3,979.9,6.1,248.9,51.6,26.9,-155.2,-50.3
68381,36,32.0095875,-81.1407746,237.6,817,63.3,132.18,0.198,7.1,267.45,269.3,1.9,20.87,-1.12,21.4,295.9,23.7,983.6,976,5.2,244.1,51.6,27.5,-155.2,-50.3
68382,36,32.0095798,-81.1414737,261.6,897,64,134.9,0.202,7,266.79,269.1,2.3,20.56,-1.75,20.9,295.7,23.3,980.8,973.6,6,241.5,51.6,28,-155.2,-49.4
68383,36,32.009569,-81.1421656,285.3,965,64.7,134.9,0.202,7,266.52,268.8,2.3,20.84,-1.69,20.9,295.9,23.3,978.4,971.5,5.4,238.1,51.6,27.7,-155.2,-49.1
68384,36,32.0095548,-81.1428526,308.6,1040,64.9,137.04,0.205,7.2,266.34,268.7,2.3,21.79,-0.5,20.7,295.9,23.2,975.8,969,6.3,241,51.6,26.2,-155.2,-49.4
68385,36,32.0095411,-81.1435399,332.5,1122,64.8,137.43,0.206,7.6,265.96,268.7,2.7,22.04,0.04,20.5,296,23,972.8,965.7,6.7,238.6,51.6,25.5,-155.2,-49.4
68386,36,32.0095271,-81.1442264,357.7,1207,65,139.37,0.209,7.7,265.79,268.6,2.8,22.03,-0.26,20.2,295.9,22.7,969.8,963.2,7.5,240.6,51.6,25.7,-155.2,-49.1
68387,36,32.0095125,-81.1449106,383.4,1290,65.3,139.76,0.21,7.7,265.84,268.5,2.7,22.25,-0.29,20,296,22.6,966.9,959.8,7.3,241.4,51.6,25.5,-155.2,-49
68388,36,32.0094972,-81.145593,409.4,1372,65.4,139.76,0.21,7.8,266.19,268.5,2.3,22.24,-0.2,19.5,295.7,22.1,964,957,7.1,244.3,51.6,25.6,-155.2,-49.4
68389,36,32.0094813,-81.146273,435.6,1455,65.7,139.96,0.21,7.8,266.64,268.5,1.8,22.09,-0.26,19.6,296.1,22.2,961.1,954.2,6.7,248,51.6,25.9,-155.2,-49.7
68390,36,32.0094652,-81.1469508,461.7,1540,65.8,139.96,0.21,7.8,267.17,268.4,1.3,22.53,0.07,19.3,296,21.9,958.2,953,6.4,254.4,51.6,25.5,-155.2,-50.2
68391,36,32.0094493,-81.1476279,488,1622,65.8,140.54,0.211,8,267.56,268.5,1,22.85,0.66,18.7,295.7,21.3,955.2,948.6,6.6,258.1,51.6,24.9,-155.2,-50.9
68392,36,32.0094332,-81.1483051,514.7,1712,65.7,141.71,0.212,8.2,267.43,268.7,1.2,22.88,0.51,18.4,295.7,21,952.1,945.8,7.4,256,51.6,25,-155.1,-50.6
68393,36,32.0094203,-81.1489827,542,1800,65.8,140.54,0.211,8.2,266.94,268.8,1.8,22.67,0.93,18.6,296.2,21.2,949,942,6.9,248.8,51.6,24.6,-155.1,-50.6
68394,36,32.0094085,-81.1496588,569.6,1887,65.9,140.93,0.212,8.2,266.48,269,2.5,22.41,1.54,18.2,296,20.9,946.1,939.5,7.3,243,51.6,24.2,-155.1,-50.8
68395,36,32.0093983,-81.1506765,597.1,1980,66.2,141.71,0.213,8.1,266.36,269.1,2.7,21.85,1.41,17.7,295.8,20.3,942.8,936.8,7.5,241.3,51.6,24.6,-155.1,-50.8
68396,36,32.0093893,-81.151346,624.7,2065,66.7,141.12,0.212,7.9,266.7,269.2,2.5,21.32,1.83,17.7,296.1,20.3,939.9,933.3,6.6,240.7,51.6,24.7,-155.1,-51.5
68397,36,32.0093825,-81.1520113,651.7,2150,67,142.68,0.215,8,267.21,269.4,2.2,21.52,1.07,17.7,296.3,20.4,937,930,6.9,245.6,51.6,25.3,-155.1,-51.3
68398,36,32.009377,-81.1526749,678.7,2235,67.1,144.23,0.218,8.3,267.71,269.5,1.8,21.98,-0.69,17,295.9,19.8,934.1,927.6,7.4,251.3,51.6,26.5,-155.1,-50.3
68399,36,32.0093719,-81.1533392,706.3,2330,66.9,145.59,0.22,8.5,267.75,269.5,1.8,22.58,-0.62,16.8,296,19.6,930.8,924.7,8.3,253.5,51.6,26.1,-155.1,-50.2
68400,36,32.0093641,-81.1540037,734.7,2420,66.7,147.54,0.223,8.7,267.08,269.5,2.4,23.13,0.24,16.5,295.9,19.4,927.7,922.1,9.7,250.2,51.6,24.9,-155.1,-50
68401,36,32.0093596,-81.1546727,763.7,2517,66.4,147.93,0.223,8.9,266.44,269.6,3.2,23.67,1.3,16.3,296,19.2,924.4,918.3,10.5,246,51.6,23.6,-155.1,-50.1
68402,36,32.0093564,-81.1553447,793.5,2615,66.2,148.51,0.224,9,266.29,269.8,3.5,23.94,1.41,16.2,296.2,19.1,921.1,915.1,11.1,244.9,51.6,23.3,-155.1,-50
68403,36,32.009355,-81.1560199,823.6,2710,65.7,148.7,0.225,9.1,266.84,270,3.1,24.25,1.58,15.9,296.2,18.8,917.9,911.8,11.5,248.5,51.6,23.1,-155.1,-50.4
68404,36,32.0093564,-81.1567008,854.2,2810,65.2,147.93,0.224,9.4,267.81,270.3,2.5,24.55,2.63,15.4,296,18.3,914.5,908.3,11.3,253.3,51.6,22.4,-155.1,-51.9
68405,36,32.0093618,-81.1573863,885.5,2912,64.9,148.51,0.224,9.4,268.6,270.7,2.1,24.66,2.48,15.6,296.6,18.5,911,905.4,11.8,257,51.6,22.6,-155.1,-52.3
68406,36,32.0093714,-81.1580744,917.1,3010,64.6,149.09,0.226,9.3,268.67,271.2,2.4,24.68,1.55,15.1,296.3,18,907.7,902.2,12.5,255.5,51.6,23.4,-155.1,-51.7
68407,36,32.0093846,-81.1587669,948.6,3115,64.1,149.87,0.227,9.4,267.86,271.4,3.6,24.89,1.26,15.2,296.8,18.2,904.3,897.6,13.7,251.1,51.6,23.2,-155.1,-50.8
68408,36,32.0093981,-81.1594635,980.3,3217,63.7,148.7,0.225,9.4,267.04,271.5,4.4,25.27,-0.77,14.4,296.3,17.3,900.9,894.9,13.9,246.2,51.6,24.2,-155.1,-48.5
68409,36,32.0094126,-81.1601657,1012.1,3315,63.1,143.26,0.217,9.6,266.9,271.5,4.6,25.94,0.54,14.3,296.5,17,897.6,890.1,11.9,241.8,51.6,22.8,-155.1,-49.2
68410,36,32.0094281,-81.1608762,1044,3417,62.2,142.87,0.217,9.8,267.03,271.7,4.7,26.36,2.15,14.3,296.8,17,894.2,887.7,12.6,243.3,51.6,21.3,-155.1,-50.4
68411,36,32.0094468,-81.1615944,1076.7,3527,61.7,142.29,0.215,9.8,267.18,272.1,4.9,26.38,2.56,13.7,296.5,16.4,890.6,883.3,12.9,242.9,51.6,21,-155.1,-50.8
68412,36,32.0094689,-81.1623178,1109.8,3632,61.2,139.96,0.212,9.8,267.57,272.5,4.9,26.29,2.51,13.6,296.7,16.2,887.1,880.1,12.2,242.1,51.6,21.3,-155.1,-51.1
68413,36,32.0094944,-81.1627031,1142.8,3740,60.8,142.29,0.216,9.8,268.1,272.8,4.7,26.12,1.15,13.2,296.7,15.9,883.6,877.6,13.6,246.5,51.7,22.6,-155.1,-50.5
68414,36,32.009522,-81.1634361,1175.8,3847,60.4,142.68,0.217,9.7,268.9,273,4.1,25.54,1.19,13,296.8,15.7,880.1,874.1,13.8,250.7,51.7,23.2,-155.1,-51.3
68415,36,32.0095517,-81.1641696,1208.6,3960,60.8,141.12,0.214,9.2,268.96,273.2,4.2,24.13,1.17,12.7,296.8,15.3,876.4,870.9,12.8,248.4,51.7,24.1,-155.1,-51.8
68416,36,32.0095815,-81.1648943,1240.5,4047,61.7,140.54,0.214,8.4,268.2,273.3,5.1,22.4,1.79,12.8,297.2,15.4,873.5,868.8,12.2,241.4,51.7,24.5,-155.1,-52.3
68417,36,32.009614,-81.1656117,1269.9,4140,62.6,139.76,0.212,7.9,267.41,273.3,5.9,21.48,1.3,12.2,296.9,14.8,870.5,864.5,11.6,233.7,51.7,25.2,-155.1,-51.6
68418,36,32.0096466,-81.165978,1297.5,4215,63,141.9,0.216,7.8,267.19,273.3,6.1,21.67,0.63,12.3,297.2,15,868.2,860.8,12.3,234.3,51.7,25.5,-155,-50.9
68419,36,32.0096789,-81.166687,1323.7,4300,62.8,142.48,0.217,8,267.95,273.3,5.3,22.5,0.52,11.7,296.9,14.4,865.4,859.1,12.3,239.4,51.7,25.3,-155,-51.1
68420,36,32.0097119,-81.167396,1350.6,4387,63,141.71,0.215,7.9,268.96,273.4,4.4,22.46,-0.24,11.8,297.3,14.4,862.6,856.3,11.2,243.2,51.7,26.2,-155,-51.4
68421,36,32.0097451,-81.1681043,1377.8,4467,62.8,141.12,0.215,8.2,269.11,273.3,4.2,22.82,-0.88,11.6,297.3,14.2,860,853,11,244.4,51.7,26.5,-155,-50.9
68422,36,32.0097773,-81.1688163,1405.1,4565,62.4,139.96,0.213,8.6,268.69,273.3,4.6,23.26,-0.41,11.2,297.2,13.8,856.9,850.3,11,241.6,51.7,25.8,-155,-50.8
68423,36,32.0098088,-81.1695312,1433.6,4660,62.2,138.21,0.21,8.7,267.71,273.2,5.4,23.44,-1.2,11.7,298,14.2,853.9,847.6,10.9,234.8,51.7,25.9,-155,-49.3
68424,36,32.0098372,-81.1702463,1462.8,4765,62.4,143.65,0.219,8.5,266.75,273,6.2,23.02,-1.01,11,297.6,13.7,850.5,844.4,13.7,237,51.7,25.8,-155,-48.8
68425,36,32.0098651,-81.1706136,1492.1,4842,62.9,139.96,0.213,8.1,265.92,272.7,6.8,22.26,-0.73,11.1,298,13.7,848,842.4,12.1,228,51.7,25.8,-155,-48.7
68426,36,32.0098916,-81.1713213,1519.8,4935,63.2,144.43,0.22,7.9,265.55,272.6,7.1,21.45,0.29,10.4,297.5,13.2,845.1,839.6,13.9,231.7,51.7,25.5,-155,-49.4
68427,36,32.0099172,-81.1720249,1547.1,5017,63.5,145.2,0.222,7.8,265.38,272.5,7.1,21.3,0.16,10.5,297.9,13.3,842.5,836,14.1,231.4,51.7,25.6,-155,-49.2
68428,36,32.0099423,-81.1727256,1573.8,5105,63.8,144.23,0.22,7.7,265.89,272.5,6.6,21.2,0.11,10.9,298.6,13.6,839.8,832.7,13.1,231.7,51.7,25.8,-155,-49.6
68429,36,32.0099667,-81.1734221,1600.2,5192,64.2,142.29,0.216,7.5,266.73,272.4,5.7,20.9,0.05,12.1,300.1,14.7,837,830.8,11.3,232.5,51.7,26.3,-155,-50.4
68430,36,32.0099909,-81.1741128,1626,5265,64.8,141.9,0.215,7.2,267.75,272.4,4.7,20.46,1.32,12.8,301.1,15.5,834.8,827.2,9.9,235.8,51.7,25.9,-155,-52.2
68431,36,32.010017,-81.1748007,1650.8,5340,64.8,144.23,0.218,7.5,268.39,272.8,4.4,21.26,2.55,13.6,302.2,16.3,832.4,824.2,10.8,240.9,51.7,24.6,-155,-53.3
68432,36,32.0100469,-81.1754911,1675.9,5415,64.3,144.82,0.219,8,268.24,273.4,5.1,22.54,4.04,14.6,303.5,17.3,830,822.1,12,239.3,51.7,22.6,-155,-53.7
68433,36,32.0100852,-81.1761894,1702.4,5512,63.6,145.01,0.219,8.5,267.28,274.2,6.9,23.68,4.61,14.9,304.1,17.7,827.1,819.7,13.8,233.5,51.7,21.2,-155,-53
68434,36,32.0101303,-81.1768952,1730.6,5607,63,144.04,0.218,8.8,266.83,274.9,8,24.19,4.76,15.3,304.9,18.1,824.1,818.3,14.7,229.8,51.7,20.6,-155,-52.6
68435,36,32.0101813,-81.1776066,1760,5702,62.6,143.65,0.217,8.8,267.7,275.5,7.8,24.26,5.69,15.9,305.8,18.6,821.1,814.6,14.6,232.1,51.7,20.1,-155,-53.9
68436,36,32.0102396,-81.1783217,1789.6,5795,62.4,143.46,0.217,8.7,269.46,276.4,6.9,23.91,7.49,15.4,305.6,18.1,818.3,811.6,14.1,237,51.7,19.3,-155,-56.6
68437,36,32.0103077,-81.1786961,1819.1,5890,62.4,142.48,0.215,8.6,271.15,277.6,6.4,23.35,9.22,15.2,305.7,17.9,815.4,809.1,13.3,239.3,51.7,18.6,-155,-59.1
68438,36,32.0103883,-81.1794155,1848.3,5977,62.5,142.29,0.215,8.4,272.24,279,6.7,23.05,10.09,15.2,306,17.8,812.7,806.8,13.3,238.8,51.7,18.4,-155,-60.6
68439,36,32.0104827,-81.1801368,1877,6070,62.6,141.9,0.215,8.3,272.9,280.4,7.4,23.01,10.2,15.2,306.3,17.8,809.9,802.5,13.7,236.1,51.7,18.4,-155,-61.2
68440,36,32.0105895,-81.1808591,1905.5,6155,62.7,141.51,0.214,8.2,273.88,281.7,7.8,22.84,10.06,14.9,306.2,17.5,807.3,802,13.7,235.3,51.7,18.9,-155,-61.9
68441,36,32.0107103,-81.1812403,1933.5,6242,62.9,141.12,0.214,8,275.54,283,7.4,22.33,10.19,14.8,306.4,17.5,804.6,798.2,13.1,236.9,51.7,19.4,-155,-63.4
68442,36,32.010844,-81.181965,1961,6330,63.3,140.73,0.213,7.7,277.77,284.3,6.5,21.55,10.74,14.7,306.6,17.3,802,796.1,11.9,240.6,51.7,19.9,-155,-65.7
68443,36,32.0109915,-81.1826885,1987.8,6405,63.9,140.73,0.213,7.5,280,285.7,5.6,20.7,11.72,14.6,306.7,17.3,799.7,793.8,10.9,244.3,51.7,19.9,-154.9,-68.3
68444,36,32.0111551,-81.1834112,2013.6,6485,64.4,141.9,0.215,7.3,281.67,287.3,5.6,20.23,12.78,14.9,307.3,17.5,797.3,789,10.9,246.3,51.7,19.5,-154.9,-70.3
68445,36,32.011337,-81.1841355,2038.6,6560,64.8,142.48,0.216,7.3,282.74,289.2,6.4,20.62,13.54,14.6,307.3,17.3,795,787.6,11.5,243.5,51.7,18.9,-154.9,-71.4
68446,36,32.011539,-81.1845213,2063.5,6637,64.9,142.87,0.216,7.5,283.5,291.3,7.7,21.53,13.79,14.8,307.7,17.5,792.6,785.3,12.7,239.7,51.7,18.5,-154.9,-71.9
68447,36,32.0117615,-81.1852589,2088.8,6722,64.9,142.29,0.215,7.7,284.53,293.4,8.8,22.53,13.84,14.8,308,17.5,790.1,783.1,13.5,236.7,51.7,18.4,-154.9,-72.5
68448,36,32.012004,-81.1860074,2114.9,6805,64.8,141.9,0.215,8,286.18,295.6,9.4,23.28,14.08,14.3,307.8,17,787.7,781.3,14,236.7,51.7,18.3,-154.9,-73.7
68449,36,32.0122659,-81.1864246,2141.8,6895,64.9,140.73,0.213,8,288.04,297.7,9.6,22.59,14.64,14.5,308.3,17.1,785,778.8,13.8,235.8,51.7,18.5,-154.9,-75.6
68450,36,32.0125466,-81.1871925,2169.2,6980,65.5,140.54,0.213,7.7,289.73,299.4,9.7,21.24,15.41,14.4,308.5,17,782.4,776,13.4,234.8,51.7,18.7,-154.9,-77.7
68451,36,32.012846,-81.18762,2195.9,7062,66.4,140.73,0.213,7.2,291.34,301.1,9.7,19.96,16.05,14.3,308.6,16.9,780,773.6,13.2,233.1,51.7,18.9,-154.9,-79.6
68452,36,32.0131652,-81.1883927,2221.3,7135,67.5,141.12,0.214,6.8,293.2,302.9,9.6,19.19,16.7,14.1,308.6,16.8,777.9,770.4,12.9,231.3,51.7,18.9,-154.9,-81.5
68453,36,32.0135061,-81.1888259,2245.1,7202,68.4,140.73,0.213,6.6,295.52,304.9,9.3,19.25,17.45,14.1,308.9,16.7,775.9,768.4,12.2,229.3,51.7,18.8,-154.9,-83.6
68454,36,32.0138709,-81.189611,2268,7275,69.2,140.93,0.214,6.6,298.08,307.3,9.1,19.6,18.32,13.9,308.9,16.5,773.7,767.5,11.9,228.8,51.7,18.5,-154.9,-85.9
68455,36,32.014261,-81.1900655,2290.7,7345,69.9,140.73,0.213,6.7,300.72,309.8,9,19.92,18.99,14,309.2,16.6,771.7,766.1,11.5,227.7,51.7,18.6,-154.9,-88.1
68456,36,32.0146768,-81.1905354,2313.7,7417,70.6,140.54,0.213,6.8,303.38,312.4,8.9,20.08,19.23,13.6,309.1,16.2,769.5,762.9,11.4,226.5,51.7,19.1,-154.9,-90.2
68457,36,32.0151179,-81.1913661,2337,7490,71.3,141.12,0.214,6.9,306.06,315,8.9,20.16,19.53,13.6,309.3,16.2,767.4,761,11.3,227.1,51.7,19.6,-154.9,-92.3
68458,36,32.0155839,-81.1918725,2360.5,7567,72,141.71,0.215,6.9,308.66,317.5,8.8,19.86,19.8,13.3,309.2,15.9,765.2,758.7,11.2,227.7,51.7,20.2,-154.9,-94.5
68459,36,32.016074,-81.1923976,2384.2,7640,72.8,141.71,0.215,6.7,311.14,319.9,8.7,19.29,19.92,13,309.2,15.7,763.1,757.6,11.1,226,51.7,20.9,-154.9,-96.6
68460,36,32.0165879,-81.1925969,2407.7,7712,73.8,141.9,0.216,6.5,313.48,322.2,8.7,18.46,19.96,12.9,309.3,15.6,760.9,753.9,11.2,223.8,51.7,21.6,-154.9,-98.7
68461,36,32.0171254,-81.1931559,2430.5,7785,75,142.87,0.217,6.2,315.79,324.3,8.5,17.61,19.99,12.7,309.3,15.4,758.9,751.5,11.1,222.3,51.7,22.3,-154.9,-100.7
68462,36,32.0176867,-81.1937316,2452.5,7850,76.3,143.46,0.218,6,318.13,326.5,8.3,16.8,20.01,12.5,309.3,15.2,757,750.6,11.2,219.5,51.7,23,-154.9,-102.8
68463,36,32.0182721,-81.1939814,2473.5,7912,77.7,144.62,0.22,5.7,320.5,328.6,8.1,16.05,20.06,12,309,14.7,755.1,749.6,11.2,217.5,51.7,23.6,-154.9,-105
68464,36,32.0188819,-81.194593,2493.8,7972,79.1,146.18,0.222,5.5,322.89,330.8,7.9,15.35,20.12,12.1,309.3,14.9,753.4,748.2,11.3,216.8,51.7,24.2,-154.9,-107.1
68465,36,32.0195161,-81.1948814,2513.5,8032,80.6,147.54,0.225,5.4,325.29,332.9,7.6,14.81,20.19,11.9,309.3,14.7,751.7,747.6,11.4,214.8,51.7,24.8,-154.9,-109.2
68466,36,32.0201748,-81.1951916,2532.5,8090,82.1,149.48,0.227,5.3,327.64,335.1,7.5,14.39,20.21,11.4,309,14.4,750,746.2,11.6,214.7,51.7,25.4,-154.9,-111.3
68467,36,32.0208575,-81.1955251,2551.3,8150,83.5,151.62,0.231,5.3,329.96,337.3,7.3,14.05,20.24,11.3,309,14.3,748.3,744.3,11.7,215.7,51.7,26.1,-154.9,-113.2
68468,36,32.0215639,-81.1958839,2569.7,8205,85,153.37,0.234,5.3,332.3,339.5,7.2,13.93,20.31,11.7,309.7,14.8,746.7,743.3,12,215.3,51.7,26.8,-154.8,-115.1
68469,36,32.022293,-81.1962705,2588.2,8265,86.4,155.31,0.236,5.4,334.75,341.8,7.1,14.27,20.3,11.3,309.4,14.4,745.1,742.4,12.1,215.9,51.7,27.7,-154.8,-116.9
68470,36,32.0230432,-81.1966884,2607,8322,87.6,156.87,0.239,5.8,337.55,344.3,6.7,15.33,20.35,11.2,309.5,14.4,743.4,741.4,12.1,216.1,51.7,29.1,-154.8,-118.7
68471,36,32.0238112,-81.1968003,2626.4,8382,88.3,157.84,0.24,6.4,340.87,347,6.1,17.24,20.55,11,309.5,14.3,741.7,739.6,11.5,215.9,51.7,30.9,-154.8,-120.4
68472,36,32.0245917,-81.1969567,2647.6,8460,88.4,158.81,0.242,7.3,344.42,350,5.5,19.16,21.08,11.2,310,14.5,739.5,737.9,10.6,218.3,51.7,32.7,-154.8,-122.2
68473,36,32.0253792,-81.1971616,2671.5,8542,88.4,159.59,0.243,7.9,347.38,352.9,5.5,19.69,21.62,10.9,309.9,14.2,737.1,735.6,10.3,222.7,51.7,33.8,-154.8,-124.3
68474,36,32.0261721,-81.1970673,2697.9,8635,88.6,160.56,0.245,8.1,349.6,355.4,5.8,19.15,21.96,10.7,310,14.1,734.5,733.2,10.5,227.8,51.7,34.2,-154.8,-126.3
68475,36,32.0269725,-81.1973542,2725.4,8725,89.3,161.73,0.247,7.8,351.27,357.6,6.3,18.14,22.2,10.4,310,13.8,732,732.9,11.3,231.8,51.7,34.3,-154.8,-128.1
68476,36,32.0277815,-81.197332,2752.6,8810,90.3,162.7,0.248,7.5,352.88,359.7,6.8,17.51,22.35,10.3,310.2,13.7,729.6,729,12.3,233.8,51.7,34.6,-154.8,-129.6
68477,36,32.0285992,-81.1973443,2778.9,8882,91.2,163.67,0.249,7.3,354.91,1.8,6.9,17.33,22.21,10,310.1,13.6,727.5,726.6,12.6,234.8,51.8,35.5,-154.8,-131.3
68478,36,32.0294236,-81.1970499,2804.3,8962,92,164.64,0.251,7.3,357.6,4,6.4,17.18,22.13,9.9,310.3,13.5,725.3,723.3,12.3,234.3,51.8,36.7,-154.8,-133.6
68479,36,32.0302528,-81.1971372,2829.3,9040,92.7,165.81,0.253,7.2,0.75,6.3,5.5,16.86,22.37,9.8,310.4,13.4,723.1,722.6,11.4,232.9,51.8,37.8,-154.8,-136.2
68480,36,32.0310849,-81.1969219,2854.2,9120,93.4,166.78,0.255,7.3,3.97,8.7,4.7,16.54,23.05,9.8,310.7,13.4,721,719.6,10.6,230.6,51.8,38.5,-154.8,-138.8
68481,36,32.0319179,-81.1967494,2879.2,9197,94.1,168.14,0.257,7.4,6.87,11.1,4.2,16.52,22.54,9.7,310.9,13.5,718.8,717.3,10.1,230.3,51.8,40.2,-154.8,-141.4
68482,36,32.0327498,-81.1966192,2904.4,9275,94.7,169.11,0.258,7.5,9.46,13.5,4,16.81,21.56,9.5,310.9,13.3,716.6,716.3,10,231.3,51.8,42.3,-154.8,-143.8
68483,36,32.033578,-81.1961871,2929.9,9355,95.2,170.09,0.26,7.7,11.8,15.8,4,17.24,20.62,9.2,310.9,13,714.4,713,10,233.4,51.8,44.3,-154.8,-146
68484,36,32.0343999,-81.1961381,2955.9,9440,95.5,171.25,0.262,7.9,13.85,18.1,4.2,17.61,19.56,8.7,310.6,12.6,712.1,712.4,10.1,238.6,51.8,46.1,-154.8,-148.2
68485,36,32.0352145,-81.1957825,2982.6,9530,95.8,171.84,0.263,8,15.77,20.1,4.3,17.86,18.15,8.8,311,12.7,709.6,710,10.2,241.2,51.8,48,-154.8,-150.7
68486,36,32.0360217,-81.1954591,3010,9617,96,172.22,0.263,8.1,17.78,21.8,4.1,17.84,16.69,8.8,311.3,12.7,707.3,707.8,9.8,241,51.8,49.6,-154.8,-153.7
68487,36,32.0368217,-81.1948214,3037.6,9705,96.3,172.61,0.264,8.1,19.83,23.4,3.6,17.48,15.4,8.6,311.4,12.5,704.8,706.3,9.5,239.2,51.8,50.7,-154.8,-157.1
68488,36,32.037616,-81.1945532,3065.4,9795,96.8,173,0.265,7.9,21.56,24.8,3.3,16.9,14.16,8.2,311.3,12.1,702.4,704.2,9.4,237.1,51.8,51.3,-154.8,-160.3
68489,36,32.0384066,-81.193965,3092.9,9880,97.5,173,0.265,7.6,22.91,26,3.1,16.22,12.76,8.4,311.8,12.3,700.1,701.5,9.9,235.1,51.8,51.6,-154.8,-163.4
68490,36,32.0391953,-81.1937414,3119.5,9960,98.1,173.58,0.266,7.4,23.98,27.1,3.1,15.81,11.44,8.3,311.9,12.3,697.9,699.2,10.2,235.7,51.8,52,-154.7,-166
68491,36,32.0399816,-81.1931947,3145.2,10035,98.7,174.75,0.267,7.3,24.75,28.1,3.4,15.72,10.59,8.5,312.4,12.5,695.9,697.5,10.4,238.5,51.8,52.3,-154.7,-167.8
68492,36,32.0407648,-81.1926668,3170.6,10110,99.2,175.33,0.268,7.3,25.21,29.1,3.9,15.92,9.68,8.1,312.2,12.2,693.9,694.7,11.1,242.7,51.8,52.8,-154.7,-169.2
68493,36,32.0415441,-81.1921561,3195.8,10192,99.5,175.92,0.27,7.5,25.71,30,4.3,16.27,9.37,8.3,312.8,12.4,691.6,692.7,11.5,246.2,51.8,53.3,-154.7,-170.1
68494,36,32.0423184,-81.1916618,3221.3,10272,99.8,177.08,0.271,7.7,26.37,31,4.6,16.53,9.62,8.2,312.9,12.4,689.5,690,11.6,250.3,51.8,53.7,-154.7,-170.6
68495,36,32.043087,-81.1911837,3247.3,10360,100.1,177.67,0.272,7.8,27.13,31.9,4.8,16.45,9.84,7.7,312.7,11.9,687.2,689.8,11.8,252,51.8,53.7,-154.7,-171.3
68496,36,32.0438512,-81.1903785,3273.9,10445,100.6,177.86,0.273,7.7,28,32.8,4.8,16.07,9.98,7.8,313.1,11.9,684.9,685.5,12.1,251.9,51.8,53.5,-154.7,-172.4
68497,36,32.0446119,-81.189933,3300.4,10527,101.2,178.06,0.273,7.5,29.11,33.6,4.5,15.69,10.18,7.6,313.1,11.8,682.7,685.1,12.2,249.6,51.8,53.3,-154.7,-173.7
68498,36,32.0453696,-81.1891611,3326.5,10607,101.7,178.64,0.274,7.4,30.37,34.5,4.1,15.3,9.78,7.3,313.1,11.5,680.6,682.9,12,247.9,51.8,53.3,-154.7,-175.7
68499,36,32.0461244,-81.1887493,3352.1,10685,102.4,179.22,0.275,7.2,31.51,35.3,3.8,14.88,9.04,7,313,11.2,678.5,680,12.1,245.7,51.8,53.1,-154.7,-178
68500,36,32.0468773,-81.1880105,3377.2,10757,103.2,180,0.276,7,32.35,36,3.7,14.44,8.09,6.3,312.5,10.6,676.6,677.9,12.3,244.7,51.8,52.9,-154.7,179.9
68501,36,32.0476296,-81.1872865,3401.8,10837,104,180.78,0.278,6.8,33.1,36.6,3.5,13.71,6.94,6.3,312.8,10.6,674.5,677,12.5,243.5,51.8,52.3,-154.7,177.7
68502,36,32.0483835,-81.1865766,3425.6,10910,104.9,181.55,0.279,6.5,34.04,37.1,3.1,13.18,5.9,6.9,313.7,11.2,672.6,673.7,12.7,240.3,51.8,51.8,-154.7,175.4
68503,36,32.049139,-81.1858797,3448.5,10980,105.8,182.33,0.28,6.4,35.01,37.6,2.6,13.11,5.05,6.3,313.3,10.7,670.7,673.9,12.8,236.9,51.8,51.7,-154.7,173.3
68504,36,32.0498961,-81.1851949,3470.9,11047,106.6,183.5,0.282,6.4,35.42,38,2.6,13.18,3.36,6.3,313.5,10.7,669,672,13,237.1,51.8,51.6,-154.7,171.1
68505,36,32.0506548,-81.18452,3493.1,11117,107.3,185.25,0.285,6.5,35.16,38.2,3.1,13.36,2.55,5.3,312.6,9.9,667.2,668.4,13.1,240.8,51.8,51.7,-154.7,170.6
68506,36,32.051416,-81.1838526,3515.6,11185,107.9,186.03,0.286,6.7,34.9,38.4,3.5,13.59,2.1,5.8,313.4,10.3,665.3,666.3,13.7,243.7,51.8,51.8,-154.7,170.4
68507,36,32.0521795,-81.183191,3538.5,11260,108.4,187.58,0.289,6.8,35.03,38.5,3.5,13.52,1.53,5.4,313.2,10,663.4,664.3,13.4,244.3,51.8,51.7,-154.7,169.7
68508,36,32.0529466,-81.1825351,3561.9,11347,109.3,188.75,0.29,6.6,35.63,38.6,3,12.49,1.1,5.3,313.4,9.9,661.1,663.6,13.3,240.8,51.8,50.6,-154.7,168.8
68509,36,32.0537205,-81.1818867,3585.2,11417,110.5,189.72,0.292,6.1,36.18,38.6,2.5,11.28,0.57,4.7,313,9.4,659.3,660.5,13.6,236.2,51.8,49.2,-154.6,167.9
68510,36,32.0545031,-81.1809039,3607.1,11477,111.8,191.47,0.295,5.7,36.3,38.6,2.4,10.61,0.53,4.8,313.3,9.6,657.8,658.8,14,235.1,51.8,48.6,-154.6,167.9
68511,36,32.0552938,-81.1802727,3627.4,11525,112.8,192.05,0.296,5.7,36.03,38.6,2.7,11.65,0.87,4.3,312.9,9.2,656.6,657.9,14.8,236,51.8,49.7,-154.6,168.3
68512,36,32.0560872,-81.179643,3647.1,11585,112.9,193.02,0.297,6.7,35.83,38.7,2.9,14.14,0.94,4.4,313.3,9.3,655,656.2,14.6,238.6,51.8,52.1,-154.6,168
68513,36,32.0568793,-81.1786737,3668.8,11667,112.5,194.19,0.3,7.7,35.97,38.8,2.9,15.44,1.03,4,313.1,9,652.9,653.2,13.6,240,51.8,53.4,-154.6,167.5
68514,36,32.0576679,-81.1780471,3693.9,11760,112.2,194.97,0.301,8.3,36.52,38.9,2.5,16.16,1.47,3.8,313.2,8.8,650.5,652.8,12.7,238.1,51.8,54.2,-154.6,167
68515,36,32.0584531,-81.1774208,3721.7,11855,112,194.77,0.301,8.6,37.16,39.1,2,16.52,1.76,3.8,313.5,8.8,648.1,650,12.3,235.1,51.8,54.6,-154.6,166.4
68516,36,32.0592355,-81.1764529,3750.9,11952,112,194.77,0.301,8.8,37.52,39.3,1.8,16.62,1.75,3.6,313.6,8.6,645.6,647.7,12.3,234,51.8,54.6,-154.6,165.9
68517,36,32.0600161,-81.1758308,3780.7,12047,112,194.38,0.3,8.8,37.56,39.4,1.9,16.62,1.59,3.1,313.4,8.1,643.2,646.2,12.5,234.3,51.8,54.6,-154.6,165.6
68518,36,32.0607956,-81.1752113,3810.8,12145,112.1,193.8,0.3,8.7,37.38,39.5,2.2,16.56,1.54,2.9,313.5,7.8,640.7,642.5,13,236,51.8,54.5,-154.6,165.9
68519,36,32.0615749,-81.1742512,3840.7,12237,112.3,193.22,0.299,8.6,37.13,39.6,2.5,16.13,1.33,2.9,313.9,7.8,638.4,640.3,13.7,237.8,51.9,54.1,-154.6,166.1
68520,36,32.0623545,-81.1736348,3870.3,12330,112.7,193.8,0.3,8.3,37.14,39.7,2.6,15.41,1.1,2.4,313.6,7.4,636.1,640.5,13.8,238.5,51.9,53.3,-154.6,166.1
68521,36,32.063138,-81.1726818,3899,12415,113.3,194.38,0.301,7.9,37.56,39.7,2.2,14.55,1.01,2,313.5,7,633.9,637.1,13.9,235.3,51.9,52.4,-154.6,165.7
68522,36,32.0639256,-81.1720772,3926.7,12495,114,195.74,0.303,7.5,38.19,39.8,1.6,13.6,1.07,2.1,313.9,7.2,631.9,635.2,13.6,231.8,51.9,51.5,-154.6,165.3
68523,36,32.064718,-81.1711355,3953.1,12577,114.8,197.69,0.306,7.1,38.79,39.8,1.1,12.67,1.25,2,314,7.1,629.9,632.4,13.2,227.6,51.9,50.6,-154.6,165
68524,36,32.0655157,-81.1705446,3978.2,12652,115.7,199.44,0.309,6.8,39.07,39.9,0.9,12.16,1.49,1.8,314.1,7.1,628,631.3,13.2,226.4,51.9,50.2,-154.6,165.1
68525,36,32.0663173,-81.1696175,4002,12712,116.3,200.41,0.31,6.9,38.97,40,1.1,12.85,1.42,1.7,314.2,7,626.5,628.2,13.3,228,51.9,50.8,-154.6,164.9
68526,36,32.0671198,-81.1690382,4025.5,12787,116.5,201.38,0.312,7.4,38.7,40.2,1.5,14.1,0.99,1.8,314.6,7.1,624.7,626.3,13.2,232,51.9,51.9,-154.6,164.4
68527,36,32.0679206,-81.1681167,4050.2,12870,116.2,202.16,0.313,8.1,38.48,40.3,1.8,15.29,0.84,1.6,314.6,7,622.6,625.4,12.7,235.4,51.9,53.1,-154.6,164.2
68528,36,32.0687164,-81.1671904,4077.2,12962,115.9,202.74,0.314,8.6,38.35,40.3,2,15.98,0.96,1.1,314.4,6.5,620.3,622.3,12.2,237.2,51.9,53.8,-154.5,164.2
68529,36,32.0695107,-81.1666108,4106.2,13065,115.6,203.52,0.316,8.9,38.29,40.4,2.2,16.13,1.16,0.9,314.5,6.4,617.8,620.7,11.6,239.8,51.9,54,-154.5,164.5
68530,36,32.0703028,-81.1656885,4136.3,13165,115.6,204.3,0.317,9,38.12,40.6,2.5,15.97,1.31,0.7,314.6,6.2,615.4,619.3,11.5,243.8,51.9,53.8,-154.5,164.9
68531,36,32.0710937,-81.1647679,4167,13262,115.6,204.88,0.318,8.9,37.87,40.6,2.8,15.59,1.29,0.7,315,6.3,613,616.7,11.5,246.5,51.9,53.5,-154.5,165.4
68532,36,32.0718851,-81.1641932,4197.5,13360,115.9,204.69,0.318,8.6,37.78,40.7,3,15.05,1.18,-0.1,314.4,5.4,610.6,613.6,12,247.2,51.9,52.9,-154.5,165.6
68533,36,32.0726778,-81.1632785,4227.5,13445,116.2,204.88,0.318,8.5,37.84,40.8,3,15.31,1.22,-0.1,314.7,5.5,608.6,611.7,12.2,247.2,51.9,53.2,-154.5,165.4
68534,36,32.0734694,-81.1623655,4256.7,13530,115.9,204.49,0.318,8.8,37.9,40.9,3.1,16.19,1.39,0.2,315.4,5.7,606.5,608.8,12.2,247.8,51.9,54.1,-154.5,165.2
68535,36,32.0742571,-81.161796,4286.4,13630,115.6,204.1,0.317,9.1,37.81,41.1,3.3,16.63,1.11,0,315.5,5.5,604.1,606.2,12.3,250.3,51.9,54.4,-154.5,164.9
68536,36,32.0750387,-81.1608787,4317.2,13730,115.4,203.13,0.316,9.3,37.54,41.1,3.7,16.79,0.67,-0.2,315.6,5.3,601.7,605.1,12.9,251.4,51.9,54.5,-154.5,164.8
68537,36,32.0758207,-81.159965,4348.7,13832,115.2,202.35,0.315,9.2,37.3,41.2,3.9,16.73,0.17,-0.6,315.5,4.8,599.3,603.5,13.4,253.2,51.9,54.3,-154.5,164.6
68538,36,32.076602,-81.1593942,4380.4,13932,115.2,201.58,0.313,9.1,37.3,41.2,3.9,16.5,-0.34,-0.5,316,4.8,596.9,600.8,13.7,252.2,51.9,54,-154.5,164.2
68539,36,32.0773838,-81.1584798,4411.7,14025,115.2,200.99,0.313,8.9,37.52,41.1,3.6,16.18,-0.54,-0.9,315.9,4.5,594.6,599.4,13.6,249.4,51.9,53.6,-154.5,163.8
68540,36,32.0781668,-81.1575656,4442.5,14125,115.4,200.22,0.312,8.7,37.68,41.1,3.4,15.81,-0.59,-1.4,315.7,3.9,592.3,597.2,14,247.1,51.9,53.2,-154.5,163.7
68541,36,32.0789515,-81.1569953,4472.6,14217,115.6,199.44,0.311,8.4,37.56,41,3.5,15.39,-0.76,-1.3,316.1,3.9,590.1,595.3,14.6,246,51.9,52.8,-154.5,163.8
68542,36,32.0797388,-81.1560828,4501.9,14305,115.9,199.05,0.31,8.2,37.23,41,3.8,14.97,-1.13,-1.5,316.2,3.8,588,591.9,15.3,247.1,51.9,52.3,-154.5,164.1
68543,36,32.0805295,-81.155171,4530.4,14390,116.3,198.08,0.309,7.9,36.83,40.9,4.1,14.59,-1.54,-1.7,316.3,3.5,586,590.8,16.3,247.2,51.9,51.8,-154.5,164.3
68544,36,32.0813202,-81.154596,4558,14472,116.7,196.91,0.307,7.7,36.53,40.7,4.2,14.29,-1.25,-2.1,316.1,3,584.1,587.6,17.3,245.9,51.9,51.6,-154.5,165.1
68545,36,32.0821192,-81.1536854,4584.8,14552,117,196.72,0.307,7.5,36.37,40.6,4.3,14.07,-0.24,-2.3,316.2,2.8,582.2,586.7,17.7,245.5,51.9,51.7,-154.5,166.4
68546,36,32.0829214,-81.1527765,4611,14632,117.4,196.33,0.306,7.4,36.46,40.6,4.2,13.95,0.16,-2.1,316.7,2.9,580.3,584.1,18.2,244.2,51.9,51.7,-154.5,166.7
68547,36,32.0837266,-81.1522131,4636.7,14712,117.9,195.55,0.305,7.3,36.82,40.6,3.8,13.84,-0.23,-2.3,316.7,2.7,578.5,581.7,18.7,241.3,51.9,51.4,-154.4,165.9
68548,36,32.0845349,-81.1513089,4662.1,14787,118.3,195.74,0.305,7.2,37.3,40.5,3.3,13.63,-0.21,-2.5,316.8,2.5,576.7,579.2,18.6,238.1,51.9,51.2,-154.4,165.4
68549,36,32.0853464,-81.1504071,4687.1,14867,118.6,196.13,0.306,7.1,37.65,40.5,2.9,13.58,-0.2,-2.9,316.6,2.2,574.9,576.8,18.5,236.2,51.9,51.1,-154.4,165
68550,36,32.0861605,-81.1495076,4711.8,14945,119,196.91,0.307,7.1,37.8,40.5,2.7,13.49,-0.3,-3.1,316.7,2,573.1,576.9,18.4,235.5,51.9,51,-154.4,164.7
68551,36,32.0869778,-81.1489536,4736.5,15022,119.4,197.69,0.309,7.1,37.88,40.5,2.6,13.24,-0.52,-3.3,316.7,1.8,571.3,574.1,18.4,235.1,51.9,50.7,-154.4,164.5
68552,36,32.0877961,-81.1480548,4761.1,15097,119.9,198.47,0.31,7,37.86,40.4,2.6,12.92,-0.73,-3.3,317,1.9,569.6,572.4,18.5,234.6,51.9,50.3,-154.4,164.4
68553,36,32.088621,-81.1471623,4785.4,15175,120.4,199.24,0.311,6.8,37.74,40.3,2.7,12.53,-0.96,-3.7,316.8,1.6,567.8,571,18.6,234.6,51.9,49.9,-154.4,164.5
68554,36,32.0894509,-81.1462726,4809.2,15250,121.1,200.02,0.313,6.7,37.58,40.3,2.7,12.25,-1.25,-3.6,317.2,1.6,566.1,567.1,19,235.2,51.9,49.6,-154.4,164.5
68555,36,32.0902861,-81.1453851,4832.6,15320,121.6,200.8,0.314,6.6,37.44,40.1,2.8,12.22,-1.28,-4.1,316.9,1.2,564.5,565.9,19,234.7,51.9,49.5,-154.4,164.7
68556,36,32.0911261,-81.1448427,4855.7,15390,122.1,201.58,0.316,6.7,37.3,40.1,2.8,12.3,-0.87,-4.3,316.9,1,562.9,565.4,19.2,235.4,51.9,49.7,-154.4,165.2
68557,36,32.0919703,-81.1439588,4878.7,15462,122.6,202.74,0.318,6.7,37.12,40,2.9,12.24,-0.49,-4.3,317.1,1.2,561.2,561.9,19.2,235.9,51.9,49.8,-154.4,165.8
68558,36,32.0928184,-81.1430773,4901.9,15540,123.1,204.1,0.32,6.7,36.85,40,3.1,12.11,-0.23,-4.6,317.1,0.9,559.5,562,19.1,237.5,52,49.7,-154.4,166.4
68559,36,32.0936704,-81.1421986,4925.2,15612,123.5,204.88,0.321,6.7,36.6,39.9,3.4,12.15,0.04,-4.9,317,0.7,557.9,559.9,19.3,238.3,52,49.8,-154.4,166.9
68560,36,32.0945232,-81.1413184,4948.5,15685,124,205.85,0.323,6.8,36.42,39.9,3.5,12.32,0.12,-4.6,317.6,1,556.2,557.5,19.4,239.3,52,50,-154.4,167.2
68561,36,32.0953811,-81.1404448,4972,15762,124.3,206.82,0.324,7,36.36,39.9,3.6,12.55,0.34,-5,317.4,0.6,554.5,555.8,19.3,239.8,52,50.3,-154.4,167.5
68562,36,32.0962409,-81.1395737,4996,15837,124.6,207.02,0.325,7.2,36.31,40,3.7,12.81,0.58,-5.4,317.2,0.2,552.8,555.1,19.6,240.5,52,50.6,-154.4,167.7
68563,36,32.0971018,-81.1387048,5020.6,15917,124.8,207.8,0.326,7.3,36.21,40,3.8,13.12,-0.31,-5.2,317.7,0.5,551,552.8,19.5,241.3,52,50.7,-154.4,166.9
68564,36,32.0979642,-81.1378371,5045.6,15997,124.9,207.6,0.326,7.5,36.11,39.9,3.9,13.35,-1.26,-5.4,317.8,0.3,549.2,552.2,19.6,241,52,50.7,-154.4,166
68565,36,32.0988287,-81.1369688,5071.2,16080,125.1,206.63,0.325,7.6,36.17,39.8,3.7,13.48,-1.44,-5.4,318.1,0.2,547.4,548.2,20.2,239.3,52,50.8,-154.3,165.8
68566,36,32.0996958,-81.1360997,5097.2,16160,125.3,207.02,0.325,7.6,36.44,39.7,3.3,13.4,-1.55,-5.5,318.3,0.1,545.6,546.6,19.9,237.4,52,50.7,-154.3,165.4
68567,36,32.1005659,-81.1355737,5123.3,16247,125.6,206.63,0.325,7.5,36.71,39.6,3,13.14,-1.37,-5.4,318.7,0.2,543.7,545.7,20.2,235,52,50.4,-154.3,165.3
68568,36,32.1014359,-81.1347005,5149.2,16327,126,206.05,0.324,7.3,36.79,39.5,2.8,12.78,-1.21,-5.8,318.6,-0.2,541.9,544.8,20.7,233.5,52,50.1,-154.3,165.5
68569,36,32.102314,-81.1338335,5174.5,16402,126.5,206.05,0.324,7.1,36.71,39.4,2.8,12.41,-1.14,-5.9,318.7,-0.4,540.2,541.9,21.2,233,52,49.8,-154.3,165.7
68570,36,32.1031964,-81.1329683,5199.1,16475,126.9,205.66,0.324,7,36.58,39.4,2.8,12.52,-1.02,-6.1,318.8,-0.5,538.6,539.4,21.9,233.2,52,49.9,-154.3,166
68571,36,32.1040822,-81.1321041,5223.2,16547,127.2,205.66,0.323,7.1,36.39,39.3,3,12.91,-0.66,-6.2,318.9,-0.6,537.1,537.9,22.2,233.3,52,50.4,-154.3,166.4
68572,36,32.1049698,-81.1312401,5247.4,16627,127.3,206.05,0.324,7.3,36.1,39.3,3.2,13.44,-0.57,-6.6,318.7,-1,535.3,537,22.3,234.7,52,51,-154.3,166.8
68573,36,32.1058578,-81.1303755,5272.2,16705,127.2,206.05,0.324,7.6,35.76,39.2,3.5,14.02,-0.55,-6.5,319.1,-0.8,533.6,534.9,22.3,235.8,52,51.5,-154.3,167
68574,36,32.1067454,-81.1295093,5298,16787,127,206.82,0.325,8,35.5,39.2,3.7,14.68,-0.51,-6.7,319.2,-1,531.8,533.3,21.9,237.5,52,52.2,-154.3,167.2
68575,36,32.107631,-81.1286407,5324.9,16875,126.6,207.41,0.326,8.3,35.3,39.2,3.9,15.34,-0.43,-6.9,319.3,-1.2,529.9,531.3,21.4,239,52,52.9,-154.3,167.4
68576,36,32.1085081,-81.1277637,5352.9,16967,126.1,206.82,0.326,8.7,35.08,39.2,4.1,15.99,-0.43,-7.7,318.7,-2,527.9,530.7,21.4,240.1,52,53.5,-154.3,167.5
68577,36,32.1093872,-81.1268884,5382.1,17062,125.5,206.24,0.325,9,34.7,39.2,4.5,16.62,-0.22,-7.4,319.4,-1.8,525.9,527.9,21.4,242.1,52,54.2,-154.3,168
68578,36,32.1102618,-81.1260093,5412.4,17160,124.9,205.08,0.323,9.3,34.14,39.2,5.1,17.2,0.29,-7.8,319.3,-2.2,523.8,526.8,21.9,244.4,52,54.9,-154.3,169.2
68579,36,32.1111312,-81.1251265,5443.7,17255,124.2,203.52,0.321,9.5,33.68,39.2,5.6,17.72,0.47,-8.2,319.1,-2.8,521.7,524.1,22.4,245.9,52,55.5,-154.3,169.9
68580,36,32.1119951,-81.1245829,5475.7,17362,123.5,202.16,0.319,9.6,33.82,39.3,5.5,18.02,0.63,-8.5,319.2,-3.1,519.4,523.2,22.3,245.7,52,55.8,-154.3,169.8
68581,36,32.1128538,-81.1236925,5508.2,17470,123,200.8,0.317,9.6,34.61,39.3,4.8,17.85,0.38,-8.3,319.8,-2.9,517.1,521.2,21.8,242.1,52,55.5,-154.3,168.5
68582,36,32.1137089,-81.1227999,5540.8,17575,122.6,200.02,0.316,9.3,35.49,39.4,3.9,17.46,-0.41,-8.6,319.8,-3.3,515,519.5,21.1,238.8,52,54.9,-154.3,166.5
68583,36,32.1145617,-81.1219057,5573,17672,122.4,199.44,0.315,9.1,35.82,39.4,3.6,17.02,-1.24,-8.7,320.1,-3.4,512.8,516.9,21,237.2,52,54.3,-154.3,165.4
68584,36,32.1154116,-81.1210066,5604.4,17767,122.2,198.47,0.313,8.8,35.37,39.3,4,16.62,-2.33,-9.2,319.9,-4,510.8,514.8,21.5,238.3,52,53.6,-154.2,165
68585,36,32.116264,-81.1204506,5634.8,17857,122.1,196.91,0.312,8.5,34.42,39.1,4.8,16.3,-3.69,-9.2,320.2,-4.1,509,513.1,22.7,240.5,52,53.1,-154.2,165
68586,36,32.1171183,-81.1195463,5664.3,17947,121.9,195.74,0.31,8.3,33.57,38.8,5.3,16.08,-4.02,-9.3,320.4,-4.3,507.1,512.1,23.5,241.8,52,52.9,-154.2,165.9
68587,36,32.1179751,-81.1186356,5692.9,18035,121.8,194,0.307,8,33.29,38.5,5.3,15.81,-4.11,-9.4,320.6,-4.4,505.3,509.7,24.2,240.5,52,52.6,-154.2,166.2
68588,36,32.118835,-81.1180625,5720.9,18120,121.7,193.41,0.306,7.8,33.58,38.2,4.7,15.41,-3.87,-9.7,320.6,-4.7,503.5,507.5,23.9,237.8,52,52.3,-154.2,166.2
68589,36,32.1196982,-81.1171415,5748,18202,121.8,192.63,0.305,7.5,33.89,38,4.2,14.92,-3.36,-9.7,320.9,-4.7,501.8,505.3,24,235.2,52,51.9,-154.2,166.5
68590,36,32.1205648,-81.1162174,5774.2,18282,122,192.25,0.304,7.2,33.72,37.8,4.1,14.41,-2.9,-9.8,321.1,-5,500.1,503.7,24.4,234.6,52,51.5,-154.2,167.3
68591,36,32.1214349,-81.1156346,5799.4,18357,122.2,192.83,0.305,6.9,32.89,37.6,4.8,14.05,-2.35,-10,321.1,-5.1,498.6,502.3,24.7,236.8,52,51.4,-154.2,169
68592,36,32.1223065,-81.1147042,5823.7,18430,122.3,193.41,0.306,6.8,31.66,37.5,5.8,13.85,-1.8,-10.1,321.3,-5.1,497.1,500.6,25.4,241,52,51.4,-154.2,171.1
68593,36,32.1231826,-81.114117,5847.5,18502,122.4,194,0.307,6.8,30.86,37.3,6.5,13.71,-1.76,-10.1,321.5,-5.1,495.6,497.7,25.8,243,52,51.3,-154.2,172.2
68594,36,32.1240617,-81.113184,5870.9,18575,122.6,193.8,0.307,6.7,30.93,37.1,6.2,13.49,-1.61,-10.1,321.8,-5.2,494.1,497.1,25.8,241.6,52,51.1,-154.2,172.3
68595,36,32.1249438,-81.1122497,5894.2,18650,122.8,194.38,0.308,6.5,31.51,37,5.6,12.85,-1.06,-10.4,321.7,-5.4,492.6,494.8,25.1,239.4,52,50.5,-154.2,172.3
68596,36,32.1258295,-81.1116597,5917,18720,123.3,195.16,0.309,6.2,31.89,36.9,5.1,12,-0.31,-10.5,321.9,-5.5,491.1,493.2,24.9,237.5,52.1,49.7,-154.2,172.7
68597,36,32.1267199,-81.1107294,5938.9,18790,124,195.74,0.31,5.8,31.62,36.9,5.4,11.09,0.3,-10.6,322,-5.5,489.8,491.7,25.5,238.2,52.1,48.9,-154.2,173.7
68598,36,32.1276156,-81.110147,5959.5,18850,124.8,196.72,0.311,5.3,30.75,36.9,6.2,10.28,0.4,-10.7,322.1,-5.6,488.5,489.3,26.5,241,52.1,48.1,-154.2,174.9
68599,36,32.1285174,-81.1092257,5978.8,18897,125.5,197.69,0.313,5.1,29.9,36.8,7,10.11,-0.32,-10.9,322.1,-5.7,487.5,489.4,27.4,243.3,52.1,47.9,-154.2,175.3
68600,36,32.1294231,-81.1083042,5996.9,18950,126.1,198.66,0.315,5.2,29.55,36.8,7.3,10.62,-0.47,-10.8,322.4,-5.6,486.5,486.9,27.9,244.4,52.1,48.4,-154.2,175.5
68601,36,32.1303351,-81.1077301,6014.8,19007,126.4,199.24,0.316,5.5,29.81,36.7,6.9,11.32,-0.34,-11.1,322.2,-5.9,485.3,486.5,27.5,243.2,52.1,49.1,-154.2,175.3
68602,36,32.1312496,-81.1068132,6033.6,19065,126.6,200.99,0.319,5.9,30.45,36.6,6.3,11.87,-0.18,-11.3,322.2,-5.9,484.2,484.6,26.2,241.6,52.1,49.6,-154.2,174.6
68603,36,32.1321653,-81.1058971,6053.5,19137,126.7,201.38,0.32,6.2,30.93,36.6,5.8,12.25,0.07,-11.1,322.7,-5.8,482.7,482.1,25.7,240,52.1,50,-154.1,174.1
68604,36,32.1330816,-81.1053251,6074.7,19207,126.8,201.58,0.32,6.4,30.86,36.7,5.9,12.53,0.02,-11.4,322.6,-6,481.3,481.8,25.9,240.8,52.1,50.3,-154.1,174.2
68605,36,32.1339985,-81.1044105,6096.7,19277,126.9,201.77,0.321,6.6,30.32,36.7,6.4,12.91,-0.33,-11.5,322.8,-6.1,479.9,480.8,26.4,242.6,52.1,50.7,-154.1,174.5
68606,36,32.134916,-81.1034957,6119.4,19355,126.9,201.77,0.321,6.8,29.74,36.6,6.9,12.93,-0.94,-11.7,322.8,-6.3,478.4,477.7,26.9,244.1,52.1,50.6,-154.1,174.7
68607,36,32.1358352,-81.1029232,6142.6,19430,127.1,201.77,0.321,6.7,29.53,36.5,7,12.38,-0.71,-12.3,322.4,-6.9,476.9,477.4,27.2,244.1,52.1,50.1,-154.1,175.2
68608,36,32.1367545,-81.1020037,6165.8,19507,127.5,202.35,0.322,6.4,29.7,36.4,6.8,11.47,0.01,-12.8,322.1,-7.4,475.3,475.9,27,243.1,52.1,49.3,-154.1,175.8
68609,36,32.1376816,-81.1010904,6188.2,19575,128.2,203.71,0.324,5.9,30.11,36.4,6.3,10.39,0.61,-12.4,322.8,-6.9,474,473.1,26.6,241.9,52.1,48.2,-154.1,176
68610,36,32.1386144,-81.1005248,6209.3,19635,129.1,204.69,0.326,5.4,30.49,36.4,6,9.57,0.68,-12.6,322.8,-7.1,472.8,473.1,26.7,240.4,52.1,47.4,-154.1,175.6
68611,36,32.1395532,-81.0996214,6228.8,19685,129.8,205.46,0.327,5.2,30.64,36.4,5.8,9.3,0.6,-13.1,322.4,-7.5,471.8,470.2,26.8,239.7,52.1,47.1,-154.1,175.4
68612,36,32.1404972,-81.0987228,6247.1,19740,130.5,206.44,0.329,5.1,30.55,36.4,5.9,9.53,0.39,-13,322.7,-7.3,470.8,469.1,27.1,239.9,52.1,47.3,-154.1,175.3
68613,36,32.1414458,-81.0978281,6264.9,19792,131.1,207.02,0.33,5.3,30.51,36.4,5.9,9.89,0.01,-13.3,322.5,-7.7,469.7,469.1,27.4,239.9,52.1,47.7,-154.1,175
68614,36,32.1423982,-81.0972792,6283,19850,131.5,208.38,0.332,5.5,30.66,36.3,5.8,10.13,-0.42,-13.2,322.9,-7.5,468.5,466.9,27,239.3,52.1,47.9,-154.1,174.4
68615,36,32.1433544,-81.0963889,6301.7,19910,132,209.74,0.334,5.6,30.92,36.3,5.4,10.27,-0.71,-13.5,322.7,-7.7,467.4,466.1,26.6,238.7,52.1,47.9,-154.1,173.8
68616,36,32.1443117,-81.0954965,6320.9,19972,132.3,210.13,0.335,5.7,31.05,36.2,5.3,10.34,-0.94,-13.7,322.7,-7.9,466.2,464.4,26.5,237.7,52.1,48,-154.1,173.5
68617,36,32.1452754,-81.0946088,6340.6,20037,132.7,211.3,0.337,5.8,30.81,36.2,5.4,10.39,-1.16,-13.8,322.9,-7.9,464.9,463.1,26.5,238.8,52.1,48,-154.1,173.5
68618,36,32.1462429,-81.0937218,6360.6,20100,133.1,212.27,0.338,5.9,30.26,36.1,5.9,10.56,-0.77,-13.7,323.2,-7.8,463.7,461.1,26.9,240.5,52.1,48.2,-154.1,174.5
68619,36,32.1472138,-81.0928352,6380.9,20165,133.4,213.04,0.34,6,29.64,36,6.4,10.68,0.09,-13.9,323.2,-7.9,462.4,460.9,27.3,242.4,52.1,48.4,-154.1,176.1
68620,36,32.1481875,-81.0922932,6401.6,20232,133.8,213.82,0.341,6.1,29.39,36,6.6,10.67,0.46,-14,323.4,-8,461.1,460.4,27.6,243.3,52.1,48.5,-154.1,176.7
68621,36,32.1491639,-81.0914098,6422.6,20300,134.1,214.21,0.342,6.1,29.7,36,6.4,10.57,0.65,-14.2,323.4,-8.2,459.8,458.9,27.4,242.2,52.1,48.4,-154.1,176.5
68622,36,32.1501429,-81.0905291,6443.6,20365,134.5,214.99,0.343,6.1,30.29,36,5.8,10.38,0.95,-14,323.9,-7.9,458.5,457.5,26.8,240.2,52.1,48.2,-154,176.1
68623,36,32.1511244,-81.0896522,6464.7,20435,135,215.38,0.344,6.1,30.72,36.1,5.4,10.18,1.31,-14.6,323.4,-8.5,457.2,455.3,26.8,238.9,52.1,48,-154,176
68624,36,32.1521032,-81.0887745,6485.5,20497,135.5,216.16,0.345,6,30.77,36.2,5.4,10.04,1.55,-14.6,323.7,-8.4,456,453.9,26.9,239.2,52.1,47.9,-154,176.2
68625,36,32.1530895,-81.0879072,6506.2,20560,135.9,217.13,0.347,6,30.54,36.3,5.8,9.96,1.52,-15,323.4,-8.8,454.8,452.3,27.2,240.7,52.1,47.8,-154,176.4
68626,36,32.1540783,-81.0870446,6526.7,20625,136.5,218.68,0.35,6,30.24,36.4,6.2,9.93,1.44,-15.1,323.5,-8.8,453.6,451.2,27.4,242.5,52.1,47.8,-154,176.7
68627,36,32.1550692,-81.0861866,6547.1,20690,136.9,219.27,0.351,6,30.04,36.4,6.4,9.88,1.35,-14.9,324,-8.6,452.3,450.4,27.8,243.1,52.1,47.7,-154,176.9
68628,36,32.1560627,-81.0853329,6567.6,20760,137.4,219.85,0.351,5.9,29.97,36.5,6.6,9.77,1.33,-15.3,323.8,-8.9,451,448.4,28.1,243.7,52.1,47.6,-154,176.9
68629,36,32.157059,-81.0844837,6587.9,20820,137.9,220.63,0.353,5.9,29.97,36.6,6.7,9.77,1.38,-15.1,324.3,-8.6,449.8,447,28.4,244.1,52.1,47.6,-154,177
68630,36,32.1580576,-81.0836388,6608.1,20877,138.3,221.01,0.353,6,30.04,36.6,6.7,10.11,1.4,-15.3,324.3,-8.9,448.7,447,28.5,243.7,52.1,47.9,-154,176.9
68631,36,32.1590573,-81.0827975,6628.4,20942,138.4,221.21,0.354,6.3,30.26,36.7,6.5,10.59,1.31,-15.4,324.4,-9,447.5,445.5,28.4,243.5,52.1,48.4,-154,176.6
68632,36,32.1600519,-81.0819543,6649.4,21010,138.6,221.99,0.355,6.6,30.53,36.8,6.3,11.08,0.96,-15.5,324.5,-9,446.3,443.2,28,243.2,52.1,48.9,-154,175.9
68633,36,32.1610511,-81.081118,6671.4,21082,138.6,222.76,0.356,6.8,30.67,36.9,6.3,11.43,0.44,-15.7,324.6,-9.1,444.9,441.9,27.6,243.6,52.2,49.2,-154,175.2
68634,36,32.1620497,-81.0802828,6694.4,21160,138.6,223.15,0.357,7,30.62,36.9,6.4,11.73,0.05,-15.8,324.7,-9.3,443.4,441.1,27.5,244,52.2,49.4,-154,174.7
68635,36,32.163048,-81.0791042,6718.1,21237,138.6,223.15,0.357,7.2,30.38,36.9,6.6,11.97,-0.13,-15.8,325,-9.2,442,438.8,27.8,244.9,52.2,49.7,-154,174.9
68636,36,32.1640458,-81.0782683,6742.5,21315,138.4,223.35,0.358,7.4,30.18,36.9,6.8,12.17,-0.24,-16.2,324.8,-9.6,440.6,438.3,27.8,245.9,52.2,49.9,-154,175.1
68637,36,32.1650433,-81.0774312,6767.3,21397,138.3,224.12,0.359,7.5,30.17,36.9,6.8,12.33,-0.15,-16.1,325.3,-9.5,439,436.9,27.4,246.5,52.2,50,-154,175.2
68638,36,32.1660398,-81.0765931,6792.7,21475,138.2,224.12,0.359,7.6,30.24,36.9,6.7,12.57,0.01,-16.7,324.8,-10.1,437.6,436.9,27.2,246.4,52.2,50.3,-154,175.2
68639,36,32.1670349,-81.0757538,6818.5,21555,137.9,224.51,0.36,7.8,30.25,36.9,6.7,12.89,-0.23,-16.8,325,-10.1,436.1,434.6,26.8,246.9,52.2,50.6,-154,174.9
68640,36,32.168024,-81.0749093,6844.7,21642,137.7,224.9,0.361,8,30.14,36.9,6.8,13.13,-0.66,-17,325.1,-10.3,434.5,433.9,26.6,247.7,52.2,50.8,-154,174.6
68641,36,32.1690152,-81.0740658,6871.7,21732,137.4,224.9,0.361,8.1,29.93,36.8,7,13.26,-1.21,-16.7,325.9,-10,432.8,432.3,26.4,248.4,52.2,50.8,-153.9,174.4
68642,36,32.1700053,-81.073219,6899,21817,137,224.51,0.36,8.1,29.71,36.7,7.1,13.27,-1.44,-16.9,325.9,-10.2,431.3,430.7,26.4,248.9,52.2,50.8,-153.9,174.4
68643,36,32.1709944,-81.0723688,6926.6,21907,136.8,224.12,0.359,8.1,29.58,36.6,7.1,13.33,-1.45,-17,326.2,-10.4,429.6,427.9,26.4,248.8,52.2,50.9,-153.9,174.6
68644,36,32.1719827,-81.0715149,6954.1,21992,136.5,223.54,0.359,8.1,29.42,36.6,7.2,13.46,-1.43,-17.2,326.2,-10.6,428.1,428.1,26.6,249.3,52.2,51,-153.9,174.8
68645,36,32.1729698,-81.0706574,6981.8,22075,136.1,223.15,0.358,8.2,29.23,36.5,7.3,13.71,-1.49,-17.4,326.3,-10.8,426.5,427.3,26.5,249.7,52.2,51.3,-153.9,174.9
68646,36,32.173955,-81.0697955,7009.5,22162,135.7,222.57,0.358,8.3,29.02,36.4,7.4,14.06,-1.58,-17.6,326.4,-11,425,424.1,26.6,250,52.2,51.6,-153.9,175.1
68647,36,32.1749378,-81.0689287,7037.6,22250,135.2,221.21,0.355,8.5,28.79,36.3,7.6,14.43,-1.75,-17.8,326.5,-11.3,423.4,422.5,26.9,249.9,52.2,52,-153.9,175.2
68648,36,32.1759112,-81.0680518,7066.1,22345,134.6,220.04,0.354,8.6,28.56,36.2,7.7,14.76,-1.96,-17.9,326.7,-11.6,421.7,422,27,250.1,52.2,52.3,-153.9,175.2
68649,36,32.1768881,-81.0671735,7095.1,22435,134,218.88,0.352,8.6,28.31,36.1,7.8,14.7,-2.16,-18.1,326.9,-11.8,420,421.4,27.1,250.3,52.2,52.2,-153.9,175.3
68650,36,32.1778634,-81.06629,7124.3,22532,133.7,218.49,0.351,8.4,28.02,35.9,8,14.08,-2.26,-18.2,327.1,-11.9,418.3,418.3,27.2,250.5,52.2,51.6,-153.9,175.7
68651,36,32.1788388,-81.0654026,7153.3,22627,133.6,217.13,0.349,8,27.65,35.8,8.2,13.31,-1.56,-18.6,327,-12.3,416.6,417.6,27.9,250.3,52.2,50.9,-153.9,176.9
68652,36,32.1798161,-81.064513,7181.1,22705,133.8,215.96,0.348,7.5,27.36,35.7,8.4,12.49,-0.8,-18.6,327.3,-12.4,415.2,416.4,28.8,249.7,52.2,50.2,-153.9,178.1
68653,36,32.1807956,-81.0639659,7207.4,22785,133.9,214.79,0.346,7,27.38,35.6,8.3,11.93,-0.23,-18.5,327.7,-12.4,413.8,415.3,29.2,248.4,52.2,49.6,-153.9,178.6
68654,36,32.1817776,-81.0630761,7232,22852,134.2,213.43,0.344,6.7,27.61,35.6,8,11.67,0.04,-18.8,327.6,-12.8,412.6,413.3,29.7,246.5,52.2,49.4,-153.9,178.5
68655,36,32.1827611,-81.0621872,7255.3,22922,134.4,212.85,0.343,6.5,27.76,35.6,7.9,11.57,0.02,-18.9,327.8,-13,411.4,413.4,29.9,245.5,52.2,49.3,-153.9,178.4
68656,36,32.1837422,-81.0612958,7277.9,22990,134.5,212.66,0.342,6.4,27.65,35.6,8,11.52,0.07,-18.9,328.1,-12.9,410.2,411.4,30.2,245.7,52.2,49.2,-153.9,178.5
68657,36,32.1847279,-81.0604083,7300,23060,134.6,212.46,0.342,6.4,27.42,35.6,8.2,11.49,-0.35,-19.2,327.9,-13.3,409,410.1,30.7,246.1,52.2,49.2,-153.9,178.5
68658,36,32.1857147,-81.059864,7321.9,23127,134.7,212.85,0.343,6.3,27.28,35.5,8.3,11.45,-0.7,-19.4,328,-13.4,407.8,408.5,30.6,246.2,52.2,49.1,-153.9,178.4
68659,36,32.1867029,-81.0589756,7343.7,23192,134.8,212.66,0.343,6.3,27.37,35.4,8.1,11.4,-0.98,-19.6,328,-13.6,406.6,407.2,30.6,245.4,52.2,49,-153.9,178
68660,36,32.1876926,-81.0580863,7365.5,23262,134.8,212.46,0.343,6.3,27.59,35.4,7.8,11.41,-0.99,-19.5,328.4,-13.6,405.4,405.2,30.4,244.7,52.2,49,-153.8,177.7
68661,36,32.1886838,-81.0571961,7387.1,23327,134.9,212.07,0.342,6.3,27.69,35.3,7.7,11.43,-0.86,-19.8,328.2,-13.9,404.3,403.3,30.4,243.7,52.2,49.1,-153.8,177.7
68662,36,32.1896762,-81.0563053,7408.6,23400,135,211.88,0.342,6.2,27.47,35.3,7.8,11.35,-0.82,-19.8,328.6,-13.9,403,402,30.8,244.1,52.2,49,-153.8,178
68663,36,32.1906702,-81.0554137,7430.2,23467,135.2,211.68,0.342,6.1,27.14,35.2,8.1,11.17,-1.03,-20.1,328.4,-14.2,401.8,400.2,31.3,244.4,52.2,48.8,-153.8,178.3
68664,36,32.1916563,-81.0548574,7451.5,23532,135.3,211.68,0.342,6,27,35.1,8.2,11.12,-0.79,-20.2,328.6,-14.3,400.7,398.9,31.5,244.3,52.2,48.8,-153.8,178.7
68665,36,32.1926543,-81.0539643,7472.5,23595,135.4,211.68,0.342,6,27.09,35,8,11.15,-0.29,-20.1,329,-14.1,399.6,398.8,31.4,243.6,52.2,48.8,-153.8,179
68666,36,32.1936538,-81.053071,7493.3,23660,135.6,211.68,0.342,6,27.36,35,7.7,11.22,-0.34,-20.3,329,-14.4,398.5,398.1,31.2,242.6,52.2,48.9,-153.8,178.7
68667,36,32.1946543,-81.0521778,7514,23722,135.6,211.88,0.342,6.1,27.69,35,7.4,11.28,-0.43,-20.2,329.3,-14.2,397.4,396.7,30.8,241.8,52.2,48.9,-153.8,178.2
68668,36,32.1956556,-81.0516277,7534.8,23792,135.7,212.27,0.343,6.1,27.91,34.9,7.1,11.29,-0.5,-20.3,329.5,-14.4,396.3,394.8,30.4,240.8,52.2,48.9,-153.8,177.9
68669,36,32.1966577,-81.0507342,7555.8,23855,135.7,212.46,0.343,6.1,27.87,34.9,7.1,11.19,-0.63,-20.5,329.5,-14.5,395.2,393.2,30.3,241.1,52.2,48.8,-153.8,177.8
68670,36,32.197661,-81.0498404,7576.9,23925,135.9,212.85,0.344,6,27.54,34.9,7.4,11.06,-0.91,-20.6,329.6,-14.6,394,393.5,30.7,242.1,52.3,48.7,-153.8,177.9
68671,36,32.198666,-81.0489461,7597.7,23987,135.9,213.04,0.344,6,27.14,34.8,7.7,11.01,-1.32,-20.8,329.6,-14.9,392.9,390.9,30.9,243,52.3,48.6,-153.8,178
68672,36,32.1996622,-81.0480422,7618.5,24055,136.1,213.43,0.345,6,26.77,34.7,8,10.89,-1.55,-20.6,330.2,-14.6,391.8,402.6,31.3,243.7,52.3,48.5,-153.8,178.3
68673,36,32.2006711,-81.047488,7639.2,24117,136.2,214.41,0.347,6,26.47,34.6,8.2,10.74,-1.44,-20.7,330.3,-14.7,390.7,419.7,31.2,244.6,52.3,48.4,-153.8,178.8
68674,36,32.2016822,-81.0465887,7659.9,24182,136.3,215.18,0.348,5.9,26.36,34.4,8.2,10.63,-1.29,-20.9,330.3,-14.8,389.6,435.4,30.9,244.5,52.3,48.3,-153.8,179
68675,36,32.2026956,-81.0456881,7680.3,24245,136.5,215.96,0.349,5.9,26.46,34.3,8,10.48,-1.04,-21.2,330.2,-15.1,388.6,450.3,30.5,244.1,52.3,48.1,-153.8,179.2
68676,36,32.2037114,-81.0447866,7700.7,24310,136.6,216.54,0.35,5.8,26.61,34.3,7.7,10.29,-0.79,-20.9,330.8,-14.7,387.5,464.9,30.1,243.9,52.3,47.9,-153.8,179.2
68677,36,32.2047293,-81.0442282,7720.9,24375,136.8,216.54,0.35,5.8,26.7,34.2,7.6,10.21,-0.74,-21.3,330.6,-15.1,386.4,477.8,30.1,243.1,52.3,47.8,-153.8,179.2
68678,36,32.2057495,-81.0433267,7740.9,24435,137,216.54,0.35,5.7,26.64,34.2,7.6,10.11,-0.79,-21.4,330.7,-15.2,385.4,491.6,30.3,243.1,52.3,47.7,-153.8,179.2
68679,36,32.2067722,-81.0424251,7760.6,24497,137.3,215.77,0.349,5.6,26.41,34.1,7.8,10,-0.89,-21.7,330.5,-15.6,384.3,504.3,31.1,242.7,52.3,47.6,-153.7,179.4
68680,36,32.20779,-81.0415165,7780.1,24562,137.5,215.57,0.349,5.5,26.04,34,8,9.84,-1.11,-21.4,331.2,-15.3,383.2,516.9,31.6,243,52.3,47.5,-153.7,179.6
68681,36,32.2088184,-81.040958,7799.4,24617,137.8,215.77,0.349,5.4,25.68,33.9,8.3,9.68,-1.3,-21.4,331.4,-15.3,382.3,529.2,32.1,243.5,52.3,47.3,-153.7,179.9
68682,36,32.2098502,-81.0400557,7818.3,24675,138.1,215.96,0.35,5.4,25.46,33.8,8.4,9.61,-0.77,-21.7,331.3,-15.5,381.4,541.2,32.5,243.6,52.3,47.2,-153.7,-179.4
68683,36,32.2108852,-81.0391531,7836.9,24732,138.4,215.96,0.35,5.3,25.47,33.7,8.3,9.55,0.17,-21.5,331.8,-15.3,380.4,554.3,32.6,242.9,52.3,47.1,-153.7,-178.5
68684,36,32.2119228,-81.0382519,7855.4,24787,138.7,215.77,0.35,5.3,25.64,33.8,8.2,9.45,1.12,-21.7,331.7,-15.6,379.5,568.9,32.8,242.5,52.3,47,-153.7,-177.9
68685,36,32.2129624,-81.0376967,7873.8,24845,139,215.96,0.35,5.3,25.91,33.8,8,9.36,1.41,-21.7,332,-15.6,378.5,586.5,32.7,241.6,52.3,46.9,-153.7,-177.9
68686,36,32.2140038,-81.0368019,7892,24905,139.4,216.35,0.351,5.2,26.2,33.9,7.8,9.27,1.55,-21.9,332,-15.7,377.6,602.7,32.7,241,52.3,46.8,-153.7,-178.1
68687,36,32.215047,-81.0359113,7910.1,24960,139.8,216.74,0.351,5.2,26.38,34,7.7,9.05,1.72,-21.8,332.3,-15.6,376.7,619.9,32.8,240.8,52.3,46.6,-153.7,-178.2
68688,36,32.2160865,-81.0350187,7928.1,25017,140.3,216.74,0.351,5,26.48,34.1,7.7,8.75,1.7,-22.2,332,-16,375.7,629,33.3,240.5,52.3,46.3,-153.7,-178.3
68689,36,32.2171344,-81.0341373,7945.7,25072,140.8,217.13,0.352,4.9,26.5,34.2,7.7,8.37,1.66,-22.2,332.3,-16,374.8,627.4,33.6,240.6,52.3,45.9,-153.7,-178.4
68690,36,32.2181855,-81.0336041,7962.7,25125,141.4,218.29,0.354,4.7,26.53,34.2,7.8,7.94,1.56,-22.7,331.8,-16.4,374,627,33.6,240.7,52.3,45.5,-153.7,-178.5
68691,36,32.2192403,-81.0327325,7979.2,25177,142.1,219.07,0.355,4.4,26.6,34.3,7.8,7.48,1.44,-22.6,332.2,-16.3,373.1,628.7,34,240.7,52.3,45,-153.7,-178.7
68692,36,32.2202997,-81.0318662,7994.9,25220,142.8,220.04,0.357,4.2,26.75,34.3,7.7,6.98,1.37,-22.7,332.2,-16.3,372.4,628.7,34,240.2,52.3,44.5,-153.7,-178.9
68693,36,32.2213641,-81.0310054,8009.9,25267,143.5,221.21,0.359,4,26.89,34.4,7.5,6.51,1.32,-22.9,332.1,-16.4,371.6,627.3,34.1,240.3,52.3,44.1,-153.7,-179.1
68694,36,32.222434,-81.0301505,8024.1,25310,144.4,222.57,0.361,3.7,27,34.4,7.5,6.12,1.26,-22.5,332.8,-16,371,626.5,34.2,239.9,52.3,43.7,-153.7,-179.3
68695,36,32.2235098,-81.0293014,8037.4,25350,145.3,224.12,0.364,3.6,27.04,34.4,7.5,5.76,1.18,-22.8,332.6,-16.2,370.3,625.2,34.3,239.9,52.3,43.3,-153.7,-179.4
68696,36,32.224592,-81.0284535,8050.1,25390,146.2,225.87,0.367,3.4,27.07,34.5,7.5,5.45,1.06,-23,332.5,-16.3,369.6,626,34.4,240.4,52.3,43,-153.7,-179.5
68697,36,32.2256806,-81.0272731,8062.2,25427,147.1,227.43,0.369,3.3,27.13,34.5,7.4,5.16,0.92,-23.3,332.3,-16.5,369,623,34.5,240.3,52.3,42.7,-153.7,-179.7
68698,36,32.2267761,-81.0264419,8073.9,25462,148.1,229.18,0.372,3.2,27.21,34.5,7.3,4.88,0.8,-23.7,331.9,-16.7,368.5,624.6,34.6,240.2,52.3,42.4,-153.6,-179.9
68699,36,32.2278787,-81.0256165,8085.1,25487,149,230.54,0.375,3.2,27.35,34.5,7.2,5.21,-0.12,-23.7,332,-16.7,368.1,623.9,34.6,239.7,52.3,42.8,-153.6,179.2
68700,36,32.2289881,-81.0247954,8096.1,25517,149.8,231.71,0.377,3.5,27.49,34.4,7,5.99,-0.86,-23.6,332.2,-16.5,367.6,622.6,34.6,238.9,52.3,43.5,-153.6,178.4
68701,36,32.2301032,-81.0239769,8107.6,25552,150.3,232.87,0.379,4,27.35,34.4,7.1,6.99,-0.5,-23.9,332,-16.8,367,622.7,34.7,239.5,52.3,44.5,-153.6,178.8
68702,36,32.2312219,-81.0228162,8120.6,25597,150.5,234.04,0.381,4.7,26.93,34.3,7.5,8.15,-0.32,-23.8,332.3,-16.5,366.3,620.7,34.7,240.7,52.3,45.7,-153.6,179.5
68703,36,32.2323422,-81.0219989,8135.8,25652,150.5,234.82,0.382,5.4,26.57,34.3,7.8,9.28,-0.43,-23.9,332.4,-16.6,365.4,620.7,34.8,242.1,52.3,46.8,-153.6,179.8
68704,36,32.2334602,-81.0211757,8153.2,25722,150.3,235.79,0.384,6.1,26.53,34.3,7.8,9.9,-0.53,-24,332.6,-16.6,364.3,621.2,34.3,242.9,52.3,47.4,-153.6,179.7
68705,36,32.2345793,-81.0203552,8173.1,25797,150.3,236.57,0.385,6.4,26.72,34.2,7.6,9.78,-0.47,-24.4,332.3,-17,363.1,619.8,33.6,242.3,52.4,47.3,-153.6,179.6
68706,36,32.235699,-81.0195343,8194.4,25880,150.5,237.34,0.387,6.2,26.88,34.2,7.4,8.87,-0.24,-24.3,332.8,-16.9,361.8,618.2,33.3,242.1,52.4,46.4,-153.6,179.6
68707,36,32.2368217,-81.0183715,8215.8,25950,151,238.12,0.388,5.7,26.8,34.2,7.4,7.74,-0.47,-24.6,332.7,-17.1,360.7,615.7,33.5,242.3,52.4,45.3,-153.6,179.5
68708,36,32.2379492,-81.017554,8235.8,25997,151.5,238.51,0.389,5.2,26.58,34.1,7.6,7.56,-1.13,-25,332.4,-17.5,359.9,615.7,33.9,242.4,52.4,45.1,-153.6,179.2
68709,36,32.2390812,-81.0167375,8254,26035,151.8,238.7,0.389,5.2,26.43,34,7.6,8.19,-0.62,-24.8,332.8,-17.3,359.3,614.6,34.1,242.3,52.4,45.7,-153.6,179.8
68710,36,32.2402155,-81.0159209,8271.7,26090,152,239.09,0.39,5.6,26.41,34,7.6,8.95,0.18,-24.9,332.9,-17.4,358.5,614.8,34.2,242.4,52.4,46.5,-153.6,-179.4
68711,36,32.2413499,-81.0147614,8290.2,26155,151.9,239.29,0.39,6.1,26.47,34,7.6,9.62,0.91,-25.3,332.6,-17.8,357.5,613.8,33.9,242.4,52.4,47.1,-153.6,-178.8
68712,36,32.2424767,-81.0139411,8310.1,26217,151.8,239.48,0.391,6.5,26.53,34.1,7.7,10.29,1.67,-25.4,332.8,-17.9,356.5,612.6,33.8,242.8,52.4,47.8,-153.6,-178.2
68713,36,32.2436059,-81.0131277,8331.6,26292,151.5,239.09,0.39,6.9,26.52,34.3,7.8,10.91,2.35,-25.4,333.1,-17.8,355.3,611.4,34,243.6,52.4,48.4,-153.6,-177.5
68714,36,32.2447305,-81.0123168,8354.4,26365,151.1,238.51,0.39,7.3,26.52,34.5,8,11.48,2.9,-26,332.6,-18.5,354.1,609.3,34.1,244.4,52.4,48.9,-153.6,-177
68715,36,32.2458493,-81.0111655,8378.5,26447,150.7,237.93,0.389,7.6,26.58,34.7,8.2,11.88,3.11,-26.2,332.6,-18.7,352.9,609,34.2,245,52.4,49.3,-153.6,-176.8
68716,36,32.2469621,-81.0103605,8403.7,26532,150.3,237.34,0.388,7.7,26.77,35,8.2,12.05,2.93,-26.3,332.9,-18.9,351.5,608.3,34.3,245.7,52.4,49.5,-153.6,-177.2
68717,36,32.2480689,-81.0095586,8429.6,26612,150,237.34,0.388,7.9,26.98,35.2,8.3,12.32,2.93,-26.3,333.2,-18.8,350.3,607.7,34,246.1,52.4,49.7,-153.5,-177.4
68718,36,32.2491694,-81.008416,8456.1,26705,149.5,237.54,0.388,8,27.06,35.4,8.4,12.41,3.04,-26.7,333.1,-19.3,348.9,605.3,33.6,247.2,52.4,49.8,-153.5,-177.4
68719,36,32.2502637,-81.0076195,8483.1,26785,149.1,236.76,0.388,8.1,27.08,35.7,8.6,12.35,3.11,-26.9,333.1,-19.5,347.6,604.5,34,248.2,52.4,49.8,-153.5,-177.4
68720,36,32.2513504,-81.0068224,8510.3,26880,148.9,236.95,0.388,8,27.17,35.9,8.7,11.91,2.73,-27.1,333.3,-19.7,346.2,601.6,33.9,249,52.4,49.4,-153.5,-177.9
68721,36,32.2524354,-81.0056881,8537.4,26972,148.8,237.54,0.389,7.7,27.42,36,8.7,11.22,2.41,-27.4,333.2,-19.9,344.8,600.9,33.4,249.1,52.4,48.7,-153.5,-178.5
68722,36,32.2535186,-81.0049001,8563.9,27052,148.9,237.93,0.39,7.2,27.73,36.1,8.5,10.61,2.24,-27.6,333.3,-20.1,343.5,600,33,248.8,52.4,48.1,-153.5,-179
68723,36,32.2546006,-81.0037722,8588.9,27122,148.9,237.15,0.389,6.9,27.99,36.3,8.3,10.23,2.03,-27.8,333.3,-20.4,342.5,598.5,33.2,248.3,52.4,47.7,-153.5,-179.5
68724,36,32.2556815,-81.002991,8612.7,27187,149,236.95,0.389,6.7,28.08,36.4,8.4,9.97,1.65,-28,333.4,-20.6,341.4,598,33.4,248.3,52.4,47.5,-153.5,-180
68725,36,32.2567616,-81.0018692,8635.7,27262,149.1,237.15,0.389,6.5,28.06,36.5,8.5,9.81,1.09,-28,333.7,-20.5,340.3,595.8,33.6,248.7,52.4,47.3,-153.5,179.5
68726,36,32.2578411,-81.0010927,8658,27322,149.1,236.76,0.389,6.4,28.02,36.5,8.6,9.77,0.63,-28.5,333.2,-21.1,339.4,594.7,33.8,248.6,52.4,47.3,-153.5,179.2
68727,36,32.25892,-80.9999741,8679.8,27390,149.1,236.95,0.389,6.3,27.95,36.6,8.7,9.69,0.62,-28.6,333.4,-21.2,338.4,593.9,34,249.3,52.4,47.2,-153.5,179.3
68728,36,32.2599954,-80.9991961,8701.4,27467,149.2,236.37,0.388,6.2,27.8,36.6,8.9,9.39,1.18,-29.1,333,-21.7,337.2,593.4,34.5,249.3,52.4,46.9,-153.5,179.9
68729,36,32.2610741,-80.9980807,8722.8,27537,149.4,237.54,0.391,6,27.66,36.7,9.1,8.76,1.55,-29.1,333.3,-21.7,336.2,593.1,34.5,250.5,52.4,46.2,-153.5,-179.6
68730,36,32.2621539,-80.9973118,8743.6,27600,149.8,238.12,0.391,5.6,27.59,36.7,9.2,7.93,1.96,-29.2,333.4,-21.7,335.3,592.4,34.8,250.6,52.4,45.4,-153.5,-179.1
68731,36,32.263236,-80.9962041,8763.2,27662,150.3,239.48,0.394,5.1,27.55,36.8,9.3,7.01,2.3,-29.4,333.5,-21.8,334.3,591.2,34.9,251.4,52.4,44.5,-153.5,-178.8
68732,36,32.2643214,-80.9954452,8781.2,27715,151,240.26,0.395,4.5,27.58,36.9,9.4,6.21,2.58,-29.6,333.4,-21.9,333.5,589.6,35.3,251.5,52.4,43.7,-153.5,-178.6
68733,36,32.2654101,-80.9943491,8797.5,27740,151.6,240.65,0.396,4.4,27.86,37,9.2,7,2.28,-29.7,333.4,-22,333.2,589.5,35.3,250.8,52.4,44.5,-153.5,-179.2
68734,36,32.2665,-80.9936018,8812.6,27777,151.8,240.65,0.396,4.8,28.39,37.1,8.8,7.93,1.19,-29.8,333.4,-22.1,332.6,589.6,34.9,249.6,52.4,45.4,-153.5,179.3
68735,36,32.2675893,-80.9925146,8828.4,27837,151.8,241.23,0.397,5.3,28.89,37.2,8.4,8.63,0.14,-29.8,333.7,-22.2,331.7,588.9,34.1,248.9,52.4,46.1,-153.4,177.8
68736,36,32.2686752,-80.9914235,8845.9,27900,151.8,241.42,0.398,5.7,29.09,37.2,8.2,9.09,-0.78,-30,333.6,-22.3,330.8,586.5,33.7,248.5,52.4,46.5,-153.4,176.8
68737,36,32.2697631,-80.9906793,8864.8,27965,151.6,241.42,0.398,6,28.9,37.2,8.4,9.46,-1.85,-30.2,333.6,-22.5,329.9,586.6,33.8,249.2,52.4,46.8,-153.4,176
68738,36,32.2708511,-80.9895885,8884.8,28027,151.4,241.81,0.399,6.2,28.46,37.1,8.7,9.74,-2.77,-30.7,333.2,-23,328.9,585.4,34,250.4,52.4,47,-153.4,175.7
68739,36,32.2719394,-80.9884928,8905.7,28100,151.1,242.01,0.399,6.4,27.89,36.9,9.1,9.93,-2.19,-30.5,333.8,-22.8,327.8,584.7,34.2,251.6,52.4,47.3,-153.4,176.8
