Time_Start,Day_Of_Year,Latitude,Longitude,GPS_Altitude,Pressure_Altitude,Ground_Speed,True_Air_Speed,Mach_Number,Vertical_Speed,True_Heading,Track_Angle,Drift_Angle,Pitch_Angle,Roll_Angle,Static_Air_Temp,Potential_Temp,Total_Air_Temp,Static_Pressure,Cabin_Pressure,Wind_Speed,Wind_Direction,Solar_Zenith_Angle,Aircraft_Sun_Elevation,Sun_Azimuth,Aircraft_Sun_Azimuth
43461,38,32.0094994,-81.1288465,8.1,230,0,20.6,0.031,0,270.91,270.9,0,4.97,0.01,10.3,283.1,10.4,1004.9,1005.9,10.6,270.9,93,2,106.3,-164.5
43462,38,32.0094995,-81.1288466,8.1,230,0,20.6,0.031,0,270.92,270.9,0,4.97,0,10.8,283.6,10.8,1004.9,997.9,10.6,270.9,93,2,106.3,-164.5
43463,38,32.0094985,-81.1288456,8,230,0.3,20.6,0.031,0,270.92,270.9,0,5.02,0.03,12,284.8,12.1,1004.9,996.7,10.3,270.9,93,2,106.3,-164.5
43464,38,32.0094987,-81.1288371,8,230,1.5,20.99,0.032,0,270.91,270.9,0,5.17,0.02,12.9,285.7,13,1004.9,998.2,9.3,270.9,93,2.2,106.3,-164.5
43465,38,32.0094989,-81.1288097,8,230,3.9,24.49,0.035,0,270.87,270.9,0,5.42,0.04,13,285.8,13,1004.8,1000.5,8.7,270.9,93,2.4,106.3,-164.5
43466,38,32.0094991,-81.1287488,8,232,7.8,33.63,0.051,0,270.79,270.8,0,5.28,0.05,14.2,287,14.3,1004.8,1005.8,9.5,270.8,93,2.3,106.3,-164.4
43467,38,32.0094994,-81.1289842,8.1,230,12.5,41.02,0.062,0,271.1,271.1,0,4.97,0.09,15.4,288.2,15.6,1004.8,1007,8.6,271.1,93,2,106.3,-164.7
43468,38,32.0095007,-81.1291695,8.2,230,17.3,51.12,0.077,0,271.26,271.3,0,5.03,-0.12,15.9,288.7,16.2,1004.8,1006.9,9,271.2,93,2.1,106.3,-164.8
43469,38,32.0095025,-81.1293037,8.3,227,22.2,54.82,0.083,0,271.57,271.6,0,4.94,-0.73,15.3,288,15.7,1004.9,1007.3,6,271.5,93,2.2,106.3,-165.1
43470,38,32.0095061,-81.1297297,8.4,227,27,66.09,0.1,0.1,271.97,271.2,-0.5,4.94,0.54,15,287.7,15.6,1005,1006.5,7,274.9,93,1.9,106.3,-165.6
43471,38,32.0095114,-81.1297606,8.5,222,31.9,77.56,0.117,0.1,271.66,271.1,-0.3,4.91,0.58,14.8,287.5,15.6,1005.1,1006.8,8,273.9,93,1.8,106.3,-165.3
43472,38,32.0095176,-81.1304265,8.7,220,36.8,87.08,0.132,0.1,271.77,271.2,-0.4,4.91,0.7,14.1,286.8,15.1,1005.2,1006.8,8,274.4,93,1.8,106.3,-165.4
43473,38,32.0095263,-81.1306986,8.9,215,41.5,95.05,0.144,0.3,272.53,271.7,-0.7,7.39,1.29,13.7,286.4,14.9,1005.4,1007.9,7.4,277.2,93,4.1,106.3,-166.1
43474,38,32.0095395,-81.1312661,9.1,225,45.8,99.52,0.151,0.9,272.44,272.2,-0.1,7.99,1.71,13.6,286.3,14.9,1005.1,1008.2,5.4,274.5,93,4.6,106.3,-166.1
43475,38,32.0095571,-81.1317897,9.9,237,49.8,111.38,0.169,1.5,272.3,272.5,0.3,8.45,0.42,13,285.8,14.7,1004.6,1006.1,7.5,271,93,5.3,106.3,-165.8
43476,38,32.0095772,-81.1322756,12.3,262,52.9,119.93,0.182,2.6,272.58,272.4,0,12.9,-1.83,12.7,285.5,14.6,1003.7,1005.8,8.8,273.7,93,10.2,106.3,-165.8
43477,38,32.0095949,-81.1327376,16.6,305,54.2,125.57,0.191,4.7,272.91,271.8,-1,18.58,-3.34,12.9,285.9,15,1002.2,1006,10.5,278.7,93,16.1,106.3,-165.8
43478,38,32.0096061,-81.1331949,23.4,365,53.6,132.96,0.202,7.1,272.6,270.9,-1.6,23.53,-3.58,12.8,285.9,15.2,1000,1002.6,14.9,278.7,93,20.9,106.3,-165
43479,38,32.0096099,-81.1340046,36.2,457,53.1,135.87,0.207,8.2,272.1,270.2,-1.7,24.43,-2.44,12.5,285.9,14.9,996.6,999.3,16.9,278.1,93,21.5,106.3,-164.4
43480,38,32.0096093,-81.1344745,56.2,550,52.5,139.96,0.213,9,270.96,269.6,-1.1,26,-2.72,12.5,286.2,15.1,993.3,995.7,19.6,274.6,93,23,106.3,-163
43481,38,32.009605,-81.1349506,82.3,655,52.2,143.26,0.218,9.4,270.67,269.4,-1.1,25.94,0.69,12.1,286.1,14.8,989.5,992.4,21.5,273.7,93,22,106.3,-163
43482,38,32.0096016,-81.1354277,110.8,755,52.2,148.12,0.225,9.6,270.21,269.8,-0.2,24.98,2.37,11.8,286.1,14.6,985.9,989,24,271.1,93,20.5,106.3,-162.8
43483,38,32.0096014,-81.1362495,141.4,857,51.7,143.84,0.219,10.2,268.84,270.1,1.4,26.74,0.76,11.7,286.3,14.4,982.3,986.3,22.3,265.9,93,22.4,106.3,-161
43484,38,32.0096024,-81.136738,172.7,977,50.7,143.26,0.218,10.9,266.87,270,3.3,29.27,-4.52,11.3,286.3,14,978,980.6,23.2,260,93,26.3,106.3,-157.9
43485,38,32.0095994,-81.1372393,205.2,1092,48.9,148.12,0.226,11.7,266.2,269.3,3.3,31.56,-0.86,10.9,286.2,13.8,973.9,977.4,27.5,260.7,93,27.1,106.3,-157.1
43486,38,32.0095944,-81.1377582,240.3,1227,48,149.29,0.228,11.7,266.49,269.4,3.1,32.71,0.09,10.6,286.3,13.6,969.1,972.8,29,261.7,93,27.8,106.3,-157.3
43487,38,32.0095898,-81.1382907,277.6,1350,45.7,150.45,0.229,12.4,266.89,269.4,2.7,34.93,-0.66,10.3,286.4,13.3,964.8,968.6,31.8,263.3,93,30.2,106.3,-157.2
43488,38,32.0095856,-81.1385022,316.5,1482,44.4,146.18,0.223,12.5,267.2,269.4,2.4,34.18,-0.29,10.5,287,13.4,960.1,964.1,30.9,264,93,29.5,106.3,-157.7
43489,38,32.0095813,-81.1390639,356.4,1632,44.2,142.68,0.218,12.1,267.04,269.3,2.4,33.57,0.65,10,286.9,12.7,954.8,958.3,29.3,263.6,93,28.5,106.3,-157.8
43490,38,32.0095762,-81.1396276,397.8,1760,43.9,141.9,0.217,11.8,267.34,269.2,2.1,33.83,-0.11,9.6,286.9,12.3,950.4,954.4,29.2,264.5,93,29.1,106.3,-158
43491,38,32.0095702,-81.1402,438.3,1890,42.5,139.18,0.213,12.1,268.03,269,1.2,34.25,-2.32,9,286.7,11.6,945.9,951.1,29.1,266.6,93,30.4,106.3,-158.4
43492,38,32.0095623,-81.1404392,477.6,2027,42.1,142.09,0.221,11.9,268.91,268.7,0,32.95,-1.47,8.4,286.5,11.2,941.1,944.1,31,269.2,92.9,29.1,106.3,-159.7
43493,38,32.0095528,-81.1410273,517.1,2157,41.4,140.54,0.215,11.8,268.75,268.3,-0.2,32.39,-1.68,8.3,286.8,10.9,936.7,940.9,30.9,269.4,92.9,28.6,106.3,-159.6
43494,38,32.0095405,-81.1412741,556.5,2292,42.1,134.9,0.206,11.1,268.06,267.9,0,30.94,-4.2,7.8,286.7,10.2,932.1,934.8,27.3,268.3,92.9,28,106.3,-158.9
43495,38,32.0095235,-81.1418516,595.4,2407,43.2,138.6,0.212,10.3,267.79,267.1,-0.5,30.35,-4.05,7.6,286.8,10.1,928.2,932,28.1,268.9,92.9,27.3,106.3,-158.7
43496,38,32.0095016,-81.1424228,633.3,2510,43.3,135.49,0.208,10.1,268.7,266.6,-1.9,30.92,-1.23,7.3,286.8,9.8,924.6,928.2,26.5,272.1,92.9,27.1,106.3,-159.9
43497,38,32.0094777,-81.1426569,668.1,2630,43,137.43,0.211,10.1,268.54,266.3,-2,31.07,-3.69,6.9,286.8,9.4,920.6,924.7,27.8,272,92.9,28,106.3,-159.4
43498,38,32.0094515,-81.1432325,701.2,2735,43,136.46,0.21,10,267.7,265.9,-1.6,31.35,-1.97,6.6,286.8,9.1,917.1,921,27.3,270.5,92.9,27.6,106.3,-158.6
43499,38,32.0094225,-81.1438148,735.1,2847,41.9,130.63,0.2,10.4,266.58,265.4,-0.9,31.88,-1.54,6.4,286.9,8.6,913.2,915.6,25.3,268.5,92.9,27.7,106.3,-157.3
43500,38,32.0093912,-81.144065,767.9,2965,41.3,130.24,0.199,10.5,265.58,264.9,-0.4,30.92,-1.22,6,286.8,8.2,909.3,912,25.7,266.7,92.9,26.5,106.3,-156.4
43501,38,32.0093568,-81.1446565,801.3,3072,41.7,129.85,0.2,10.2,265.55,264.6,-0.7,30.27,-1.02,5.7,286.9,7.9,905.7,908.9,25.1,267.1,92.9,25.9,106.3,-156.6
43502,38,32.0093209,-81.1449069,835.9,3180,41.2,134.71,0.205,10.4,265.66,264.4,-1.1,30.29,-1.8,5,286.5,7.4,902.1,905,28.1,267.5,92.9,26.2,106.3,-156.6
43503,38,32.0092815,-81.1455014,869.4,3295,41.3,138.98,0.214,10.1,265.11,264.2,-0.7,29.08,-2.65,4.6,286.4,7.1,898.3,899.3,30.2,266.4,92.9,25.3,106.3,-156.1
43504,38,32.0092422,-81.1457519,903,3407,41.5,142.87,0.22,10,263.05,263.6,0.7,28.52,-4.36,4.3,286.4,7,894.6,895.4,32,262.3,92.9,25.2,106.3,-153.8
43505,38,32.0091968,-81.1463443,936.6,3512,41.8,142.48,0.22,9.7,261.37,262.5,1.4,27.93,-5.38,4.1,286.5,6.8,891.1,892.8,31.5,259.9,92.9,24.9,106.3,-151.9
43506,38,32.0091436,-81.1465914,969.4,3615,42.1,141.71,0.219,9.6,260.46,261.4,1.1,27.45,-4.12,3.9,286.7,6.5,887.7,889.1,30.8,259.2,92.9,23.8,106.4,-151.2
43507,38,32.0090835,-81.1471802,1001.4,3720,42.3,141.12,0.217,9.5,260,260.5,0.8,27.44,-2.86,3.4,286.5,6,884.2,885.3,30.3,259.3,92.9,23.1,106.4,-150.9
43508,38,32.0090183,-81.1474258,1032.8,3822,42.2,141.71,0.219,9.6,259.58,259.8,0.5,28.41,-3.8,3.3,286.7,6,880.9,881.3,30.7,259.3,92.9,24.3,106.4,-150.1
43509,38,32.0089486,-81.1480222,1063.9,3930,41,141.9,0.222,10.4,258.83,258.7,0.2,30.6,-4.24,3,286.7,5.8,877.4,879.1,32,259,92.9,26.3,106.4,-148.7
43510,38,32.0088738,-81.1482914,1095,4050,39.8,139.57,0.214,10.8,258.87,257.6,-1,31.04,-2.75,2.6,286.6,5.1,873.5,872.8,32,260.4,92.9,26,106.4,-148.8
43511,38,32.0087946,-81.1489116,1127.6,4170,39.2,137.82,0.213,11,258.94,257,-1.7,31.48,-3.55,2.5,286.9,5,869.6,872.4,31.8,261.3,92.9,26.8,106.4,-148.6
43512,38,32.0087129,-81.149197,1162.5,4292,39,138.6,0.215,10.8,258.6,256.2,-2.1,30.55,-2.77,2.6,287.4,5.1,865.6,866.9,32.4,261.5,92.9,25.5,106.4,-148.6
43513,38,32.008627,-81.1498253,1197.9,4407,39.2,138.4,0.214,10.5,258.23,255.6,-2.4,30.54,-2.83,2.5,287.6,5,861.9,862.6,32.1,261.4,92.9,25.5,106.4,-148.2
43514,38,32.0085372,-81.1501119,1233.5,4520,38.9,138.4,0.214,10.5,258.06,254.9,-2.9,31.01,-2.81,2.2,287.6,4.7,858.3,858.3,32.4,261.9,92.9,25.8,106.4,-147.9
43515,38,32.0084443,-81.1504037,1267.9,4635,38.6,137.62,0.213,10.5,257.98,254.3,-3.4,30.92,-1.75,1.7,287.5,4.2,854.7,855.1,32.4,262.4,92.9,25.2,106.4,-148.1
43516,38,32.0083491,-81.1506984,1301.9,4750,38.6,135.87,0.21,10.2,257.83,253.9,-3.7,29.62,-1.6,1.5,287.6,4,851,850.1,31.5,262.6,92.9,24,106.4,-148.3
43517,38,32.0082503,-81.1513297,1335.8,4860,40,134.32,0.208,9.3,257.72,253.7,-3.8,26.24,-1.47,1.7,288.2,4.1,847.5,847.4,29.3,263.2,92.9,21,106.4,-148.9
43518,38,32.0081463,-81.1516002,1369.2,4952,42,134.12,0.208,8.2,257.66,253.6,-3.8,23.02,-1.2,1.6,288.3,4,844.6,842.9,27.3,263.9,92.9,18.1,106.4,-149.5
43519,38,32.0080358,-81.1521931,1400.6,5027,44,135.49,0.21,7.2,257.81,253.5,-4.1,20.24,-0.76,1.1,288.1,3.5,842.2,839.6,26,265.1,92.9,15.4,106.4,-150.1
43520,38,32.0079206,-81.1524238,1428.3,5097,45.8,138.21,0.214,6.6,258.17,253.5,-4.5,19.17,-0.79,1.6,288.8,4.1,840,838.9,25.7,266.5,92.9,14.6,106.4,-150.6
43521,38,32.0078009,-81.1529817,1452.6,5165,47.3,139.57,0.216,6.4,258.6,253.4,-5,18.69,-0.92,1.8,289.2,4.3,837.9,835.6,25.1,268.4,92.9,14.3,106.4,-151.1
43522,38,32.0076777,-81.1535261,1474.2,5230,48.5,142.29,0.22,6.4,258.49,253.4,-4.9,18.91,-0.92,1.8,289.4,4.5,835.8,833.3,25.3,268.3,92.9,14.5,106.4,-150.9
43523,38,32.0075508,-81.1540588,1494.8,5300,49.6,145.2,0.225,6.7,257.96,253.3,-4.5,19.67,-0.74,1.7,289.5,4.5,833.6,832,25.6,267,92.9,15,106.4,-150.3
43524,38,32.007421,-81.1545818,1515,5372,50.5,147.73,0.229,7.1,257.37,253.2,-4,19.65,-0.4,1.6,289.6,4.4,831.4,829,25.9,265.5,92.9,14.7,106.4,-149.8
43525,38,32.007288,-81.1550944,1536,5447,51.7,151.04,0.234,7.2,256.77,253.2,-3.4,18.95,-0.25,1.5,289.8,4.5,829,826.9,26.3,263.8,92.8,13.9,106.4,-149.3
43526,38,32.0071519,-81.1555937,1558.3,5527,53.1,153.76,0.238,7.1,256.26,253.3,-2.8,18.45,1.4,1.5,290,4.6,826.5,825.4,26.2,262.3,92.8,12.6,106.4,-149
43527,38,32.0070142,-81.1560794,1581.1,5600,54.1,156.48,0.242,7.4,256.04,253.7,-2.2,19.35,3.87,1,289.7,4.2,824.3,823.5,26.5,260.8,92.8,12,106.4,-149.1
43528,38,32.0068796,-81.1565557,1604,5680,54.7,158.42,0.245,8,256.6,254.6,-1.9,20.58,7.36,1.4,290.4,4.7,821.8,819.8,26.9,260.7,92.8,11.3,106.4,-150.2
43529,38,32.0067545,-81.1573677,1627.1,5765,55,160.17,0.248,8.5,257.92,256.2,-1.6,21.1,11.48,1.5,290.8,4.8,819.2,818.4,27.5,261.4,92.8,9.9,106.4,-152.3
43530,38,32.0066447,-81.157828,1651.9,5860,55.4,162.89,0.252,8.8,259.83,258.4,-1.3,21.19,14.39,1.4,291,4.9,816.3,814.9,28.5,262.6,92.8,9.2,106.4,-154.8
43531,38,32.006555,-81.158279,1678.4,5955,55.8,164.84,0.255,9,262.21,261,-1.1,21.45,15.4,1.4,291.3,5,813.4,813.1,29,264.5,92.8,9.8,106.4,-157.2
43532,38,32.0064884,-81.1590656,1706.2,6050,56,166.78,0.258,9.4,264.76,263.9,-0.8,22.27,15.39,1.6,291.8,5.3,810.5,809.6,29.8,266.4,92.8,11.5,106.4,-159.5
43533,38,32.0064475,-81.1595061,1734.9,6155,55.8,168.92,0.262,10,267.26,266.9,-0.3,23.43,15.8,1.8,292.3,5.5,807.2,806.8,31.1,267.9,92.8,13.4,106.4,-161.9
43534,38,32.0064346,-81.1602923,1764.6,6265,55.4,171.64,0.266,10.5,269.58,270.2,0.6,23.56,17.47,1.9,292.8,5.8,803.9,802.2,32.9,268.5,92.8,13.7,106.4,-164.4
43535,38,32.0064492,-81.1607362,1796.1,6380,55.5,172.81,0.268,10.6,271.56,273.2,1.7,23.47,18.41,1.7,292.9,5.7,800.4,800.2,33.5,268.8,92.8,14.1,106.4,-166.4
43536,38,32.0064911,-81.1611803,1829.4,6490,55.6,174.36,0.27,10.7,273.77,276.5,2.8,23.83,19.09,2,293.6,6,797.1,796.2,34.3,269.3,92.8,15.1,106.4,-168.6
43537,38,32.0065626,-81.1619714,1863.5,6605,55.6,176.31,0.273,11,276.04,280,4,23.99,19.31,1.9,293.8,6,793.7,792.4,35.4,269.8,92.8,16.1,106.4,-170.8
43538,38,32.0066641,-81.162425,1898,6727,55.7,177.47,0.275,11.1,278.3,283.4,5.1,23.99,19.68,1.8,294.1,6,790,790,36.2,270.4,92.8,17,106.4,-173
43539,38,32.0067952,-81.1628852,1933.2,6842,55.8,179.22,0.278,11.3,280.65,286.9,6.3,24.43,19.23,1.6,294.3,5.8,786.5,786,37.2,271.3,92.8,18.4,106.4,-175.2
43540,38,32.0069575,-81.1637013,1969.1,6962,55.5,180.19,0.279,11.8,283.05,290.9,7.9,25.45,19.7,1.9,295,6.2,782.9,782.3,38.5,271.7,92.8,20.2,106.4,-177.5
43541,38,32.0071515,-81.1641914,2005.5,7095,55.3,180.58,0.28,12.2,284.78,294.9,10.1,26.16,20.52,1.9,295.4,6.2,779,778.6,39.7,270.6,92.8,21.3,106.4,-179.3
43542,38,32.0073772,-81.1647014,2043.2,7225,55,180,0.279,12.6,286.33,299.2,12.8,27.31,21.34,1.9,295.8,6.2,775.2,775.4,40.9,268.9,92.8,22.8,106.4,179.1
43543,38,32.0076346,-81.1652349,2082.2,7365,54.9,180,0.279,12.9,287.8,303.5,15.7,28.23,21.92,1.9,296.3,6.2,771.1,770.8,42.4,267.3,92.8,24.2,106.4,177.6
43544,38,32.0079226,-81.1654497,2122.6,7505,54.9,180.39,0.279,13.1,289.82,307.7,17.9,28.5,22.7,1.5,296.3,5.8,767,767.4,43.9,267.2,92.8,25.1,106.4,175.6
43545,38,32.0082391,-81.1660298,2164.2,7650,55.5,179.03,0.277,12.9,292.34,311.3,19,27.64,23.57,1.8,297.1,6,762.7,762.7,43.5,267.9,92.8,25.2,106.4,173
43546,38,32.008581,-81.1666241,2206.6,7782,56.5,176.89,0.274,12.4,294.05,313.9,19.8,27.15,16.85,1.7,297.4,5.9,758.9,758.9,42.4,267.2,92.8,25.6,106.4,171.2
43547,38,32.0089414,-81.1668836,2249,7920,57.2,174.95,0.271,11.9,293.35,315.3,22.1,25.81,7.1,1.5,297.6,5.6,754.9,755.8,42.7,263.3,92.8,23.8,106.4,172.3
43548,38,32.0093119,-81.1674827,2290,8052,58.7,174.95,0.271,10.5,292.24,315,22.9,21.91,2.73,1.9,298.5,5.9,751.1,751.6,42.5,259.9,92.8,19.5,106.4,173.9
43549,38,32.0096894,-81.1677204,2329.4,8145,60.4,174.17,0.27,9.3,291.7,314.3,22.7,20.19,0.43,2.1,299,6.1,748.4,748.8,41,257.3,92.8,17.6,106.4,174.6
43550,38,32.0100712,-81.1682864,2365.8,8235,61.5,174.75,0.27,8.6,291.25,313.7,22.6,18.67,-1.27,2.3,299.5,6.3,745.9,745.8,40.6,255.9,92.8,16,106.4,175.2
43551,38,32.0104551,-81.168839,2397.4,8320,62.5,176.31,0.272,8.1,290.75,313,22.4,18.04,-2.62,2.1,299.6,6.2,743.5,745.9,40.5,255,92.8,15.2,106.4,175.8
43552,38,32.0108385,-81.1693802,2426.2,8400,63,178.44,0.276,8,290.19,312.3,22.2,17.51,-3.43,2.4,300.2,6.6,741.2,744.4,41,254.8,92.8,14.7,106.4,176.4
43553,38,32.0112194,-81.1695695,2453,8485,63.5,179.03,0.277,7.7,289.34,311.6,22.4,16.77,-4.05,2.4,300.5,6.6,738.8,743.2,41.1,253.5,92.8,14,106.4,177.4
43554,38,32.0115971,-81.1700932,2479.1,8560,63.7,179.81,0.278,7.6,288.1,310.8,22.8,16.92,-4.64,2.5,300.8,6.8,736.7,743.9,41.7,252,92.8,14.2,106.4,178.7
43555,38,32.0119692,-81.1706112,2504.4,8637,63.4,180,0.278,7.7,286.76,310.1,23.5,17.43,-4.84,2.7,301.3,7,734.5,743.9,42.6,250.6,92.8,14.8,106.4,-179.9
43556,38,32.0123334,-81.1711282,2529.1,8720,62.9,179.81,0.278,7.8,285.97,309.6,23.7,17.58,-2.13,2.8,301.7,7,732.1,743.8,43,250.1,92.8,15.1,106.4,-179.2
43557,38,32.0126943,-81.1716467,2553.9,8800,62.7,179.22,0.277,8,286.84,310,23.2,18.35,7.34,3,302.2,7.3,729.9,744,42.5,251.3,92.8,15.7,106.4,179.4
43558,38,32.0130645,-81.1721753,2579.4,8880,62.9,178.44,0.276,8.4,288.38,312.2,23.8,19.38,18.29,3,302.4,7.2,727.6,744.8,42.6,251.8,92.8,16.6,106.4,177.4
43559,38,32.0134585,-81.172723,2605,8980,63.9,177.28,0.274,8.8,289.67,315.9,26.2,19.84,25.41,3,302.8,7.2,724.8,744.9,44.1,249.9,92.8,16.9,106.5,176
43560,38,32.0138897,-81.1732936,2632,9072,65.5,177.47,0.274,8.8,291.65,319.7,28,20.17,29.88,2.8,302.9,6.9,722.3,744.4,45.5,249,92.7,17.8,106.5,174.1
43561,38,32.0143622,-81.1735473,2660.5,9160,67.7,177.86,0.275,8.9,295.63,324.5,28.8,20.36,34.52,3.1,303.5,7.3,719.8,743.8,45.9,250.2,92.7,19.7,106.5,170.7
43562,38,32.0148848,-81.1741813,2689.3,9260,70.6,177.47,0.274,9,301.05,329.9,28.8,20.32,37.84,3.4,304.2,7.5,717,744.2,45,251.9,92.7,22.7,106.5,166.2
43563,38,32.0154655,-81.1745205,2718.3,9355,74.4,177.67,0.275,9.5,307.67,336.1,28.3,20.88,41.08,3.2,304.3,7.4,714.4,745.4,43.9,253.9,92.7,27.1,106.5,160.8
43564,38,32.0161109,-81.1745796,2747.8,9460,78.8,177.86,0.275,9.9,313.87,342.5,28.5,21.24,42.86,3.2,304.6,7.4,711.6,746.4,43.9,254.5,92.7,31.2,106.5,155.5
43565,38,32.0168164,-81.1750487,2778.7,9567,83.1,177.28,0.274,9.8,318.27,347.6,29.3,20.7,42.9,3.1,304.9,7.3,708.6,747,44.8,253,92.7,33.2,106.5,151.2
43566,38,32.0175723,-81.1748887,2810.8,9670,87.4,176.31,0.272,9.5,322.47,351.8,29.2,20.65,42.54,2.8,304.9,6.9,705.8,745.8,45.2,251.2,92.7,35.2,106.5,146.7
43567,38,32.018374,-81.1751306,2843.4,9770,91.6,177.08,0.273,9.2,326.41,355.8,29.3,20.12,42.48,3.4,305.9,7.5,703,745.6,46.3,250.5,92.7,36.6,106.5,142.5
43568,38,32.0192175,-81.1750891,2875.2,9867,95.8,176.89,0.274,8.9,330.44,359.3,28.7,19.29,41.58,3.1,305.9,7.2,700.4,746.3,46.8,249.2,92.7,37.3,106.5,137.8
43569,38,32.020099,-81.1751066,2906.1,9957,99.9,177.86,0.274,8.5,334.85,2.6,27.7,18.48,41.43,3.5,306.6,7.6,697.9,746.2,46.6,248.7,92.7,38.4,106.5,132.8
43570,38,32.0210157,-81.1751895,2935.9,10050,104.1,178.44,0.276,8.3,339.79,6.1,26.3,18.37,40.81,3.6,307,7.8,695.5,745.7,46.2,247.9,92.7,39.4,106.5,126.6
43571,38,32.0219629,-81.1750032,2964.6,10135,108.2,178.06,0.275,8.4,344.98,9.9,24.8,18.53,40.85,3.7,307.4,7.9,693.2,746.1,46.1,246.8,92.7,40.6,106.5,119.9
43572,38,32.0229353,-81.174556,2992.5,10222,112.3,179.22,0.276,8.5,349.45,13.7,24.1,18.34,41.89,3.6,307.6,7.8,690.8,745.7,47.2,247,92.7,42.1,106.5,114.5
43573,38,32.0239276,-81.1745342,3020.2,10312,116.2,180,0.278,8.3,353.39,17.1,23.6,18.21,42.08,3.6,307.9,7.9,688.4,746.3,48.7,246.9,92.7,42.6,106.5,109.3
43574,38,32.0249356,-81.1739041,3048.4,10402,119.9,180.58,0.279,8.1,357.6,20.2,22.5,18.14,41.53,3.7,308.4,8,686,747.8,49.4,246.5,92.7,42.2,106.5,103.6
43575,38,32.0259535,-81.1733539,3076.3,10485,123.4,181.36,0.28,8.1,2.81,23.5,20.6,18.09,40.25,3.6,308.5,7.9,683.8,748,48.9,245.9,92.7,40.7,106.5,96.6
43576,38,32.0269735,-81.1728873,3103.7,10567,126.7,181.55,0.281,8.2,8.54,26.9,18.2,18.03,39.74,3.4,308.6,7.8,681.6,745.4,48.1,244.6,92.7,39.4,106.5,89.2
43577,38,32.027988,-81.1721629,3130.6,10660,129.6,182.53,0.282,8.4,13.89,30.2,16.2,17.9,38.69,3.1,308.6,7.5,679.1,745.8,47.5,243.9,92.7,37.1,106.5,82.8
43578,38,32.0289915,-81.1715187,3157.9,10752,132.1,182.72,0.282,8.4,18.41,33.2,14.7,17.8,36.22,2.7,308.4,7.1,676.7,746.3,47.7,243.4,92.7,33.3,106.5,78.1
43579,38,32.0299816,-81.1706022,3185.7,10837,134.4,183.3,0.283,8.3,22.01,35.7,13.6,17.45,32.44,2.9,309,7.3,674.5,746.4,48.3,243.3,92.7,28.4,106.5,75.5
43580,38,32.030959,-81.1697447,3213.8,10935,136.5,183.89,0.285,8.1,25.01,37.8,12.7,17.09,28.54,2.1,308.4,6.5,671.9,746.7,49,243.1,92.7,23.5,106.5,73.7
43581,38,32.0319251,-81.168937,3241.9,11017,138.2,184.28,0.285,8,27.69,39.6,11.8,17,24.87,1.8,308.4,6.3,669.7,746.4,49.5,242.9,92.7,19,106.5,72.3
43582,38,32.0328795,-81.1681728,3269.5,11105,139.7,185.25,0.287,8,30.18,41.2,10.9,17.27,22.4,1.9,308.8,6.4,667.4,746.3,49.6,242.7,92.7,15.6,106.5,70.6
43583,38,32.0338201,-81.1671044,3296.4,11187,140.8,185.44,0.288,8.1,31.5,42.6,11,18.37,15.96,1.5,308.6,6.1,665.3,746.4,50.6,243.9,92.7,8.6,106.5,71.4
43584,38,32.0347489,-81.166062,3323.1,11272,141,185.44,0.287,8.5,30,43.3,13.2,19.85,2.06,1.4,308.8,5.9,663.1,746.3,52.9,247.8,92.7,-4.8,106.5,77.5
43585,38,32.0356737,-81.1650225,3350.1,11367,140.6,185.25,0.287,8.8,28.84,43,14.2,19.4,-10.78,1.2,308.9,5.7,660.6,748,53.5,248.8,92.7,-16.9,106.5,82.6
43586,38,32.0366061,-81.1639697,3378,11472,140.6,186.41,0.289,8.5,29.55,42.2,12.6,18.58,-16.12,0.7,308.7,5.3,657.9,745.4,51.5,246.3,92.7,-22.2,106.5,83
43587,38,32.0375532,-81.1629005,3407.2,11560,140.8,186.61,0.29,8.1,29.46,41.2,11.7,18.27,-19.11,0.6,308.9,5.2,655.6,747.7,50.7,243.9,92.7,-25,106.5,83.6
43588,38,32.0385169,-81.1621549,3436.4,11645,141,187,0.29,7.7,27.58,40.1,12.5,17.49,-21.46,0.3,308.8,4.9,653.5,746.6,51.5,244,92.7,-26.7,106.5,85.8
43589,38,32.0394984,-81.16104,3464.3,11720,140.6,187,0.291,7.5,23.82,38.6,14.8,17.02,-23.84,0.1,308.9,4.7,651.5,746.3,53.5,245.9,92.6,-28.1,106.5,90.1
43590,38,32.0404977,-81.1602315,3490.9,11800,139.7,186.03,0.289,7.5,19.68,36.9,17.2,16.73,-25.95,-0.1,308.9,4.5,649.5,745.9,56,247.3,92.6,-29.1,106.5,95
43591,38,32.0415127,-81.1593788,3516.5,11885,138.6,185.05,0.288,7.3,16.84,35.1,18.2,15.87,-26.43,-0.1,309.2,4.4,647.4,745.6,56.7,246.9,92.6,-28.8,106.5,97.8
43592,38,32.0425419,-81.1584844,3542,11960,137.7,183.89,0.286,6.9,14.95,33.4,18.5,15.51,-26.56,-0.1,309.5,4.3,645.4,746.2,56.5,245.4,92.6,-28.4,106.5,99.7
43593,38,32.0435837,-81.1578915,3567.1,12035,136.6,182.33,0.284,6.6,13.22,31.7,18.5,15.81,-26.48,-0.2,309.6,4.2,643.5,747.7,56.2,243.7,92.6,-27.8,106.5,101.7
43594,38,32.044636,-81.1569109,3591,12102,135.2,181.36,0.282,6.5,11.09,29.9,18.8,16.47,-25.98,-0.2,309.9,4.1,641.8,745.9,55.7,242.6,92.6,-26.5,106.5,104.1
43595,38,32.0456954,-81.1562258,3613.7,12175,133.5,180.78,0.281,6.6,8.2,28,19.8,16.64,-26.52,-0.4,309.9,3.9,640,747.1,55.8,242.4,92.6,-26.1,106.5,107.4
43596,38,32.0467599,-81.1554919,3636,12247,131.9,180.19,0.28,6.5,4.92,26.2,21.3,16.05,-26.6,-0.4,310.1,3.9,638.1,747.7,56.6,242.7,92.6,-25,106.5,110.6
43597,38,32.0478287,-81.1550556,3658.4,12317,130.7,180,0.28,6.2,3.03,24.5,21.5,15.4,-22.31,-0.8,309.9,3.5,636.4,746.2,56,241.8,92.6,-20.3,106.5,110.7
43598,38,32.0489018,-81.1545848,3680.8,12377,130,179.81,0.28,5.9,3.23,23.4,20.2,15.27,-11.78,-0.7,310.3,3.5,634.9,746.2,53.7,239.9,92.6,-10.2,106.5,107
43599,38,32.0499772,-81.1540931,3702.4,12447,129.6,180,0.28,5.8,3.33,22.8,19.5,14.12,-5.05,-0.8,310.4,3.4,633.2,746.3,52.4,238.9,92.6,-4,106.5,104.8
43600,38,32.051056,-81.1535936,3722.9,12507,130,180.78,0.281,5.5,2.62,22.6,20,13.26,-0.19,-1.4,309.9,2.9,631.6,746.3,53.1,239.3,92.6,0.7,106.5,104.3
43601,38,32.0521391,-81.1527512,3743.1,12572,130.5,181.55,0.283,5.5,1.63,22.7,21,13.09,4.03,-1.3,310.3,3,630,746.1,54.8,240.5,92.6,5,106.6,104.3
43602,38,32.0532263,-81.1522583,3762.5,12627,131.2,181.94,0.284,5.5,1.16,23,21.8,13.33,6.97,-1.5,310.2,2.9,628.6,746.4,56.4,241.2,92.6,7.9,106.6,104.2
43603,38,32.0543174,-81.1517769,3781.3,12690,132.2,183.3,0.286,5.6,1.73,23.4,21.6,13.23,8.83,-1.9,310,2.5,627.1,746.8,56.6,241.4,92.6,9.6,106.6,103.3
43604,38,32.0554133,-81.1513105,3800.1,12752,133.3,184.86,0.288,5.7,3.28,23.9,20.6,13.32,10.21,-2,310.1,2.5,625.6,745.4,55.5,241,92.6,10.7,106.6,101.5
43605,38,32.056513,-81.1505195,3819.3,12815,134.4,185.44,0.289,6,5.33,24.6,19.3,13.9,10.65,-1.7,310.6,2.8,624,746.6,54.4,240,92.6,10.9,106.6,99.2
43606,38,32.0576146,-81.1500939,3838.6,12882,135.4,186.61,0.291,6.3,7.07,25.5,18.3,14.41,11.38,-2.2,310.3,2.4,622.3,745.9,53.7,239.9,92.6,11.3,106.6,97.2
43607,38,32.0587171,-81.1493484,3858.5,12952,136.5,187.58,0.293,6.6,8.09,26.3,18.1,14.64,12.04,-2.5,310.2,2.2,620.6,746.6,54,240.2,92.6,11.8,106.6,96
43608,38,32.0598201,-81.1486263,3879.6,13027,137.5,188.55,0.294,6.8,8.87,27.1,18.2,15.35,12.17,-2.6,310.4,2.1,618.8,747.3,54.6,240.9,92.6,11.9,106.6,95.1
43609,38,32.0609227,-81.1482713,3901.7,13102,138.4,189.72,0.296,7.2,9.89,28,18,16.14,12.27,-3.1,310.1,1.7,616.9,747.6,54.8,241.6,92.6,11.8,106.6,93.8
43610,38,32.0620239,-81.1472542,3924.5,13182,139.4,190.5,0.297,7.6,11.27,28.8,17.5,16.66,12.69,-3,310.5,1.7,614.9,747.3,54.6,241.5,92.6,11.9,106.6,92.3
43611,38,32.0631233,-81.1466049,3948.4,13265,140.3,191.47,0.299,7.8,12.78,29.7,16.9,16.67,12.95,-3,310.7,1.8,613,748.6,54.3,241.6,92.6,11.8,106.6,90.7
43612,38,32.0642216,-81.1459795,3973.6,13352,141.4,192.44,0.301,7.8,14.05,30.5,16.4,16.53,13.26,-3.6,310.4,1.3,610.8,748.2,54.3,241.6,92.6,11.8,106.6,89.4
43613,38,32.0653193,-81.1450346,3999.8,13435,142.4,193.02,0.302,8,14.99,31.3,16.3,17.03,13.1,-3.8,310.4,1.1,608.8,747.5,54.7,241.9,92.6,11.4,106.6,88.4
43614,38,32.0664139,-81.1444567,4026.3,13520,143.1,193.61,0.303,8.3,15.73,32.2,16.4,18.14,11.34,-4,310.5,0.9,606.7,747.6,55.3,242.9,92.6,9.4,106.6,88
43615,38,32.0675024,-81.1435567,4052.9,13615,143.5,193.8,0.303,8.8,16.98,33,15.9,19.02,10.34,-4,310.8,1,604.5,747,55,243,92.6,8.1,106.6,87
43616,38,32.0685835,-81.1426753,4080.4,13712,143.8,194,0.304,9,18.93,33.7,14.7,18.71,10.04,-4.6,310.5,0.4,602.1,748.6,53.7,242,92.5,7.1,106.6,85.3
43617,38,32.0696604,-81.1418108,4109.3,13812,144.4,194.19,0.304,8.9,20.65,34.3,13.6,18.39,8.82,-4.8,310.6,0.1,599.7,747,52.9,240.8,92.5,5.4,106.6,84.1
43618,38,32.0707342,-81.1409623,4139.5,13910,144.9,194.19,0.304,9,21.63,34.8,13.1,18.59,8.77,-5.1,310.6,-0.1,597.4,747.5,52.8,240.3,92.5,5,106.6,83.2
43619,38,32.0718038,-81.1401291,4169.7,14005,145.3,194.38,0.305,9,21.76,35.4,13.6,18.57,8.92,-5.4,310.6,-0.4,595.1,748.5,53.6,241.5,92.5,5.1,106.6,83
43620,38,32.0728698,-81.1393108,4199.8,14102,145.8,194.19,0.305,9,21.63,35.9,14.2,18.78,9.14,-5.8,310.5,-0.8,592.8,748.3,54.8,242.6,92.5,5.4,106.6,83
43621,38,32.0739312,-81.1381639,4230,14200,146.2,194,0.305,9,21.77,36.5,14.7,19.04,9.11,-5.7,310.9,-0.8,590.5,749,55.8,243.6,92.5,5.3,106.6,82.9
43622,38,32.0749876,-81.1373744,4260.1,14297,146.5,194.19,0.305,9.1,22.55,37,14.4,19.19,8.78,-5.9,311.1,-0.9,588.2,748.5,55.7,243.6,92.5,4.7,106.6,82.2
43623,38,32.0760387,-81.1365985,4290.4,14400,146.8,192.44,0.302,9.1,23.76,37.6,13.8,19.11,8.55,-5.6,311.8,-0.7,585.8,747.8,55.9,242.6,92.5,4.1,106.6,81.2
43624,38,32.0770857,-81.1354929,4320.8,14497,147.3,189.91,0.298,8.9,24.81,38.1,13.2,19.1,8.45,-5.7,312,-1,583.5,747.7,56.8,241.4,92.5,3.6,106.6,80.2
43625,38,32.0781288,-81.1344006,4351.5,14592,147.6,188.55,0.296,8.8,25.39,38.5,13.1,19.26,8.14,-6,312,-1.3,581.3,747.2,57.5,241,92.5,3.1,106.6,79.8
43626,38,32.0791675,-81.1336639,4381.7,14690,148,186.61,0.293,8.8,25.74,39,13.2,19.56,7.43,-5.4,313,-0.8,579,747.3,58.8,241,92.5,2.2,106.6,79.7
43627,38,32.0802021,-81.1325946,4411.6,14782,148.3,184.08,0.289,8.7,26.37,39.4,13,19.65,6.62,-5.4,313.4,-1,576.8,746.8,60,240.3,92.5,1.2,106.6,79.4
43628,38,32.0812345,-81.131535,4441.2,14877,148.9,182.72,0.287,8.2,27.44,39.6,12.2,17.84,6.02,-5.8,313.2,-1.4,574.7,747.1,60.3,238.8,92.5,0.5,106.6,78.6
43629,38,32.0822705,-81.1304857,4470.5,14967,150,182.33,0.286,7.4,28.58,39.8,11.2,16.03,4.36,-5.8,313.6,-1.4,572.6,747.2,60.8,237.3,92.5,-1.1,106.6,78
43630,38,32.0833134,-81.1294474,4499,15040,151.4,181.94,0.286,6.5,29.32,39.9,10.5,14.51,3.02,-5.3,314.4,-1,570.9,746.6,61.8,236,92.5,-2.4,106.6,77.7
43631,38,32.0843646,-81.1284193,4525,15102,152.7,182.14,0.286,5.9,29.55,39.9,10.3,13.67,1.56,-5.6,314.3,-1.3,569.5,747.6,62.8,235.4,92.5,-3.7,106.6,77.7
43632,38,32.0854239,-81.1274001,4548.1,15162,153.8,182.72,0.287,5.6,29.48,39.9,10.4,13.67,0.76,-5.7,314.4,-1.3,568.1,747.6,63.7,235.4,92.5,-4.4,106.6,78
43633,38,32.0864904,-81.1263873,4568.9,15220,154.7,182.33,0.287,5.6,29.27,39.9,10.6,13.77,0.11,-5.7,314.6,-1.4,566.8,747.8,64.9,235.4,92.5,-5,106.6,78.4
43634,38,32.0875641,-81.1253798,4588.2,15282,155.7,183.5,0.288,5.5,29.17,39.8,10.6,12.93,-0.14,-5.8,314.7,-1.4,565.3,748.2,65.3,235.3,92.5,-5.1,106.6,78.4
43635,38,32.0886469,-81.1243781,4607.2,15337,156.9,184.66,0.29,5.2,29.01,39.7,10.7,12.28,-0.14,-5.5,315.3,-1,564.1,748,65.9,235.2,92.5,-4.9,106.6,78.5
43636,38,32.0897388,-81.1233825,4626,15390,157.9,186.8,0.293,5.2,28.5,39.6,11.1,12.93,-0.51,-5.3,315.7,-0.7,562.9,747.7,66.2,235.8,92.5,-5.3,106.6,79.2
43637,38,32.0908375,-81.1220475,4643.9,15447,158.5,188.36,0.296,5.7,27.85,39.6,11.7,14.09,-0.69,-5.3,315.9,-0.6,561.6,747.3,66.6,236.8,92.5,-5.5,106.6,80
43638,38,32.0919411,-81.1210572,4661.4,15512,159,190.5,0.299,6,27.39,39.5,12.1,13.99,-0.64,-5.6,315.8,-0.8,560.1,748.5,66.4,237.5,92.5,-5.3,106.6,80.4
43639,38,32.0930475,-81.1200614,4680.1,15575,159.7,192.25,0.302,6.1,27.18,39.4,12.2,13.69,-0.59,-5.6,316,-0.7,558.7,747.8,66.4,237.8,92.5,-5.2,106.6,80.6
43640,38,32.0941635,-81.1190757,4700.2,15642,160.5,194,0.305,6.1,27.14,39.3,12.1,13.58,-0.76,-5.7,316.1,-0.8,557.2,747.1,66.4,237.8,92.5,-5.3,106.7,80.6
43641,38,32.0952861,-81.1177496,4720.8,15705,161.2,195.74,0.308,6.1,27.13,39.2,12,13.59,-0.87,-5.9,316.2,-0.9,555.7,748.1,66.2,237.8,92.5,-5.4,106.7,80.7
43642,38,32.0964149,-81.1167691,4741.4,15770,161.9,196.91,0.309,6.2,26.98,39.1,12.1,13.8,-1.08,-5.7,316.6,-0.6,554.3,747.8,66.4,237.8,92.4,-5.6,106.7,80.9
43643,38,32.0975493,-81.1157904,4762,15840,162.4,198.08,0.311,6.4,26.5,39,12.5,13.96,-1.55,-6.1,316.4,-0.9,552.7,748.1,66.7,238.3,92.4,-6,106.7,81.5
43644,38,32.0986898,-81.114469,4783,15910,163,199.44,0.313,6.4,25.89,38.8,12.9,13.65,-2.47,-6.3,316.4,-1,551.2,748.3,67,238.8,92.4,-6.7,106.7,82.3
43645,38,32.099838,-81.1134911,4804.3,15977,163.8,199.63,0.314,6.1,25.55,38.6,13.1,12.68,-2.75,-6.2,316.8,-1,549.6,747.2,67.8,238.6,92.4,-6.8,106.7,82.5
43646,38,32.1009961,-81.112514,4826.1,16042,164.8,198.85,0.312,5.8,25.43,38.4,12.9,12.57,-3.03,-6.1,317.1,-0.9,548.2,749.1,69,237.8,92.4,-7,106.7,82.7
43647,38,32.1021584,-81.1115267,4847.3,16100,165.3,200.02,0.314,5.9,25.66,38.2,12.5,13.28,-3.25,-5.8,317.7,-0.5,546.9,748.1,68.6,237.2,92.4,-7.4,106.7,82.6
43648,38,32.1033331,-81.110203,4867.4,16162,165.7,199.63,0.314,6.4,26.04,37.9,11.9,14.22,-3.36,-5.8,317.9,-0.6,545.5,748.5,68.5,235.8,92.4,-7.7,106.7,82.4
43649,38,32.1045129,-81.1092186,4887.2,16237,165.8,199.83,0.314,6.8,26.3,37.7,11.4,14.73,-3.58,-5.8,318.2,-0.5,543.9,748.8,68.1,235.1,92.4,-8.1,106.7,82.3
43650,38,32.1056977,-81.1082302,4908.2,16310,166,200.22,0.315,6.9,26.05,37.5,11.4,14.77,-4.04,-6.1,318.1,-0.8,542.3,748.5,68.2,234.9,92.4,-8.5,106.7,82.6
43651,38,32.1068883,-81.1072379,4930.7,16387,166.4,201.58,0.317,6.9,25.32,37.2,11.9,14.52,-4.31,-6.3,318.2,-0.9,540.6,749,68.3,235.4,92.4,-8.5,106.7,83.4
43652,38,32.1080861,-81.1058983,4953.9,16465,166.9,202.35,0.318,6.7,25.11,36.9,11.8,13.65,-3.42,-6.3,318.5,-0.9,538.9,748.3,68.4,235,92.4,-7.5,106.7,83.2
43653,38,32.109293,-81.1049007,4977.3,16532,167.8,203.91,0.321,6.2,26.19,36.8,10.6,12.56,-1.4,-6.2,318.8,-0.7,537.4,748.7,67.5,233.4,92.4,-5.5,106.7,81.6
43654,38,32.1105084,-81.1039061,5000.5,16587,168.7,205.66,0.324,6.1,27.39,36.7,9.3,12.79,-0.41,-6.7,318.4,-1.1,536.2,749.7,66.5,231.6,92.4,-4.8,106.7,80.3
43655,38,32.1117246,-81.1029071,5022.2,16652,169.4,206.24,0.325,6.2,27.48,36.7,9.2,12.92,-0.73,-6.8,318.6,-1.2,534.7,749.9,66.9,231.4,92.4,-5.2,106.7,80.3
43656,38,32.112951,-81.1019206,5042.9,16722,170,206.24,0.325,6.3,26.49,36.7,10.1,13.15,-1.18,-6.9,318.7,-1.3,533.2,750.9,68.2,232.7,92.4,-5.4,106.7,81.3
43657,38,32.1141831,-81.1005926,5063.8,16792,170.7,207.21,0.326,6.3,25.66,36.5,10.8,12.77,-1.05,-7.1,318.7,-1.5,531.7,749.6,69,233.4,92.4,-5.1,106.7,82.1
43658,38,32.1154222,-81.0996093,5085.1,16855,171.4,209.55,0.33,6.2,25.85,36.4,10.6,12.4,-1.12,-7.2,318.9,-1.5,530.3,751.1,68.3,233.2,92.4,-5.1,106.7,81.9
43659,38,32.1166686,-81.0986281,5106.5,16925,172.1,209.55,0.33,6.1,26.7,36.3,9.6,12.28,-0.82,-7.7,318.5,-1.9,528.8,752.9,68.2,231.6,92.4,-5,106.7,81
43660,38,32.1179217,-81.0973069,5127.7,16990,173,210.71,0.332,6.1,26.7,36.3,9.5,12.37,-1.24,-7.4,319.1,-1.5,527.4,751.4,68.5,231.6,92.4,-5.4,106.7,81.1
43661,38,32.1191813,-81.0963306,5148.7,17052,173.5,212.07,0.334,6.3,25.68,36.1,10.4,12.84,-2.77,-7.8,318.9,-1.8,526.1,752.9,69.1,232.7,92.4,-6.8,106.7,82.5
43662,38,32.1204475,-81.095352,5169.4,17127,174,213.04,0.336,6.4,25.48,35.9,10.4,12.57,-3.27,-7.8,319.1,-1.8,524.5,751.7,69.1,232.6,92.4,-7.2,106.7,82.7
43663,38,32.1217157,-81.0943622,5190.6,17192,174.7,214.41,0.338,6.2,26.46,35.7,9.2,12.13,-2.59,-7.9,319.3,-1.9,523.1,752,68.2,230.8,92.4,-6.7,106.7,81.6
43664,38,32.1229979,-81.0930391,5212.3,17257,175.5,215.18,0.339,6.1,27.38,35.6,8.2,11.94,-1.68,-8.1,319.3,-2,521.7,752.1,67.8,229.1,92.4,-5.9,106.7,80.5
43665,38,32.1242873,-81.0920619,5233.8,17317,176.3,216.54,0.341,6.1,27.31,35.5,8.2,12,-1.71,-8.3,319.2,-2.2,520.4,753.5,67.9,229,92.4,-5.9,106.7,80.6
43666,38,32.1255829,-81.0910867,5254.8,17392,176.8,218.1,0.344,6.2,26.44,35.4,8.9,12.13,-1.96,-8.6,319.2,-2.3,518.8,754.4,68.2,230.2,92.4,-6,106.7,81.5
43667,38,32.1268854,-81.0897686,5275.5,17460,177.5,219.27,0.346,6.2,25.61,35.3,9.6,11.88,-1.85,-9,318.9,-2.6,517.4,754.9,69,231.3,92.3,-5.7,106.7,82.2
43668,38,32.1281953,-81.0887939,5296.7,17530,178.2,221.21,0.349,6.2,25.59,35.1,9.5,11.73,-1.99,-8.7,319.6,-2.2,515.9,752.1,68.6,231,92.3,-5.8,106.7,82.3
43669,38,32.1295123,-81.0878196,5318,17585,178.8,222.57,0.352,6.3,25.99,35,9,12.08,-1.57,-9.2,319.2,-2.6,514.7,753.5,68.1,230.3,92.3,-5.5,106.7,81.8
43670,38,32.1308342,-81.0865021,5339.2,17660,179.1,221.99,0.351,6.8,26.18,34.9,8.7,13.24,-1.53,-9.5,319.1,-3,513.2,752.6,68.4,229.6,92.3,-5.7,106.7,81.8
43671,38,32.1321533,-81.0855176,5360.6,17737,179.2,223.74,0.354,7.3,26.33,34.8,8.5,13.5,-1.49,-9.5,319.4,-2.9,511.5,754.5,67.5,229.3,92.3,-5.7,106.7,81.6
43672,38,32.1334813,-81.0845416,5383.3,17817,179.7,224.51,0.355,7.3,26.2,34.7,8.5,13.61,-1.88,-9.7,319.4,-3,509.8,752.3,67.7,229.3,92.3,-6.1,106.7,81.9
43673,38,32.1348131,-81.0832217,5407.6,17900,179.9,225.68,0.357,7.4,25.97,34.6,8.7,13.24,-1.63,-10.2,319.1,-3.5,508.1,752.1,67.4,229.6,92.3,-5.7,106.7,82
43674,38,32.1361497,-81.082245,5432.4,17980,180.5,227.04,0.359,7.2,25.92,34.5,8.6,12.98,-1.19,-10.2,319.4,-3.4,506.4,753.6,67.3,229.5,92.3,-5.2,106.7,81.9
43675,38,32.1374912,-81.0812693,5457.5,18055,180.9,227.62,0.361,7.2,26.02,34.5,8.4,13.15,-0.84,-10.3,319.6,-3.5,504.8,752,67.3,229.4,92.3,-4.9,106.7,81.8
43676,38,32.1388364,-81.0802946,5482.3,18132,181.3,227.82,0.361,7.3,26.11,34.4,8.3,13.22,-0.52,-10.5,319.6,-3.7,503.3,753.3,67.5,228.9,92.3,-4.6,106.7,81.6
43677,38,32.1401847,-81.0789779,5506.9,18215,181.7,227.82,0.361,7.4,26.11,34.4,8.3,13.06,-0.82,-10.7,319.7,-3.9,501.5,752.1,67.9,228.8,92.3,-4.9,106.7,81.7
43678,38,32.1415373,-81.078006,5531.7,18295,182.2,229.18,0.363,7.2,25.99,34.4,8.3,12.69,-1.17,-11.3,319.3,-4.3,499.9,750.4,67.8,229.1,92.3,-5.2,106.8,81.8
43679,38,32.1428874,-81.0770241,5556.8,18367,182.6,229.37,0.364,7.2,25.96,34.3,8.3,12.85,-1.42,-11.2,319.7,-4.3,498.4,749.4,68,228.9,92.3,-5.4,106.8,81.9
43680,38,32.1442493,-81.0757101,5581.7,18442,182.9,229.96,0.365,7.3,26.03,34.2,8.1,13.22,-1.41,-11.5,319.6,-4.5,496.8,747.6,67.9,228.5,92.3,-5.5,106.8,81.9
43681,38,32.1456139,-81.0747385,5606.1,18522,183.1,230.54,0.366,7.6,26.11,34.1,8,13.66,-1.18,-11.7,319.7,-4.7,495.2,746.4,67.7,228.2,92.3,-5.3,106.8,81.8
43682,38,32.1469805,-81.0737661,5630.9,18610,183.3,231.51,0.368,7.8,26.05,34.1,8,13.78,-0.91,-11.9,319.7,-4.8,493.4,745.8,67.5,228.4,92.3,-5.1,106.8,81.8
43683,38,32.1483488,-81.0724501,5656.5,18695,183.4,232.09,0.369,8,25.83,34,8.2,14.1,-0.97,-12,319.9,-4.9,491.7,744.8,67.4,228.6,92.3,-5.1,106.8,82.1
43684,38,32.1497185,-81.0714764,5682.9,18785,183.4,232.48,0.37,8.2,25.65,34,8.3,14.49,-1.07,-12.4,319.8,-5.3,489.8,743.7,67.3,228.9,92.3,-5.2,106.8,82.3
43685,38,32.1510887,-81.0705011,5709.9,18875,183.3,232.87,0.37,8.4,25.58,33.9,8.3,14.77,-1.41,-12.7,319.8,-5.5,488,742.4,67,228.9,92.3,-5.6,106.8,82.5
43686,38,32.1524594,-81.0691804,5737.5,18967,183.2,233.07,0.371,8.6,25.61,33.9,8.2,15.01,-1.58,-12.9,319.9,-5.8,486.1,739.3,66.8,228.9,92.3,-5.8,106.8,82.5
43687,38,32.1538221,-81.0681892,5765.8,19057,183.1,233.07,0.371,8.7,25.52,33.8,8.3,15.3,-1.55,-13.2,319.9,-6,484.3,737.5,66.7,228.8,92.3,-5.8,106.8,82.6
43688,38,32.1551929,-81.0672068,5794.8,19155,183,232.87,0.371,8.8,25.25,33.7,8.5,15.17,-1.65,-13.4,320,-6.3,482.3,735.7,66.9,229,92.3,-5.8,106.8,82.9
43689,38,32.1565651,-81.0662223,5824.3,19252,183.1,232.87,0.371,8.6,24.92,33.6,8.7,14.7,-2.05,-13.9,319.7,-6.8,480.4,734.1,67.2,229.2,92.3,-6,106.8,83.3
43690,38,32.1579405,-81.0648924,5854.2,19345,183.3,231.9,0.37,8.4,25.03,33.5,8.5,14.46,-2.49,-13.5,320.6,-6.4,478.5,731.9,67.6,228.6,92.3,-6.4,106.8,83.3
43691,38,32.1593193,-81.0639031,5883.8,19432,183.5,231.32,0.369,8.3,25.67,33.4,7.7,14.54,-2.33,-13.8,320.5,-6.8,476.8,730.8,67.5,227.1,92.3,-6.4,106.8,82.6
43692,38,32.1607003,-81.0629112,5912.6,19517,183.5,231.9,0.37,8.4,26.23,33.3,7,14.69,-2.08,-13.9,320.7,-6.8,475.1,728.8,66.7,226,92.3,-6.4,106.8,82
43693,38,32.1620826,-81.061917,5940.9,19610,183.5,231.12,0.369,8.3,26.14,33.2,7.1,14.65,-1.93,-13.8,321.2,-6.8,473.3,726.5,67.1,225.8,92.2,-6.2,106.8,82.1
43694,38,32.1634669,-81.0605776,5969.2,19705,183.6,230.54,0.368,8.3,25.62,33.1,7.5,14.64,-2.17,-14.3,321,-7.3,471.4,725.2,67.8,226.3,92.2,-6.3,106.8,82.6
43695,38,32.1648401,-81.0595623,5997.7,19787,183.6,230.35,0.368,8.3,25.34,33,7.6,14.75,-2.6,-14.5,321,-7.5,469.8,724.1,68,226.4,92.2,-6.7,106.8,83
43696,38,32.1662284,-81.058559,6025.9,19885,183.6,230.35,0.368,8.3,25.54,32.9,7.3,14.66,-2.59,-14.7,321.2,-7.7,467.9,721.7,67.8,225.8,92.2,-6.7,106.8,82.8
43697,38,32.1676189,-81.0575527,6054.2,19970,183.7,230.15,0.368,8.2,25.81,32.8,6.9,14.46,-2.24,-14.9,321.2,-7.9,466.2,719.6,67.7,225.1,92.2,-6.4,106.8,82.5
43698,38,32.1690119,-81.0565444,6082.5,20057,183.8,230.54,0.369,8.1,25.54,32.7,7.1,14.39,-1.97,-15.1,321.3,-8.1,464.5,717.7,67.8,225.3,92.2,-6,106.8,82.7
43699,38,32.1704067,-81.055534,6110.5,20145,183.8,231.12,0.37,8.2,24.81,32.6,7.8,14.55,-2.16,-15.3,321.4,-8.3,462.8,717.2,67.9,226.3,92.2,-6,106.8,83.4
43700,38,32.171803,-81.0545202,6138.1,20235,183.8,231.51,0.37,8.2,24.3,32.4,8.1,14.29,-2.57,-15.2,321.9,-8.1,461.1,715.3,68,226.7,92.2,-6.3,106.8,84
43701,38,32.173202,-81.0535031,6165.8,20330,184,231.51,0.37,7.9,24.4,32.3,7.9,13.72,-2.09,-15.6,321.8,-8.5,459.2,714.8,68,226.2,92.2,-5.8,106.8,83.7
43702,38,32.1746052,-81.052485,6193.7,20412,184.4,231.71,0.371,7.6,24.48,32.2,7.7,13.13,-1.3,-15.4,322.3,-8.3,457.7,712,68.2,225.8,92.2,-4.9,106.8,83.4
43703,38,32.1760023,-81.0514561,6221.1,20492,184.9,232.48,0.372,7.3,24.15,32.2,8,12.58,-1.17,-15.8,322.1,-8.7,456.1,710.3,68.6,226.3,92.2,-4.6,106.8,83.7
43704,38,32.177415,-81.0500962,6247.5,20570,185.5,232.48,0.372,6.9,23.7,32.1,8.4,12.02,-1.4,-15.8,322.4,-8.7,454.6,708.7,69.4,226.7,92.2,-4.7,106.8,84.1
43705,38,32.1788336,-81.04908,6272.7,20645,186.1,233.07,0.373,6.6,23.7,32,8.3,11.4,-1.4,-15.9,322.6,-8.8,453.2,706.7,69.6,226.4,92.2,-4.6,106.8,84.1
43706,38,32.180259,-81.0480647,6296.9,20715,186.8,233.65,0.374,6.2,24.29,31.9,7.6,10.71,-1.14,-16,322.7,-8.8,451.9,707.1,69.5,225.1,92.2,-4.4,106.8,83.4
43707,38,32.1816918,-81.0470515,6319.9,20780,187.6,234.04,0.375,5.8,25.01,31.8,6.8,10.23,-1.08,-15.8,323.3,-8.6,450.6,705,69.5,223.6,92.2,-4.4,106.8,82.6
43708,38,32.1831318,-81.0460411,6341.7,20835,188.4,234.62,0.376,5.8,25.29,31.8,6.5,10.46,-1.31,-16,323.2,-8.7,449.6,702.3,69.8,223.1,92.2,-4.7,106.8,82.4
43709,38,32.1845775,-81.0450326,6362.1,20897,189,235.59,0.378,5.8,24.94,31.7,6.7,10.45,-1.49,-16.1,323.3,-8.8,448.4,701.9,70.1,223.4,92.2,-4.8,106.8,82.8
43710,38,32.1860295,-81.0440251,6381.9,20962,189.6,237.15,0.38,5.8,24.31,31.6,7.3,10.39,-1.93,-16.6,322.9,-9.1,447.2,700.2,70.3,224.3,92.2,-5.2,106.8,83.5
43711,38,32.1874835,-81.0430119,6401.8,21022,190.2,238.31,0.382,5.8,24.01,31.5,7.5,10.26,-2.42,-16.5,323.3,-9,446,700.4,70.5,224.6,92.2,-5.6,106.8,83.9
43712,38,32.1889489,-81.0420034,6421.8,21092,190.9,239.09,0.384,5.8,24.16,31.3,7.2,10.18,-2.43,-16.9,323.1,-9.3,444.7,698.3,70.5,223.8,92.2,-5.6,106.8,83.7
43713,38,32.1904213,-81.040651,6441.8,21152,191.5,239.87,0.385,5.8,24.44,31.2,6.7,10.16,-2.52,-16.8,323.4,-9.2,443.6,698.3,70.5,223.1,92.2,-5.7,106.8,83.4
43714,38,32.1919006,-81.0396413,6461.6,21212,192.1,240.65,0.386,5.8,24.52,31.1,6.5,10.28,-2.79,-16.9,323.6,-9.3,442.4,695.7,70.6,222.7,92.2,-6,106.8,83.4
43715,38,32.1933864,-81.0386305,6481.4,21277,192.7,240.06,0.385,5.9,24.27,30.9,6.6,10.48,-3.17,-17,323.7,-9.4,441.3,695.4,71.5,222.4,92.2,-6.4,106.9,83.8
43716,38,32.1948787,-81.0376172,6501.3,21340,193.1,240.45,0.385,6.1,23.89,30.7,6.8,10.66,-3.44,-16.8,324.2,-9.2,440.1,693.8,71.8,222.5,92.2,-6.6,106.9,84.2
43717,38,32.1963773,-81.036601,6521.5,21410,193.6,240.84,0.386,6.1,23.62,30.5,6.9,10.55,-3,-16.4,325,-8.8,438.8,692.9,72.1,222.4,92.2,-6.1,106.9,84.4
43718,38,32.1978825,-81.0355824,6542,21475,194.1,241.42,0.387,6.1,23.35,30.4,7,10.74,-2.64,-16.7,324.8,-9,437.6,692.2,72.5,222.5,92.2,-5.7,106.9,84.6
43719,38,32.1993868,-81.0345546,6562.8,21542,194.5,241.81,0.388,6.3,23.08,30.2,7.2,10.88,-2.58,-16.5,325.4,-8.8,436.3,690.3,72.7,222.4,92.2,-5.6,106.9,84.9
43720,38,32.2009031,-81.0335315,6583.7,21610,194.9,242.4,0.389,6.3,22.95,30.1,7.2,10.71,-2.55,-16.8,325.2,-9.1,435.1,689.9,72.8,222.4,92.1,-5.5,106.9,85
43721,38,32.202425,-81.0325066,6604.9,21675,195.4,243.37,0.39,6.3,22.93,30,7,10.71,-2.49,-16.8,325.5,-9,433.9,688.4,72.8,222.2,92.1,-5.5,106.9,85
43722,38,32.2039527,-81.03148,6626.5,21742,195.9,243.95,0.392,6.4,22.72,29.8,7.1,10.76,-2.19,-16.8,325.8,-9,432.6,687.7,73,222,92.1,-5.1,106.9,85.2
43723,38,32.2054855,-81.0304516,6648,21812,196.3,244.54,0.392,6.4,22.34,29.7,7.4,10.73,-1.71,-17.2,325.5,-9.3,431.3,685.3,73.3,222.4,92.1,-4.6,106.9,85.4
43724,38,32.2070238,-81.0294223,6669.6,21887,196.8,245.9,0.395,6.3,22.57,29.6,7.1,10.23,0.16,-17.1,326,-9.1,430,684.3,72.9,221.9,92.1,-2.7,106.9,84.9
43725,38,32.2085675,-81.0283957,6691.4,21955,197.5,247.26,0.397,6,23.09,29.7,6.6,9.71,2.22,-17,326.4,-8.9,428.7,683.6,72.6,221.3,92.1,-0.7,106.9,84
43726,38,32.2101163,-81.0273754,6713.1,22017,198.4,248.23,0.399,5.8,23.47,29.8,6.3,9.33,3.38,-17.1,326.5,-9,427.6,681.6,72.9,220.9,92.1,0.5,106.9,83.4
43727,38,32.2116609,-81.026355,6734.1,22075,199.2,249.2,0.4,5.7,23.57,29.9,6.3,9.41,3.79,-17.5,326.2,-9.3,426.6,681.2,73.2,221,92.1,0.8,106.9,83.2
43728,38,32.2132175,-81.0253522,6754.2,22137,199.9,250.37,0.402,5.8,23.67,30.1,6.4,9.4,4.19,-18,325.8,-9.7,425.4,678.9,73.3,221.4,92.1,1.2,106.9,83.1
43729,38,32.214777,-81.0240156,6773.7,22202,200.6,251.14,0.404,5.8,23.98,30.3,6.3,9.35,4.57,-17.7,326.4,-9.3,424.3,679.5,73.6,221.4,92.1,1.6,106.9,82.7
43730,38,32.2163393,-81.0230327,6793.4,22265,201.4,251.73,0.405,5.8,24.42,30.5,6,9.31,5.04,-17.9,326.4,-9.5,423.1,677.1,73.9,221.2,92.1,2,106.9,82.2
43731,38,32.2179038,-81.0220611,6813.1,22327,202.2,250.76,0.403,5.8,24.82,30.7,5.9,9.32,5.53,-17.5,327.2,-9.2,422,677.6,75.1,220.8,92.1,2.4,106.9,81.7
43732,38,32.2194705,-81.0207581,6832.9,22387,202.9,249.59,0.401,5.7,25.2,31,5.8,9.39,5.93,-17.5,327.4,-9.3,420.9,675.7,76.3,220.8,92.1,2.7,106.9,81.3
43733,38,32.2210388,-81.0198109,6852.5,22447,203.7,250.76,0.402,5.8,25.65,31.2,5.6,9.39,6.31,-17,328.3,-8.7,419.8,674.1,76.3,220.6,92.1,3,106.9,80.8
43734,38,32.2226081,-81.0185333,6872.1,22510,204.4,252.12,0.405,5.8,26.44,31.5,5.1,9.32,6.72,-16.9,328.7,-8.5,418.7,673.6,76.1,220.1,92.1,3.3,106.9,79.9
43735,38,32.2241784,-81.0176127,6891.7,22572,205.1,253.28,0.406,5.8,27.36,31.8,4.5,9.21,7.33,-16.9,328.9,-8.4,417.6,671.8,75.9,219.4,92.1,3.8,106.9,78.9
43736,38,32.2257484,-81.0163638,6911.5,22632,205.9,254.25,0.408,5.8,28.14,32.2,4,9.22,7.79,-16.8,329.3,-8.3,416.5,670.6,76,219.2,92.1,4.1,106.9,78.1
43737,38,32.2273174,-81.0151304,6931.2,22690,206.5,255.81,0.41,6,28.84,32.6,3.7,9.69,7.56,-16.9,329.4,-8.3,415.5,670.7,75.7,219.1,92.1,3.6,106.9,77.4
43738,38,32.2288835,-81.0139123,6950.8,22755,206.9,256.39,0.412,6.3,29.54,32.9,3.4,10.23,7.44,-17,329.5,-8.3,414.4,669.6,75.6,218.8,92.1,3.3,106.9,76.7
43739,38,32.2304456,-81.0127092,6970.9,22825,207.3,257.56,0.413,6.7,30.16,33.3,3.2,10.59,7.58,-17.2,329.6,-8.5,413.1,665.3,75.3,218.8,92.1,3.2,106.9,76.1
43740,38,32.2320029,-81.0115204,6991.9,22897,207.5,258.34,0.415,7,30.7,33.7,3,10.96,7.8,-17.2,329.9,-8.4,411.8,664.6,75.1,219,92.1,3.2,106.9,75.5
43741,38,32.2335548,-81.010346,7014.2,22972,207.8,258.53,0.415,7.2,31.08,34.1,3,11.2,7.98,-17.5,329.8,-8.6,410.5,664.1,75.3,219.4,92.1,3.3,106.9,75
43742,38,32.2351011,-81.0091857,7037.4,23052,208,258.53,0.415,7.4,31.32,34.5,3.2,11.38,8.1,-17.5,330.1,-8.6,409.1,663.8,75.6,220.1,92.1,3.3,106.9,74.8
43743,38,32.2366422,-81.0076962,7061.5,23132,208.3,257.75,0.414,7.4,31.48,34.9,3.4,11.51,8.09,-17.1,331,-8.4,407.7,663.4,76.3,220.8,92.1,3.2,106.9,74.6
43744,38,32.2381778,-81.006563,7086.3,23210,208.5,257.56,0.413,7.4,31.94,35.3,3.3,11.61,8,-16.8,331.7,-8.1,406.3,661.1,76.6,221.1,92.1,3,106.9,74.2
43745,38,32.2397086,-81.0054424,7111.4,23295,208.7,257.75,0.414,7.4,32.61,35.6,3,11.46,4.16,-17.1,331.6,-8.3,404.9,660.9,76.6,220.8,92.1,-0.8,106.9,74.3
43746,38,32.241237,-81.0039872,7136.6,23370,209.1,258.14,0.414,7.3,33.3,35.7,2.4,11.22,0.43,-17,332.1,-8.2,403.5,659.5,76.6,219.9,92,-4.5,106.9,74.3
43747,38,32.2427662,-81.0028801,7161.9,23445,209.4,259.11,0.416,7.1,33.32,35.8,2.4,11.02,-0.66,-17.1,332.2,-8.2,402.2,657.4,76.4,220.1,92,-5.5,106.9,74.5
43748,38,32.2442975,-81.0014321,7186.9,23520,209.7,259.7,0.417,6.9,32.71,35.8,3.1,10.87,-0.61,-17.1,332.5,-8.2,400.9,655.9,76.6,221.2,92,-5.3,106.9,75.1
43749,38,32.2458312,-80.9999856,7211.2,23592,210,259.89,0.417,6.9,31.9,35.8,3.8,10.84,-0.47,-17.1,332.8,-8.2,399.7,654.8,77.1,222.6,92,-5,106.9,75.9
43750,38,32.2473674,-80.9988831,7235,23665,210.2,259.7,0.417,6.9,31.66,35.7,4.1,10.78,-0.33,-17.1,333.1,-8.2,398.4,653.5,77.5,222.7,92,-4.8,106.9,76.1
43751,38,32.2488975,-80.9974292,7258.6,23742,210.5,260.09,0.417,6.8,32.07,35.7,3.6,10.66,-0.16,-17.2,333.3,-8.3,397.1,652.1,77.4,222,92,-4.7,106.9,75.6
43752,38,32.2504384,-80.9963297,7282.1,23817,210.9,260.28,0.418,6.7,32.42,35.7,3.3,10.51,-0.43,-17.3,333.5,-8.4,395.8,651.1,77.6,221.4,92,-4.9,107,75.3
43753,38,32.2519817,-80.9948893,7305.4,23882,211.2,260.28,0.418,6.6,32.17,35.7,3.5,10.58,-0.48,-17.4,333.6,-8.5,394.7,650.5,78,221.8,92,-5,107,75.6
43754,38,32.253527,-80.9934502,7328.4,23952,211.4,259.7,0.417,6.7,31.55,35.7,4.1,10.93,-0.57,-17.2,334.2,-8.3,393.5,649,78.7,222.8,92,-5,107,76.2
43755,38,32.2550741,-80.992354,7351,24027,211.5,259.89,0.417,6.8,31.4,35.7,4.3,10.9,-0.89,-17.2,334.5,-8.3,392.3,648.6,78.8,223,92,-5.3,107,76.4
43756,38,32.2566234,-80.9909139,7373.9,24102,211.8,260.47,0.418,6.8,32.21,35.6,3.4,10.75,-0.91,-17.2,334.8,-8.2,391,645.7,78.4,221.4,92,-5.4,107,75.6
43757,38,32.2581751,-80.9898179,7397.2,24170,212,261.06,0.419,6.7,32.94,35.6,2.7,10.61,-0.84,-17.1,335.2,-8.1,389.8,644.9,78.1,220.2,92,-5.4,107,74.9
43758,38,32.259729,-80.9883805,7420.7,24240,212.3,262.42,0.421,6.6,32.62,35.6,3,10.49,-0.77,-17.1,335.5,-8,388.6,643.3,77.8,220.8,92,-5.3,107,75.2
43759,38,32.2612659,-80.9869275,7443.7,24310,212.5,262.61,0.421,6.6,31.39,35.6,4.2,10.48,-0.65,-17.1,335.8,-8,387.5,641.5,78.4,222.9,92,-4.9,107,76.4
43760,38,32.2628241,-80.9858353,7466.5,24380,212.8,263.58,0.423,6.6,30.22,35.5,5.3,10.44,-0.42,-17.2,336,-8.1,386.3,641.2,78.8,224.6,92,-4.5,107,77.5
43761,38,32.2643851,-80.9843997,7489.2,24450,213,263.58,0.423,6.5,30.18,35.5,5.3,10.29,-0.2,-17.4,336,-8.3,385.1,640.9,79,224.7,92,-4.2,107,77.5
43762,38,32.2659486,-80.9833081,7511.8,24517,213.4,264.75,0.425,6.4,31.14,35.5,4.4,10,-0.15,-17.6,336,-8.4,384,639.1,78.3,223.1,92,-4.3,107,76.5
43763,38,32.2675144,-80.9818755,7534.4,24587,213.6,265.53,0.427,6.4,31.78,35.5,3.7,10.15,-0.11,-17.7,336.2,-8.4,382.8,637.9,77.8,222,92,-4.4,107,75.9
43764,38,32.2690817,-80.9804455,7556.8,24650,213.9,265.92,0.427,6.4,31.27,35.5,4.2,10.13,-0.4,-17.9,336.2,-8.5,381.8,637.2,78.1,222.9,92,-4.6,107,76.4
43765,38,32.2706511,-80.9793605,7579,24722,214.3,265.14,0.426,6.3,30.33,35.5,5.2,9.89,0.21,-18,336.3,-8.7,380.6,634.5,79.4,224.4,92,-3.7,107,77.3
43766,38,32.2722234,-80.977934,7601.3,24800,214.6,265.33,0.427,6.2,29.9,35.5,5.6,9.74,0.16,-18.3,336.3,-9,379.3,635.3,79.9,225.1,92,-3.7,107,77.7
43767,38,32.2737806,-80.9764958,7623.5,24860,214.9,266.89,0.43,6.2,29.93,35.5,5.6,9.72,-0.24,-18.3,336.5,-8.8,378.3,633.3,79.4,225.2,92,-4.1,107,77.7
43768,38,32.2753578,-80.9754165,7645.2,24920,215.2,267.67,0.431,6.2,30.08,35.5,5.4,9.92,-0.41,-18.6,336.4,-9.2,377.3,630.7,79.2,225,92,-4.3,107,77.6
43769,38,32.2769369,-80.9739951,7666.7,24990,215.4,268.64,0.432,6.4,30.14,35.5,5.3,10.06,-0.55,-18.5,336.8,-9,376.2,629.7,78.9,224.9,92,-4.5,107,77.6
43770,38,32.2785174,-80.9725743,7688.1,25057,215.6,269.42,0.434,6.5,29.93,35.5,5.5,10.25,-0.55,-18.8,336.7,-9.2,375.1,629.2,78.8,225.3,92,-4.5,107,77.8
43771,38,32.280099,-80.9711541,7710.1,25122,215.6,270,0.434,6.7,29.31,35.5,6.1,10.59,-0.76,-18.9,336.8,-9.3,374,628.4,78.9,226.4,91.9,-4.6,107,78.5
43772,38,32.2816813,-80.9700764,7732.5,25202,215.7,270.78,0.436,6.8,28.69,35.4,6.7,10.55,-1.06,-19.3,336.6,-9.6,372.7,628.2,79,227.3,91.9,-4.8,107,79.2
43773,38,32.2832652,-80.9686544,7755.4,25282,215.8,270.78,0.437,6.8,28.48,35.4,6.9,10.38,-0.74,-19.1,337.2,-9.4,371.4,625.9,79.3,227.6,91.9,-4.4,107,79.3
43774,38,32.2848511,-80.9672326,7779,25350,216,270.78,0.436,6.7,28.37,35.4,7,10.17,-0.24,-19.1,337.5,-9.4,370.3,624.7,79.6,227.8,91.9,-3.9,107,79.3
43775,38,32.2864216,-80.9661441,7802.7,25420,216.3,271.17,0.437,6.5,27.89,35.4,7.4,10.01,-0.26,-19.2,337.7,-9.5,369.2,623.5,80.1,228.6,91.9,-3.8,107,79.8
43776,38,32.2880113,-80.9647252,7826.1,25495,216.5,270.78,0.437,6.4,27.15,35.3,8.2,9.85,-0.37,-19.1,338.1,-9.4,368,623.7,81,229.4,91.9,-3.7,107,80.5
43777,38,32.2896036,-80.963307,7849.1,25565,216.8,270.58,0.436,6.3,26.81,35.3,8.5,9.6,-0.49,-19,338.6,-9.4,366.8,621.8,81.8,229.9,91.9,-3.7,107,80.9
43778,38,32.2911992,-80.9618894,7871.7,25632,217.2,271.36,0.437,6.1,27.26,35.3,8,9.29,-0.57,-19.4,338.3,-9.7,365.7,620.2,81.4,229.2,91.9,-3.8,107,80.4
43779,38,32.2927982,-80.9608164,7893.8,25687,217.5,271.36,0.437,6,27.97,35.2,7.3,9.59,-0.66,-19.5,338.4,-9.8,364.9,619.9,80.9,227.7,91.9,-4.1,107,79.7
43780,38,32.294399,-80.9594013,7915.4,25750,217.7,271.36,0.438,6.2,28.14,35.2,7.1,9.95,-0.78,-19.6,338.5,-9.9,363.9,618.4,81,227.4,91.9,-4.3,107,79.6
43781,38,32.2960009,-80.9579864,7936.3,25822,217.8,271.36,0.438,6.3,27.68,35.2,7.5,10.21,-0.68,-19.7,338.7,-10,362.7,618.9,81.5,228.2,91.9,-4.2,107,80.1
43782,38,32.2976042,-80.9565713,7957.6,25895,217.9,271.36,0.438,6.3,27.17,35.2,8,9.99,-0.63,-19.9,338.8,-10.2,361.6,618.2,82,229,91.9,-4,107,80.6
43783,38,32.2991939,-80.9554882,7979.5,25962,218.1,271.75,0.439,6.2,27.24,35.1,7.9,9.77,-0.71,-20,338.9,-10.3,360.5,615.4,81.9,228.6,91.9,-4,107,80.5
43784,38,32.3008019,-80.954073,8001.8,26025,218.4,272.53,0.44,6.1,27.78,35.1,7.3,9.64,-0.81,-20.3,338.8,-10.5,359.5,614.3,81.3,227.8,91.9,-4.2,107,80
43785,38,32.3024124,-80.9526585,8023.8,26087,218.6,272.72,0.441,6.1,28.15,35.1,6.9,9.76,-0.92,-20.5,338.8,-10.7,358.5,612.6,81.1,227.2,91.9,-4.4,107,79.6
43786,38,32.3040245,-80.9512442,8045.3,26155,218.7,273.11,0.441,6.2,27.91,35,7.1,10.11,-1.16,-20.4,339.2,-10.6,357.5,611.9,81.1,227.3,91.9,-4.6,107,79.9
43787,38,32.3056374,-80.9501718,8066.6,26217,218.6,273.5,0.442,6.5,27.54,35,7.5,10.57,-1.42,-20.9,338.8,-11,356.5,610.2,81.2,228,91.9,-4.9,107.1,80.4
43788,38,32.3072509,-80.9487536,8088.3,26292,218.5,273.69,0.443,6.8,27.54,34.9,7.4,10.81,-1.4,-21,339,-11.1,355.3,609.8,80.9,227.8,91.9,-4.9,107.1,80.4
43789,38,32.3088646,-80.9473327,8110.7,26372,218.4,273.89,0.443,6.9,27.83,34.9,7.1,10.74,-1.08,-21.2,339.1,-11.3,354,609.6,80.5,227.3,91.9,-4.6,107.1,80.1
43790,38,32.3104789,-80.9459109,8134.2,26447,218.5,272.92,0.442,6.9,27.95,34.9,6.9,10.83,-0.81,-21,339.6,-11.2,352.9,608.6,80.9,227,91.9,-4.4,107.1,79.9
43791,38,32.3120782,-80.9448208,8158.3,26520,218.4,272.92,0.442,7,27.84,34.8,7,10.99,-1.05,-21.1,339.8,-11.3,351.7,607.8,80.8,226.9,91.9,-4.7,107.1,80.1
43792,38,32.3136926,-80.9433963,8182.4,26595,218.3,273.11,0.442,7.1,27.81,34.8,7,11.08,-0.97,-21.6,339.5,-11.7,350.5,605.6,80.7,227,91.9,-4.6,107.1,80.1
43793,38,32.3153073,-80.9419704,8206.7,26675,218.3,273.11,0.442,7,27.89,34.8,6.9,10.77,-1.03,-21.5,340,-11.7,349.3,604.2,80.6,226.9,91.9,-4.6,107.1,80
43794,38,32.3169231,-80.940887,8231.3,26760,218.4,273.11,0.443,6.8,27.97,34.7,6.8,10.24,-1.46,-22,339.7,-12.1,348,603.7,80.6,226.5,91.9,-4.9,107.1,79.9
43795,38,32.3185415,-80.93946,8256,26822,218.7,272.53,0.442,6.4,27.92,34.7,6.7,9.76,-2,-21.9,340.1,-12.1,347,601.4,81.2,226.5,91.9,-5.4,107.1,80
43796,38,32.320163,-80.9380324,8280.1,26900,219,271.94,0.441,6.2,27.58,34.6,7,9.29,-2.47,-22,340.2,-12.2,345.9,600.4,82,226.6,91.8,-5.7,107.1,80.4
43797,38,32.3217894,-80.9369476,8303.2,26967,219.5,273.3,0.442,5.6,27.15,34.5,7.3,8.65,-2.88,-21.6,341.1,-11.8,344.8,599,82.1,227.2,91.8,-5.9,107.1,80.8
43798,38,32.3234218,-80.9355184,8325.3,27022,220,272.92,0.442,5.1,27.13,34.3,7.2,7.88,-3.3,-21.4,341.6,-11.5,344,599.6,82.6,226.6,91.8,-6.2,107.1,80.8
43799,38,32.3250527,-80.9340818,8345.9,27072,220.6,272.72,0.442,4.6,27.71,34.2,6.5,7.19,-3.64,-21.6,341.6,-11.7,343.2,597.2,82.7,225.3,91.8,-6.5,107.1,80.2
43800,38,32.3266998,-80.9329943,8364.7,27120,221.3,275.25,0.445,4.1,28.06,34.1,6,6.67,-3.88,-22,341.2,-12,342.5,598.1,81.9,224.6,91.8,-6.7,107.1,79.8
43801,38,32.3283545,-80.9315634,8381.8,27152,222,275.83,0.447,3.9,27.55,34,6.4,6.73,-2.6,-22.1,341.2,-12,342,597.2,82.6,225.1,91.8,-5.3,107.1,80.2
43802,38,32.330016,-80.9301318,8397.2,27192,222.5,276.22,0.448,4.1,26.63,33.8,7.2,7.33,-1.16,-21.6,342.1,-11.5,341.4,597.5,83.4,226.1,91.8,-3.9,107.1,81
43803,38,32.3316824,-80.9290426,8411.7,27240,222.8,276.03,0.447,4.7,26.55,33.8,7.2,8.17,-0.99,-21.9,341.9,-11.8,340.7,596.2,83.9,226.1,91.8,-3.9,107.1,81.2
43804,38,32.3333512,-80.927609,8426.5,27287,222.9,277.97,0.449,5.3,27.17,33.7,6.6,9.29,-0.82,-22.1,341.8,-12,340,594.1,82.4,225.1,91.8,-4,107.1,80.6
43805,38,32.3350199,-80.9261747,8442.4,27355,222.8,277.77,0.451,6,27.39,33.7,6.3,9.6,-0.46,-22.3,341.8,-12.1,338.9,592.9,82.3,224.7,91.8,-3.7,107.1,80.3
43806,38,32.3366883,-80.9250837,8460.4,27440,222.8,279.33,0.453,6.1,26.94,33.7,6.8,9.17,-0.55,-22.7,341.6,-12.4,337.7,592.6,81.9,225.6,91.8,-3.6,107.1,80.8
43807,38,32.33835,-80.9236427,8480.8,27492,223.1,277.97,0.451,6.1,26.75,33.7,6.9,9.29,-0.25,-22.9,341.6,-12.7,336.9,591.2,83,225.7,91.8,-3.3,107.1,80.9
43808,38,32.340022,-80.922209,8502.4,27560,223.2,277.39,0.448,6.2,26.94,33.7,6.8,9.57,0.24,-22.7,342.2,-12.6,335.9,589.9,83.2,225.3,91.8,-2.9,107.1,80.7
43809,38,32.3416948,-80.9211195,8523.7,27630,223.3,275.44,0.447,6.1,27.26,33.7,6.4,9.87,-0.23,-22.8,342.3,-12.8,334.8,590.7,84,224.6,91.8,-3.5,107.1,80.5
43810,38,32.3433681,-80.919687,8545.3,27692,223.3,275.25,0.447,6.4,27.58,33.7,6.1,10.26,-0.66,-23.2,342.1,-13.2,333.9,589.3,83.9,224.1,91.8,-4,107.1,80.2
43811,38,32.345041,-80.918597,8566.9,27770,223.2,275.44,0.447,6.6,27.56,33.7,6.1,10.16,-0.63,-23,342.7,-13,332.7,588,83.7,224.1,91.8,-4,107.1,80.2
43812,38,32.3467143,-80.9171633,8589,27840,223.3,276.61,0.449,6.5,27.21,33.6,6.4,9.96,-1,-23.2,342.7,-13.2,331.7,586.5,83.4,224.5,91.8,-4.2,107.1,80.6
43813,38,32.348389,-80.9157286,8612,27912,223.3,275.83,0.448,6.5,27.03,33.6,6.6,10.17,-0.89,-23.6,342.5,-13.6,330.6,585,83.9,224.8,91.8,-4.1,107.1,80.8
43814,38,32.3500639,-80.9146356,8634.9,27980,223.2,275.64,0.448,6.8,26.97,33.6,6.6,10.7,-1.41,-24.2,342,-14.2,329.6,584.5,84,224.8,91.8,-4.7,107.1,81
43815,38,32.3517193,-80.9131858,8657.8,28055,222.9,276.03,0.448,7.1,27.05,33.5,6.5,11.06,-2.19,-23.9,342.7,-13.9,328.5,583.6,83.3,224.5,91.8,-5.5,107.1,81.1
43816,38,32.3533939,-80.9117424,8681.2,28137,222.9,277.39,0.451,6.9,27.52,33.4,5.9,10.03,-1.74,-24.3,342.5,-14.1,327.3,580.9,82.3,223.6,91.8,-5,107.1,80.5
43817,38,32.3550705,-80.9106414,8705.5,28227,223.1,277.58,0.453,6.5,27.64,33.4,5.7,9.38,-1.12,-24.8,342.2,-14.6,326,580.1,82.3,223.4,91.8,-4.3,107.1,80.2
43818,38,32.3567503,-80.9091977,8730,28272,223.5,277.19,0.452,6.1,27.05,33.3,6.3,9.62,-1.32,-24.7,342.6,-14.6,325.3,580.9,83.2,224.1,91.8,-4.4,107.1,80.8
43819,38,32.3584316,-80.908096,8753.3,28330,223.3,277.19,0.452,6.5,26.45,33.3,6.8,10.33,-1.15,-24.9,342.5,-14.8,324.5,579.9,83.5,225.1,91.8,-4.3,107.1,81.5
43820,38,32.3601124,-80.9066477,8775,28417,223.1,278.36,0.454,6.7,26.93,33.2,6.3,10.06,-0.59,-25.1,342.6,-14.9,323.2,578.8,82.3,224.2,91.8,-3.8,107.1,80.9
43821,38,32.3617939,-80.9055422,8797.2,28495,223.3,278.55,0.455,6.5,28.01,33.2,5.2,9.83,-0.49,-25.7,342.1,-15.4,322.1,578.4,81.6,222.3,91.7,-3.8,107.1,79.8
43822,38,32.3634763,-80.9040944,8820.8,28552,223.4,278.16,0.455,6.4,28.64,33.3,4.6,10.06,-0.26,-25.8,342.2,-15.6,321.3,576.6,81.6,221.5,91.7,-3.7,107.2,79.1
43823,38,32.365139,-80.9026373,8843.8,28615,223.3,277,0.453,6.6,28.37,33.3,4.9,10.52,0.4,-26.2,342,-16,320.4,574.4,82.2,221.9,91.7,-3.1,107.2,79.3
43824,38,32.3668188,-80.9015344,8866.2,28692,223.1,277,0.453,6.9,27.59,33.3,5.7,10.84,0.07,-26.4,342,-16.3,319.3,574.1,82.5,223.2,91.7,-3.5,107.2,80.2
43825,38,32.3684965,-80.9000873,8889,28770,222.8,277.77,0.454,7.2,27.08,33.3,6.2,11.06,-0.92,-26.7,342,-16.5,318.1,571.5,82.2,224.2,91.7,-4.2,107.2,80.9
43826,38,32.3701725,-80.8989812,8912.7,28857,222.6,277.19,0.454,7.2,27.23,33.3,6.1,10.85,-0.68,-26.9,342.1,-16.7,316.9,571,82.2,223.9,91.7,-4,107.2,80.7
43827,38,32.3718484,-80.8975308,8937.2,28932,222.6,276.61,0.453,6.9,27.73,33.3,5.5,10.55,-0.35,-27.1,342.1,-17,315.8,570.5,82.1,223,91.7,-3.7,107.2,80.1
43828,38,32.3735246,-80.8964239,8962.3,29000,222.6,276.41,0.453,6.8,28.04,33.3,5.3,10.53,-0.88,-27.3,342.1,-17.3,314.9,568.4,82,222.4,91.7,-4.3,107.2,79.9
43829,38,32.3752002,-80.8949729,8986.8,29070,222.4,273.5,0.448,7,27.78,33.3,5.5,11.02,-1.56,-27.5,342.2,-17.6,313.9,569.1,83.5,222.6,91.7,-5,107.2,80.3
43830,38,32.3768741,-80.8938624,9010.5,29147,222,275.64,0.452,7.4,27.25,33.2,6,11.54,-1.55,-28.1,341.7,-18.1,312.8,567.6,82.3,223.5,91.7,-5,107.2,80.9
43831,38,32.3785303,-80.8923961,9034.5,29235,221.7,274.47,0.451,7.4,26.74,33.2,6.4,11.33,-1.52,-28.2,341.9,-18.3,311.5,566.4,82.9,224.2,91.7,-4.8,107.2,81.3
43832,38,32.3802015,-80.8912783,9059.6,29310,221.5,273.5,0.45,7.3,26.66,33.1,6.4,11.19,-1.83,-28.2,342.3,-18.3,310.5,565,83.2,224,91.7,-5.1,107.2,81.5
43833,38,32.3818725,-80.889814,9085.5,29392,221.4,274.28,0.451,7.2,27.08,33.1,6,10.89,-1.29,-28.5,342.2,-18.6,309.3,564.8,82.4,223.4,91.7,-4.5,107.2,80.9
43834,38,32.3835436,-80.8886917,9111.2,29465,221.4,272.72,0.448,7,27.28,33,5.8,10.6,-0.9,-28.7,342.3,-18.9,308.3,563.5,83,222.7,91.7,-4.1,107.2,80.7
43835,38,32.3852148,-80.8872255,9136.4,29545,221.3,273.11,0.449,6.8,26.91,33,6.1,10.51,-0.87,-29,342.2,-19.2,307.2,561,82.9,223.4,91.7,-4,107.2,81
43836,38,32.3868859,-80.8861014,9161,29615,221.2,273.11,0.45,6.9,26.32,33,6.7,10.46,-1.13,-29.2,342.2,-19.4,306.2,561.6,83.3,224.3,91.7,-4.2,107.2,81.6
43837,38,32.388557,-80.884632,9185,29697,221.1,274.28,0.451,6.8,26.09,32.9,6.9,10.33,-0.94,-29.5,342.1,-19.6,305.1,560.1,82.7,224.6,91.7,-3.9,107.2,81.8
43838,38,32.3902287,-80.8835043,9208.8,29770,221.2,274.08,0.451,6.5,26.59,32.9,6.3,10.1,-0.34,-29.7,342.2,-19.8,304,559.2,82.5,223.7,91.7,-3.4,107.2,81.2
43839,38,32.3918848,-80.8823679,9232.8,29822,221.1,273.3,0.451,6.6,27.44,32.9,5.5,10.86,-0.76,-30,342,-20.1,303.4,558,82.2,222.3,91.7,-4.1,107.2,80.5
43840,38,32.3935553,-80.8808953,9256,29902,220.9,272.53,0.449,6.7,27.79,32.9,5.1,10.65,-0.96,-30.4,341.8,-20.6,302.2,557.7,82.2,221.6,91.7,-4.3,107.2,80.2
43841,38,32.3952248,-80.879765,9278.6,29977,220.8,272.53,0.449,6.6,27.28,32.9,5.6,10.24,-0.92,-30.3,342.3,-20.5,301.2,554.7,82.4,222.5,91.7,-4.1,107.2,80.6
43842,38,32.3968949,-80.8782909,9302,30050,220.9,272.72,0.449,6.3,26.42,32.9,6.4,9.98,-1.36,-30.5,342.3,-20.7,300.2,555.7,83,223.9,91.7,-4.3,107.2,81.6
43843,38,32.398566,-80.8771581,9325.3,30105,220.7,272.72,0.45,6.4,26.02,32.8,6.8,10.69,-1.39,-30.5,342.6,-20.7,299.4,554.6,83,224.3,91.7,-4.4,107.2,82
43844,38,32.400236,-80.8760219,9347.8,30185,220.4,273.3,0.451,6.7,26.37,32.8,6.4,10.67,-0.7,-31.1,342.1,-21.2,298.4,553.3,82.2,223.8,91.7,-3.8,107.2,81.5
43845,38,32.4019048,-80.8745406,9369.9,30262,220.3,272.53,0.45,6.6,26.83,32.8,5.9,10.5,-0.37,-31.2,342.3,-21.4,297.3,552.8,82.2,223,91.7,-3.5,107.2,81
43846,38,32.4035727,-80.8734022,9392.9,30335,220.2,271.94,0.449,6.6,26.88,32.8,5.9,10.43,-0.56,-31.6,342.1,-21.9,296.3,550.9,82.3,222.9,91.7,-3.7,107.2,81
43847,38,32.4052211,-80.8719128,9416.1,30405,220.1,271.36,0.448,6.5,26.59,32.8,6.2,10.23,0.07,-31.4,342.6,-21.6,295.4,550.8,82.7,223.3,91.6,-3.1,107.2,81.2
43848,38,32.4068879,-80.8707741,9439.3,30480,220.1,271.17,0.448,6.3,26.24,32.8,6.5,10.06,0.11,-31.9,342.3,-22.2,294.4,550,83.1,223.9,91.6,-2.8,107.2,81.5
43849,38,32.4085549,-80.8696355,9462.1,30545,220.2,271.75,0.45,6.1,26.41,32.8,6.4,9.83,0.19,-32.1,342.3,-22.3,293.5,548,82.7,223.6,91.6,-2.7,107.2,81.3
43850,38,32.4102221,-80.8681542,9484.5,30612,220.2,270.97,0.448,6,26.94,32.8,5.8,9.68,-0.23,-32.1,342.6,-22.5,292.6,548.2,82.8,222.7,91.6,-3.2,107.2,80.8
43851,38,32.4118896,-80.8670169,9506.3,30675,220.3,270.58,0.448,5.9,27.41,32.8,5.4,9.81,-0.27,-32.2,342.7,-22.5,291.8,546.5,82.8,221.9,91.6,-3.3,107.2,80.4
