Time_Start,Day_Of_Year,Latitude,Longitude,GPS_Altitude,Pressure_Altitude,Ground_Speed,True_Air_Speed,Mach_Number,Vertical_Speed,True_Heading,Track_Angle,Drift_Angle,Pitch_Angle,Roll_Angle,Static_Air_Temp,Potential_Temp,Total_Air_Temp,Static_Pressure,Cabin_Pressure,Wind_Speed,Wind_Direction,Solar_Zenith_Angle,Aircraft_Sun_Elevation,Sun_Azimuth,Aircraft_Sun_Azimuth
59499,54,32.0104706,-81.1607749,7,-342,0.1,45.68,0.069,0,93.61,93.6,0,4.47,0.05,19.3,290.3,19.5,1025.9,1018.8,23.4,93.6,44.9,43.1,156.1,59
59500,54,32.0104729,-81.1607748,7,-342,0.1,45.68,0.069,0,93.61,93.6,0,4.46,0.05,19.8,290.8,20,1025.9,1018,23.4,93.6,44.9,43.1,156.1,59
59501,54,32.0104724,-81.1607754,7,-342,0.3,45.68,0.069,0,93.61,93.6,0,4.49,0.04,19.7,290.7,20,1025.9,1017.8,23.2,93.6,44.9,43.1,156.1,59
59502,54,32.0104718,-81.1607834,7,-342,1.4,45.68,0.069,0,93.58,93.6,0,4.5,0.01,19.6,290.6,19.9,1025.9,1023.2,22.1,93.6,44.9,43,156.1,59.1
59503,54,32.0104703,-81.1608093,7,-342,3.7,45.68,0.069,0,93.57,93.6,0,4.52,0,19.3,290.3,19.6,1025.9,1029.2,19.8,93.6,44.9,43,156.1,59.1
59504,54,32.0104675,-81.160523,7,-342,7.3,45.68,0.069,0,93.7,93.7,0,4.57,0.02,18.8,289.8,19.1,1025.8,1031,16.2,93.7,44.9,43,156.1,58.9
59505,54,32.0104624,-81.1606255,7,-340,12,22.35,0.031,0,93.61,93.6,0,4.53,0.01,18.3,289.3,18.4,1025.8,1029.4,0.5,273.4,44.9,43,156.1,59
59506,54,32.0104558,-81.160435,7,-340,16.8,31.3,0.047,0,92.99,93,0,4.62,0.12,17.2,288.2,17.4,1025.8,1027.1,0.7,273.2,44.9,43.1,156.1,59.5
59507,54,32.0104481,-81.160296,6.9,-342,21.7,38.68,0.058,0,92.92,92.9,0,4.64,0.29,16.6,287.6,16.8,1025.8,1026.1,1.8,272.7,44.9,43.3,156.1,59.5
59508,54,32.0104391,-81.159866,7,-342,26.7,48.79,0.072,0,93.07,92.4,-0.6,4.54,0.01,16.9,287.9,17.2,1025.9,1026.3,1.6,262,44.9,43.1,156.1,59.6
59509,54,32.0104283,-81.1594879,7,-345,31.6,59.48,0.089,0,92.97,92.3,-0.7,4.62,-1.17,16.4,287.4,16.9,1025.9,1026.2,1.1,252.6,44.9,42,156.1,60.2
59510,54,32.0104155,-81.1591619,7,-347,36.5,69.59,0.105,0,93.04,92.4,-0.7,4.44,0.38,16.2,287.2,16.9,1026.1,1026,0.8,242.7,44.9,43.5,156.1,59.5
59511,54,32.0104016,-81.1588875,7,-350,41.3,78.92,0.117,0,92.15,92.1,-0.1,4.38,-0.9,15.9,286.9,16.7,1026.2,1027.9,0.7,269.2,44.9,42.4,156.1,61.1
59512,54,32.0103884,-81.1583207,7,-355,46.1,88.44,0.133,0.1,92.51,91.9,-0.7,5.1,-0.26,15.8,286.8,16.8,1026.3,1028,0.8,233.1,44.9,42.6,156.1,59.8
59513,54,32.0103735,-81.1578032,7.1,-357,50.7,96.8,0.145,0.4,92.8,92,-0.9,7.06,0.08,15.6,286.6,16.8,1026.4,1028.6,1.1,234.5,44.8,41.7,156.1,57.9
59514,54,32.0103572,-81.157333,7.4,-355,55,106.13,0.16,0.7,92.59,92,-0.7,5.38,-0.59,15.4,286.4,16.9,1026.3,1026.3,0.7,217.6,44.8,42.2,156.2,59.7
59515,54,32.01034,-81.1565642,8.2,-347,59.1,119.93,0.181,1,92.41,91.9,-0.6,6.53,-0.96,15.1,286.1,17,1026.1,1025.3,2.7,103.8,44.8,41.3,156.2,59.2
59516,54,32.0103227,-81.1561768,10.2,-325,62.1,124.79,0.188,2.7,92.52,91.7,-0.8,13.66,-1.16,15.2,286.3,17.2,1025.2,1027.2,2.3,115.4,44.8,37.2,156.2,54.4
59517,54,32.0103068,-81.1554648,13,-275,62.6,130.04,0.196,5.3,92.66,91.5,-1.2,20.47,-1.2,14.9,286.2,17.1,1023.4,1026.1,4.5,109,44.8,32.9,156.2,50.5
59518,54,32.010293,-81.154748,19.4,-207,61.3,131.79,0.199,7.6,92.5,91.3,-1.2,26.15,-1.58,14.7,286.2,17,1020.9,1023.2,6.6,103.6,44.8,29,156.2,48.4
59519,54,32.010283,-81.1540125,33.5,-107,59.4,131.4,0.199,9.1,92.13,90.8,-1.4,28.13,-3.15,14.6,286.3,16.9,1017.2,1019.6,8.3,101.7,44.8,26.6,156.2,49.3
59520,54,32.0102784,-81.1532626,55.7,7,58.5,133.15,0.199,9.6,92.21,90.2,-2,27.57,-3.35,14.5,286.6,16.8,1013,1016,10.2,103.8,44.8,26.8,156.2,49.6
59521,54,32.0102771,-81.1528562,84,107,59.4,134.32,0.203,9.1,92.87,90.1,-2.8,26.15,-1.58,14.1,286.5,16.4,1009.4,1012.1,10.2,109.2,44.8,28.9,156.2,48.2
59522,54,32.0102763,-81.1521147,115.3,205,60,133.93,0.203,8.9,93.2,90.1,-3.2,25.69,-1.96,13.8,286.5,16.1,1005.8,1008.3,9.6,113.1,44.8,28.8,156.2,48.4
59523,54,32.0102761,-81.1513789,146.3,300,60.4,133.93,0.203,8.8,93.05,89.9,-3.2,25.73,-3.7,13.4,286.4,15.8,1002.3,1003.7,9.2,114.2,44.8,27.5,156.2,50
59524,54,32.0102795,-81.1509893,176.1,392,60.6,133.54,0.203,8.8,92.35,89.5,-2.9,26.05,-3.45,12.9,286.1,15.3,999,1000.7,8.7,112.6,44.8,27.7,156.2,50.2
59525,54,32.0102859,-81.1502586,205.2,492,60.8,132.76,0.201,8.8,91.78,89.2,-2.6,25.77,-2.28,13.3,286.8,15.6,995.4,997.3,8,111.7,44.8,28.9,156.2,49.7
59526,54,32.0102949,-81.1495312,234.2,595,61.5,134.71,0.205,8.5,91.48,88.9,-2.6,24.02,-3.09,12.6,286.4,15,991.7,993.6,8.3,110.9,44.8,29.6,156.2,51.3
59527,54,32.0103066,-81.1488162,263.4,677,62.8,135.1,0.205,8,91.71,88.7,-3.1,23.54,-2.65,12.3,286.4,14.7,988.7,989,7.5,117.6,44.8,30.1,156.2,51
59528,54,32.0103206,-81.1481113,292.3,760,63.3,134.12,0.204,8.1,92.44,88.5,-4,25.48,-1.09,11.8,286.1,14.2,985.7,986.7,7.3,129.1,44.8,29.8,156.2,48.4
59529,54,32.0103356,-81.1477491,319.5,847,62.8,134.12,0.204,8.8,93.31,88.5,-4.9,28.04,-0.3,12,286.6,14.3,982.6,982.3,8.3,132.7,44.8,28.4,156.2,46
59530,54,32.0103493,-81.1470374,346,947,62.4,134.12,0.204,9,93.72,88.7,-5,27.5,1.16,12.1,287,14.4,979,978.7,8.8,132.3,44.8,29.7,156.3,44.6
59531,54,32.0103602,-81.1463267,374,1047,62.9,136.07,0.207,8.9,92.91,89.1,-3.9,26.83,1.22,11.4,286.6,13.9,975.5,974.3,8.4,122.9,44.8,30.5,156.3,45.4
59532,54,32.010371,-81.1456222,403.6,1147,63.6,136.85,0.208,8.7,91.5,89.2,-2.3,26.09,0.04,11,286.5,13.4,971.9,971,7.3,111.9,44.8,30.5,156.3,47.9
59533,54,32.0103792,-81.1449271,433.3,1237,64.6,137.43,0.209,8.4,90.69,89.2,-1.6,25.02,-0.82,11,286.7,13.5,968.7,967.4,6.3,106,44.8,30.9,156.3,49.6
59534,54,32.0103883,-81.1442423,462.3,1330,65.6,138.21,0.211,8.1,90.9,89.1,-1.8,23.81,0.04,11.2,287.2,13.7,965.5,964.3,5.9,111.3,44.8,32.2,156.3,49.4
59535,54,32.0103972,-81.1435701,490.4,1412,66.9,139.18,0.212,7.7,91.51,89.2,-2.3,22.47,0.91,11.3,287.6,13.9,962.6,960.7,5.5,121.1,44.8,33.6,156.3,48.8
59536,54,32.0104046,-81.1429117,517.5,1495,68.2,139.37,0.212,7.5,92.04,89.4,-2.7,22.07,0.98,11.6,288.1,14.2,959.7,957.7,4.8,133.4,44.8,33.8,156.3,48.5
59537,54,32.0104095,-81.1422662,543.6,1575,69.3,139.18,0.212,7.4,91.97,89.6,-2.4,21.91,0.62,11.7,288.5,14.3,956.9,954.4,3.7,142.5,44.8,33.6,156.3,49
59538,54,32.0104127,-81.1412895,568.7,1655,70.5,139.96,0.213,7.4,91.21,89.8,-1.5,21.75,0.05,11.3,288.3,13.9,954.1,951.5,2.3,140,44.8,33.5,156.3,50.1
59539,54,32.0104152,-81.1406684,593.3,1735,71.7,139.96,0.212,7.3,90.44,89.8,-0.7,21.55,-0.33,11.3,288.5,13.9,951.3,948.9,0.9,159.6,44.8,33.6,156.3,51.1
59540,54,32.0104191,-81.1397165,617.6,1812,72.9,140.35,0.214,7.2,90.55,89.8,-0.8,21.18,0.7,11.4,288.9,14,948.6,946.7,1.2,216.6,44.8,34.6,156.3,50.4
59541,54,32.0104208,-81.1391212,641.8,1890,74.1,141.9,0.216,7.2,91.37,89.9,-1.5,20.97,0.62,11.4,289.1,14.1,945.9,944.9,2.2,210.9,44.8,34.4,156.3,49.9
59542,54,32.0104208,-81.1381947,665.5,1967,75.2,142.87,0.218,7.2,92.45,90.1,-2.4,21.03,0.02,11.6,289.5,14.3,943.3,941.5,3.5,210.4,44.8,33.6,156.3,49.5
59543,54,32.010419,-81.137623,689.1,2050,76.3,143.65,0.219,7.3,92.96,90.2,-2.8,21.1,0.16,10.8,289,13.5,940.4,937.1,4.3,215.1,44.8,33.6,156.3,49
59544,54,32.0104152,-81.1367189,712.8,2130,77.3,145.01,0.221,7.4,92.61,90.4,-2.3,21.06,0,11,289.4,13.8,937.7,934.9,4,224.2,44.8,33.6,156.3,49.4
59545,54,32.0104103,-81.1358259,736.8,2210,78.3,147.15,0.224,7.5,91.99,90.4,-1.6,20.81,-0.29,10.8,289.5,13.7,934.9,934,3.4,231.8,44.8,33.7,156.4,50.3
59546,54,32.0104056,-81.1349442,761.1,2292,79.5,148.7,0.227,7.5,91.87,90.4,-1.5,20.35,-0.18,10.7,289.6,13.7,932.1,929.6,3.6,237.4,44.8,34.1,156.4,50.5
59547,54,32.010401,-81.1340755,785.6,2372,80.8,149.68,0.228,7.4,92.66,90.4,-2.3,19.58,0.2,10.7,289.9,13.7,929.3,927.4,4.9,232.2,44.8,34.7,156.4,50
59548,54,32.0103957,-81.1332222,810.3,2447,82.4,151.23,0.23,7.1,93.87,90.5,-3.5,18.64,0.13,10.7,290.1,13.7,926.8,924.3,6.6,226.5,44.8,34.9,156.4,49.6
59549,54,32.0103884,-81.132386,834.7,2525,84,153.17,0.233,6.8,94.32,90.6,-3.7,17.71,0.44,10.8,290.4,13.9,924.2,921.3,7.4,227,44.8,35.7,156.4,49.5
59550,54,32.010379,-81.1315677,858.4,2597,85.7,156.09,0.238,6.6,93.86,90.7,-3.1,17.07,-0.1,10.9,290.8,14.1,921.7,920.4,7.1,232,44.8,35.8,156.4,50.6
59551,54,32.0103687,-81.1307674,881.1,2665,87.4,159.01,0.242,6.6,93.55,90.8,-2.8,16.55,-0.45,10.2,290.2,13.5,919.4,917.4,6.9,236.2,44.8,35.9,156.4,51.5
59552,54,32.0103582,-81.1296414,903.2,2732,89.1,162.31,0.247,6.5,93.74,90.8,-3,16.09,0.02,10.2,290.5,13.6,917.1,915,7.1,233.9,44.8,36.5,156.4,51.2
59553,54,32.0103469,-81.1288766,924.8,2802,90.8,165.42,0.252,6.5,94.32,90.8,-3.5,15.61,0.59,10.2,290.7,13.8,914.7,911.7,7.9,229.1,44.8,37.1,156.4,50.6
59554,54,32.0103339,-81.1277867,946.3,2875,92.5,169.11,0.258,6.5,95.05,91,-4.1,15.18,1.15,9.8,290.5,13.6,912.3,908.8,8.4,223.9,44.8,37.7,156.4,49.8
59555,54,32.0103179,-81.1267148,967.7,2947,94.3,171.84,0.262,6.5,95.88,91.2,-4.7,14.74,1.74,9.8,290.7,13.7,909.9,906.4,9.5,221.9,44.8,38.2,156.4,48.9
59556,54,32.0102977,-81.1256614,989,3015,96,175.53,0.268,6.5,96.55,91.5,-5.1,14.33,1.6,9.6,290.7,13.7,907.6,905.5,10,218.8,44.8,38.3,156.4,48.7
59557,54,32.010273,-81.1246268,1010.4,3085,97.8,178.83,0.273,6.5,96.89,91.7,-5.2,14.01,0.75,9.3,290.6,13.5,905.3,902.5,10.4,218.3,44.8,37.8,156.4,49.3
59558,54,32.0102445,-81.1236108,1031.7,3155,99.6,182.53,0.278,6.5,96.84,91.9,-5,13.8,0.44,9.4,290.9,13.7,902.9,900.8,10.1,218.7,44.8,37.7,156.4,49.7
59559,54,32.0102133,-81.1226134,1052.9,3222,101.3,185.83,0.284,6.6,96.71,92,-4.7,13.65,0.04,9.5,291.2,14,900.7,898.7,9.9,219.5,44.8,37.5,156.4,50.2
59560,54,32.0101801,-81.1216347,1074.2,3297,103.1,189.91,0.289,6.6,96.89,92.1,-4.8,13.4,0.12,8.9,290.8,13.6,898.2,896.3,10,217.2,44.8,37.7,156.5,50.1
59561,54,32.0101451,-81.120331,1095.7,3365,104.9,194,0.296,6.7,97.51,92.2,-5.3,13.1,0.7,8.7,290.8,13.7,896,894.3,10.8,213.1,44.8,38.2,156.5,49.3
59562,54,32.0101068,-81.1193892,1117.4,3440,106.6,198.08,0.303,6.8,98.12,92.4,-5.8,12.89,1.26,8.8,291.2,14,893.5,891.4,11.4,209.5,44.8,38.7,156.5,48.5
59563,54,32.0100642,-81.1181217,1139.3,3510,108.2,202.16,0.309,6.9,98.45,92.6,-5.8,12.87,1.61,8.7,291.3,14.1,891.1,889.2,11.6,206.7,44.8,38.9,156.5,48
59564,54,32.0100166,-81.1168713,1161.4,3585,109.8,205.27,0.314,7.1,98.61,92.9,-5.8,12.99,1.79,8.7,291.5,14.2,888.7,887.8,11.5,207.1,44.8,38.9,156.5,47.6
59565,54,32.0099643,-81.1159801,1183.9,3665,111.3,208.57,0.319,7.3,98.96,93.1,-5.9,13.16,1.86,8.2,291.3,14,886.1,884.1,11.9,205.7,44.8,38.8,156.5,47.2
59566,54,32.0099072,-81.1147606,1206.9,3740,112.7,211.49,0.324,7.7,99.68,93.4,-6.4,13.86,1.99,8.5,291.8,14.4,883.6,882.2,12.7,204.3,44.8,38.3,156.5,46
59567,54,32.0098448,-81.1135493,1230.6,3817,112.7,213.24,0.326,9.1,100.57,93.7,-6.9,17,1.9,8.4,291.9,14.4,881,880.4,13.7,199.8,44.8,35.8,156.5,43.7
59568,54,32.0097777,-81.1123337,1255.2,3940,112.4,215.18,0.329,10.3,101,93.9,-7.1,17.65,2.09,8,291.9,14.1,877,875.3,13.9,194.5,44.8,35.4,156.5,42.8
59569,54,32.0097059,-81.1111234,1282.9,4065,113.8,217.9,0.334,9.8,100.83,94.1,-6.7,16.13,1.56,7.9,292.2,14.2,873,873.1,13.4,194.8,44.8,36.2,156.5,44.2
59570,54,32.0096298,-81.1099269,1315.6,4152,114.7,218.49,0.335,9.9,100.8,94.3,-6.5,17.06,1.16,7.8,292.3,14.1,870.2,870.5,13.1,197.7,44.8,35.2,156.5,44.1
59571,54,32.009551,-81.1087337,1348.6,4260,114.7,219.27,0.336,10.4,101.13,94.4,-6.7,17.83,1.16,7.6,292.5,13.9,866.7,866.6,13.5,195.8,44.7,34.6,156.5,43.4
59572,54,32.0094722,-81.1075392,1380.5,4377,114.6,220.04,0.337,10.7,101.54,94.6,-7,18.12,1.4,7.2,292.4,13.5,862.9,861.2,13.9,193.9,44.7,34.5,156.5,42.8
59573,54,32.0093884,-81.1063453,1414.1,4497,114.7,220.43,0.338,10.8,101.73,94.7,-7,18.11,1.49,6.9,292.5,13.3,859,857.9,14,193.5,44.7,34.5,156.5,42.6
59574,54,32.0093017,-81.1051531,1449,4617,115,220.63,0.339,10.8,101.67,94.9,-6.8,17.92,1.51,6.1,292,12.5,855.2,854.6,13.6,194.6,44.7,34.7,156.5,42.7
59575,54,32.0092123,-81.103964,1484.5,4727,115.4,220.43,0.339,10.6,101.68,95,-6.7,17.59,1.27,6.3,292.6,12.8,851.7,851.2,13.5,196.9,44.7,34.7,156.6,43
59576,54,32.0091203,-81.1027791,1519.9,4842,115.8,220.82,0.339,10.5,102.02,95.1,-6.9,17.56,1.2,5.7,292.3,12.2,848,847.9,14,197.6,44.7,34.6,156.6,42.8
59577,54,32.0090258,-81.1012533,1555,4945,115.7,220.63,0.339,11.1,102.56,95.3,-7.3,19.36,1.2,6,292.9,12.4,844.8,844.2,14.7,197.5,44.7,33.2,156.6,41.6
59578,54,32.0089292,-81.1000629,1589.5,5070,114.5,221.79,0.341,12.3,102.96,95.4,-7.5,21.38,1.94,5.9,293.2,12.4,840.9,842,15.1,190.7,44.7,32.1,156.6,39.8
59579,54,32.0088294,-81.098858,1624.9,5210,113.1,221.4,0.34,13.3,102.52,95.7,-6.8,22.91,2.11,5.9,293.7,12.4,836.5,836.5,13.5,185.7,44.7,31.1,156.6,39.4
59580,54,32.0087297,-81.0979823,1663.8,5365,112,220.82,0.339,13.9,101.39,95.9,-5.5,24.07,1.7,6,294.3,12.4,831.6,832.2,10.9,180.2,44.7,30.3,156.6,40.1
59581,54,32.0086249,-81.0967521,1706.4,5520,111.1,221.4,0.34,14.2,100.32,96,-4.3,24.32,1.17,5.9,294.6,12.4,826.8,827.7,8.9,169.9,44.7,30.1,156.6,41.3
59582,54,32.0085189,-81.0955141,1751.6,5680,110.5,222.38,0.342,14.3,99.72,96.1,-3.6,24.13,0.79,6.1,295.4,12.6,821.9,823.7,8.1,159.2,44.7,30.1,156.6,42.1
59583,54,32.0084117,-81.0942715,1798.1,5835,110.3,223.15,0.343,14.1,99.51,96.2,-3.3,23.38,0.64,6,295.8,12.6,817.1,819,7.9,153.2,44.7,30.7,156.6,42.7
59584,54,32.0083034,-81.0930299,1845.1,5982,110.6,222.76,0.342,13.6,99.82,96.3,-3.6,22.71,0.75,6.5,296.7,13.1,812.6,814.2,8,158,44.7,31.1,156.6,42.7
59585,54,32.0081936,-81.092133,1891.9,6122,110.5,223.15,0.343,13.5,100.45,96.4,-4.1,22.53,0.98,6,296.7,12.5,808.2,809.7,9,160.1,44.7,31.3,156.6,42.1
59586,54,32.008082,-81.0908912,1937.3,6267,110.3,223.54,0.344,13.4,100.83,96.5,-4.4,22.5,1.3,5.8,296.9,12.4,803.8,805,9.7,159.8,44.7,31.4,156.6,41.5
59587,54,32.0079685,-81.0896461,1981.8,6415,110.1,222.38,0.342,13.4,100.96,96.6,-4.4,22.52,1.64,5.6,297.2,12.1,799.3,800,9.6,162.1,44.7,31.6,156.6,41.1
59588,54,32.0078569,-81.0883992,2026,6550,110,221.21,0.34,13.3,100.62,96.8,-3.8,22.51,1.92,5.5,297.5,11.9,795.3,794.7,8.4,161.7,44.7,31.9,156.6,41.2
59589,54,32.0077381,-81.0874921,2070.2,6695,109.6,221.6,0.341,13.4,99.92,96.9,-3,22.71,1.15,5.3,297.8,11.8,790.9,792.1,7.4,151.7,44.7,31.4,156.7,42.3
59590,54,32.0076189,-81.0862371,2114.1,6840,109.2,221.21,0.341,13.4,100.39,97,-3.5,22.69,1.23,5.3,298.2,11.8,786.6,787.5,8,153.8,44.7,31.4,156.7,41.9
59591,54,32.0074983,-81.0849795,2157.9,6982,109.1,221.01,0.34,13.2,101.64,97.1,-4.5,22.24,2.06,4.9,298.3,11.3,782.3,782.8,10,161.9,44.7,31.9,156.7,40.4
59592,54,32.0073737,-81.0840649,2202,7125,109.2,220.04,0.339,12.9,101.85,97.4,-4.5,21.81,1.83,4.5,298.3,10.9,778.1,779.5,9.5,164.8,44.7,32,156.7,40.6
59593,54,32.0072452,-81.0828077,2245.7,7257,109.3,219.85,0.339,12.7,100.8,97.6,-3.2,21.6,0.94,4.3,298.5,10.7,774.2,775.1,7.3,157.7,44.7,31.9,156.7,42.3
59594,54,32.0071148,-81.0815505,2288.5,7395,109.3,219.27,0.338,12.6,99.65,97.6,-2,21.61,0.63,4,298.6,10.4,770.2,771.3,5.3,147.3,44.7,31.9,156.7,43.4
59595,54,32.0069845,-81.0806348,2330.5,7525,109,218.88,0.338,12.6,99.64,97.6,-2,21.67,0.48,4,299.1,10.3,766.4,766.3,5.3,146.2,44.7,31.8,156.7,43.5
59596,54,32.0068603,-81.0793756,2371.9,7665,109.1,217.9,0.336,12.5,100.37,97.7,-2.7,21.36,1.14,3.6,299.1,9.8,762.3,764.1,6,158.8,44.7,32.3,156.7,42.6
59597,54,32.0067266,-81.0781161,2413.4,7792,109.2,216.74,0.334,12.2,100.38,97.9,-2.5,21.12,1.29,3.8,299.7,10,758.6,759.3,5.3,163.4,44.7,32.6,156.7,42.5
59598,54,32.0065903,-81.077201,2454.7,7925,109.3,214.99,0.332,12,99.86,98,-1.9,20.79,0.95,3.5,299.8,9.6,754.8,755.8,3.8,168.9,44.7,32.7,156.7,43.4
59599,54,32.0064528,-81.0759428,2495.2,8052,109.3,213.43,0.329,11.6,99.71,98,-1.7,20.1,0.62,3.5,300.2,9.5,751.1,751.5,3.3,180.2,44.7,33,156.7,44.1
59600,54,32.0063143,-81.0746835,2535,8172,109.2,211.49,0.327,10.9,99.91,98.1,-1.8,19.03,0.55,3,300.1,8.9,747.6,747.7,3.5,195.6,44.7,33.7,156.7,44.5
59601,54,32.0061746,-81.0737684,2573.7,8287,109.4,209.74,0.324,10.1,99.95,98.2,-1.8,17.64,0.58,3.2,300.7,9,744.4,745.2,3.6,213.4,44.7,34.7,156.7,45.1
59602,54,32.0060331,-81.0725136,2610.5,8390,109.9,208.96,0.323,9.2,99.74,98.3,-1.5,16.15,0.51,3,300.8,8.7,741.4,743.2,3.6,230.3,44.7,35.7,156.7,46.1
59603,54,32.00589,-81.071264,2644.9,8482,110.5,208.38,0.322,8.4,99.48,98.3,-1.2,14.86,0.41,2.7,300.8,8.4,738.8,743.7,4,244.7,44.7,36.6,156.8,47.1
59604,54,32.0057483,-81.0700197,2676.5,8562,110.9,207.8,0.321,7.9,99.41,98.3,-1.1,14.48,0.36,2.9,301.3,8.6,736.6,745.3,4.5,251,44.7,36.8,156.8,47.4
59605,54,32.0056029,-81.06912,2705.4,8640,110.7,207.99,0.322,8,99.77,98.4,-1.4,15.13,0.09,2.5,301.1,8.2,734.4,745.4,4.5,244,44.7,36,156.8,47.1
59606,54,32.005458,-81.0678743,2732,8730,110.5,208.38,0.322,8.2,100.41,98.3,-2.1,15.11,-2.81,2.3,301.2,8,731.8,746.2,5.2,228.8,44.7,33.9,156.8,48.6
59607,54,32.0053151,-81.0666289,2758.2,8822,110.7,208.77,0.323,7.8,100.61,98.2,-2.5,14.17,-4.31,2.7,301.9,8.4,729.2,746.4,5.6,225.1,44.7,33.4,156.8,49.9
59608,54,32.0051753,-81.0653882,2785.2,8905,111.2,208.57,0.323,7.4,99.85,97.9,-2,13.37,-5.71,2.1,301.5,7.9,726.9,746.4,5.4,235.2,44.7,32.9,156.8,51.9
59609,54,32.0050408,-81.064497,2811.7,8980,111.8,208.38,0.323,6.9,98.65,97.5,-1.2,12.54,-7.41,1.3,300.9,7,724.8,746.8,5.1,252.5,44.7,32.2,156.8,54.4
59610,54,32.0049143,-81.0632704,2836.6,9052,112.5,207.8,0.322,6.4,97.91,96.9,-1,11.65,-9.07,1.7,301.6,7.4,722.8,746.2,5.9,258.4,44.7,31.5,156.8,56.4
59611,54,32.0047972,-81.0620521,2860,9115,113,207.21,0.321,5.7,97.65,96.3,-1.3,10.51,-9.4,1.7,301.8,7.4,721,746.1,6.9,255,44.7,31.9,156.8,57.3
59612,54,32.0046928,-81.0608417,2881.8,9175,113.7,206.82,0.32,5.1,97.17,95.8,-1.4,9.49,-9.52,1.8,302.1,7.4,719.4,746.1,7.8,256.7,44.7,32.4,156.8,58.3
59613,54,32.0045951,-81.0596393,2901.7,9222,114.4,206.63,0.32,4.6,96.33,95.2,-1.2,8.64,-9.79,1.5,301.9,7.1,718.1,747.6,8.4,260.7,44.7,32.6,156.8,59.6
59614,54,32.0045086,-81.0584455,2919.4,9270,115.1,207.21,0.321,4.1,95.4,94.5,-0.9,7.88,-10.21,1.4,302,7.1,716.8,746.2,8.7,263.4,44.7,32.7,156.8,61
59615,54,32.0044344,-81.0572609,2935.1,9312,115.9,208.19,0.323,3.8,94.56,93.7,-0.8,7.22,-10.63,1.6,302.3,7.3,715.6,745.8,9,263.4,44.7,32.7,156.8,62.2
59616,54,32.0043732,-81.056086,2949.4,9345,116.7,209.35,0.325,3.4,93.77,93,-0.8,6.7,-10.97,1.3,302.1,7.1,714.7,745.3,9.1,263.9,44.7,32.6,156.8,63.3
59617,54,32.0043259,-81.0545779,2962.4,9382,117.6,210.71,0.327,3.1,92.92,92.2,-0.7,6.12,-11.24,1.2,302.1,7,713.7,744.7,9.3,263.8,44.7,32.7,156.9,64.5
59618,54,32.004293,-81.0534208,2974.2,9412,118,211.1,0.327,2.8,91.96,91.4,-0.6,5.64,-11.79,1.1,302.1,7,712.9,744.4,9.5,265,44.7,32.4,156.9,65.8
59619,54,32.0042761,-81.052267,2985.1,9435,118.2,211.3,0.328,2.8,90.8,90.5,-0.3,5.84,-12.2,1.1,302.2,7,712.2,743.8,9.5,267.1,44.7,31.9,156.9,66.8
59620,54,32.0042778,-81.0511133,2994.9,9467,118.1,211.1,0.328,2.9,89.62,89.4,-0.2,6.05,-12.59,1.3,302.5,7.2,711.3,743.9,9.5,266.9,44.7,31.5,156.9,67.8
59621,54,32.0042987,-81.0496149,3004.2,9502,118,211.1,0.327,2.9,88.54,88.4,-0.1,5.82,-13.02,1,302.3,6.9,710.4,745.2,9.4,266.8,44.7,31.2,156.9,68.9
59622,54,32.0043382,-81.0484583,3013.7,9532,117.9,210.91,0.327,2.6,87.56,87.4,-0.1,5.29,-13.43,1,302.4,6.9,709.6,745.7,9.4,265.6,44.7,31,156.9,70.2
59623,54,32.0043958,-81.0473001,3023.4,9560,117.9,210.71,0.327,2.3,86.54,86.4,-0.1,4.82,-13.73,0.7,302.2,6.5,708.8,745.9,9.5,264.8,44.7,30.9,156.9,71.4
59624,54,32.0044718,-81.0461406,3032.5,9582,117.9,210.71,0.327,2.1,85.39,85.4,0,4.46,-13.99,0.9,302.5,6.7,708.2,745.4,9.5,265.5,44.6,30.8,156.9,72.6
59625,54,32.0045676,-81.0446361,3040.8,9595,117.9,210.52,0.327,2.1,83.98,84.3,0.3,4.93,-13.95,0.9,302.5,6.7,707.8,745.9,9.6,267.9,44.6,30.7,156.9,73.5
59626,54,32.0046858,-81.043471,3048,9617,117.7,209.93,0.326,2.5,82.52,83,0.5,5.73,-13.91,0.8,302.5,6.6,707.2,743.8,9.7,268.3,44.6,30.5,156.9,74.2
59627,54,32.0048277,-81.0422995,3054.9,9650,117.3,209.74,0.325,2.9,81.15,81.7,0.5,6.55,-13.91,0.8,302.6,6.6,706.3,745.3,9.5,268,44.6,30.3,156.9,74.9
59628,54,32.0049928,-81.0411191,3062.7,9685,116.8,208.96,0.324,3.3,79.85,80.4,0.5,7.31,-13.87,0.8,302.7,6.5,705.4,743.9,9.4,266.7,44.6,30.2,156.9,75.5
59629,54,32.0051806,-81.039928,3071.9,9722,116.1,208.19,0.323,3.7,78.54,79.1,0.6,7.95,-13.81,0.7,302.7,6.4,704.3,745.6,9.1,265.7,44.6,30.2,156.9,76.2
59630,54,32.0053899,-81.0387249,3082.5,9767,115.5,206.82,0.321,3.9,77.23,77.8,0.6,8.24,-13.81,0.6,302.8,6.3,703.1,745.6,9.2,264.4,44.6,30.2,156.9,77.1
59631,54,32.0056192,-81.0375095,3094.4,9810,114.8,205.85,0.319,3.9,76.04,76.7,0.6,8.16,-13.85,0.8,303.1,6.3,702,745.6,9,264.5,44.6,30.3,157,78.2
59632,54,32.0058673,-81.0362828,3107.3,9857,114.3,204.88,0.318,3.8,74.93,75.6,0.7,7.83,-13.93,0.7,303.2,6.2,700.7,746.1,9,263.5,44.6,30.4,157,79.3
59633,54,32.0061325,-81.0350465,3120.5,9910,114.1,204.69,0.318,3,74.18,74.7,0.5,5.23,-13.91,0.6,303.2,6.1,699.2,744.3,8.9,260.9,44.6,30.9,157,81.3
59634,54,32.006409,-81.0338083,3133.5,9942,114.5,205.27,0.319,1.2,73.6,74.2,0.6,1.47,-13.95,0.2,302.9,5.7,698.3,743.8,9,261.3,44.6,31.4,157,84
59635,54,32.0066936,-81.0329134,3145.1,9942,114.7,205.46,0.319,-0.6,72.91,73.8,0.9,-1.59,-14.17,0.1,302.8,5.7,698.4,740.8,9.2,264.1,44.6,31.4,157,86.4
59636,54,32.0069873,-81.0316736,3151.8,9925,114.8,205.85,0.32,-2.2,72.3,73.2,0.9,-4.09,-14.57,0.2,302.9,5.7,698.8,742.2,9.1,263.8,44.6,31.1,157,88.4
59637,54,32.007293,-81.0304329,3152.3,9882,115.2,206.63,0.321,-3.2,71.46,72.5,1,-5.03,-14.28,0.2,302.7,5.8,700,742.4,9.1,264.7,44.6,31.3,157,89.6
59638,54,32.007617,-81.0291909,3147.3,9830,115.9,207.02,0.322,-3,69.97,71.2,1.3,-3.53,-13.88,0.2,302.5,5.9,701.5,742.3,9.7,264.8,44.6,31.6,157,90
59639,54,32.0079672,-81.0282894,3137.9,9800,116.5,207.8,0.323,-2.2,68.41,69.8,1.4,-2.24,-13.62,0.3,302.5,6,702.3,741.3,10,264.9,44.6,31.8,157,90.5
59640,54,32.0083427,-81.0270388,3127.4,9785,116.8,209.16,0.325,-1.8,67.13,68.5,1.3,-1.91,-13.58,0.3,302.5,6,702.6,743.9,9.6,264.1,44.6,31.9,157,91.4
59641,54,32.0087402,-81.0257807,3119.1,9767,117,209.55,0.325,-1.5,65.84,67.3,1.4,-1.44,-13.52,0.3,302.4,6.1,703.1,741.4,9.6,263.9,44.6,31.9,157,92.2
59642,54,32.0091576,-81.0245145,3112.9,9755,117.1,210.13,0.326,-1.5,64.81,66.2,1.4,-1.79,-10.76,0.7,302.8,6.5,703.4,742.7,9.4,262.4,44.6,34.6,157,93.4
59643,54,32.0095907,-81.0235848,3107.5,9742,117.2,211.1,0.328,-1.7,63.98,65.4,1.4,-2.37,-10.59,0.5,302.6,6.3,703.8,741.8,9,262.7,44.6,34.7,157,94.6
59644,54,32.0100373,-81.0223065,3102.7,9722,117.4,211.88,0.329,-2,63.3,64.7,1.4,-2.79,-10.59,0.5,302.5,6.4,704.4,741.1,8.8,262.2,44.6,34.7,157,95.4
59645,54,32.0104977,-81.0213665,3097.5,9700,117.7,212.66,0.33,-2.2,62.51,63.9,1.4,-2.98,-10.56,0.5,302.4,6.5,705,741.6,8.7,261.6,44.6,34.7,157.1,96.2
59646,54,32.0109729,-81.0200778,3091.4,9662,117.9,213.24,0.331,-1.9,61.32,62.9,1.6,-1.31,-11.27,0.6,302.4,6.6,706,740.9,8.8,263.1,44.6,34.1,157.1,96.1
59647,54,32.0114685,-81.0191225,3084.4,9642,118.1,212.46,0.33,-0.3,59.8,61.6,1.7,1.71,-11.79,0.9,302.7,6.9,706.5,743.3,9.5,262.8,44.6,33.9,157.1,95.3
59648,54,32.011986,-81.0181532,3077.6,9665,118,213.82,0.332,0.4,58.81,60.4,1.5,1.69,-11.75,0.7,302.5,6.7,706,745.2,8.6,261.2,44.6,34,157.1,96.2
59649,54,32.01252,-81.0168296,3074.4,9670,118,214.21,0.332,0.4,57.69,59.4,1.7,1.36,-11.75,0.4,302.2,6.5,705.8,744.6,8.5,262.1,44.6,34.1,157.1,97.4
59650,54,32.0130684,-81.0158392,3075.2,9675,118,214.41,0.333,0.2,56.58,58.5,1.9,1.26,-11.91,0.7,302.6,6.7,705.7,744.3,8.6,264,44.6,33.9,157.1,98.4
59651,54,32.0136319,-81.0148379,3076.6,9672,118,214.41,0.333,0.4,55.5,57.5,2,1.94,-12.08,0.7,302.6,6.7,705.7,745.8,8.7,263.9,44.6,33.9,157.1,98.8
59652,54,32.0142114,-81.0138228,3077.6,9677,117.8,214.21,0.333,0.8,54.48,56.4,1.9,2.66,-12.13,0.6,302.5,6.7,705.6,745.3,8.5,262.1,44.6,34.1,157.1,99.2
59653,54,32.0148069,-81.012793,3078.8,9692,117.6,214.21,0.333,1.1,53.42,55.4,1.9,2.94,-12.13,0.9,302.8,7,705.2,744.3,8.4,262.4,44.6,34.2,157.1,99.9
59654,54,32.0154165,-81.0117482,3081.1,9707,117.3,214.02,0.332,1.2,52.26,54.3,2.1,2.99,-12.23,0.6,302.6,6.7,704.8,743.5,8.3,262.6,44.6,34.2,157.1,100.9
59655,54,32.0160396,-81.0106883,3084.5,9720,117,213.82,0.332,1.2,51.12,53.3,2.2,2.97,-12.4,0.9,302.9,6.9,704.5,744.4,8.2,263.9,44.6,34.1,157.1,101.8
59656,54,32.0166758,-81.0096133,3088.5,9735,116.7,213.43,0.331,1.2,50.09,52.4,2.3,2.89,-11.46,0.6,302.7,6.6,704,743.3,8.3,264.7,44.6,35.1,157.1,102.8
59657,54,32.017325,-81.0088676,3092.6,9742,116.7,213.63,0.331,1.5,48.92,51.4,2.5,3.97,-11.02,0.5,302.6,6.5,703.8,748.7,8.4,266,44.6,35.9,157.1,103.1
59658,54,32.0179908,-81.0077657,3096.7,9762,117,214.21,0.333,2.3,47.87,50.2,2.4,5.48,-11.55,0.5,302.6,6.6,703.3,749.7,8.2,263.2,44.6,35.8,157.1,103
59659,54,32.0186745,-81.0069918,3101.1,9790,117,214.79,0.334,3.2,46.76,49,2.3,7.03,-11.89,0.6,302.8,6.7,702.5,747.6,7.9,262.3,44.6,36,157.2,102.8
59660,54,32.0193749,-81.0058565,3107.6,9832,116.9,215.18,0.334,4.1,45.13,47.8,2.6,8.25,-12.18,0.4,302.8,6.5,701.4,750.1,8.2,267,44.6,36.2,157.2,103.3
59661,54,32.0200913,-81.0050459,3116.8,9887,116.8,216.74,0.336,4.3,43.45,46.6,3.2,7.9,-12.5,0.5,303.1,6.7,699.9,746.8,8.2,274.9,44.6,36.1,157.2,105
59662,54,32.0208226,-81.0042201,3129.1,9932,117,217.52,0.338,4.2,42.17,45.6,3.4,7.49,-13.05,0.2,302.9,6.4,698.7,746.4,8.5,277.2,44.6,35.7,157.2,106.3
59663,54,32.0215692,-81.0033803,3143.2,9972,117.3,217.9,0.339,4,41.42,44.5,3.1,7.63,-13.4,0.1,302.9,6.4,697.5,746.3,8.1,272.8,44.6,35.6,157.2,106.8
59664,54,32.0223312,-81.0025231,3157.3,10010,117.1,217.9,0.339,4.7,40.41,43.2,2.8,9.47,-13.34,0,302.9,6.3,696.5,747,7.5,270,44.6,36.3,157.2,106.4
59665,54,32.0231077,-81.00164,3170.8,10062,116.3,217.9,0.339,5.7,38.8,41.7,3,11.42,-13.4,0,303.1,6.2,695.1,746.8,7.1,274.3,44.6,37.1,157.2,106.4
59666,54,32.0238955,-81.0007255,3185.1,10130,115.1,217.52,0.338,6.8,36.68,40.2,3.6,13.11,-13.9,-0.1,303.2,6.1,693.3,747.1,7.7,283.8,44.6,37.5,157.2,107
59667,54,32.0246918,-81.0001196,3202.6,10210,113.6,216.35,0.336,7.7,34.69,38.7,4,14.48,-14.51,-0.2,303.4,6,691.1,747.8,8.2,290.4,44.6,37.8,157.2,107.6
59668,54,32.0254938,-80.9991372,3223.6,10305,112.3,215.77,0.336,8,33.77,37.4,3.6,14.41,-10.76,-0.2,303.7,6,688.6,745.7,7.2,295.2,44.6,41.7,157.2,108.3
59669,54,32.026299,-80.9984752,3247.9,10387,111.3,214.99,0.334,8,33.58,36.6,3,14.84,-7.5,-0.5,303.6,5.6,686.4,745.4,5.9,298.3,44.6,45,157.2,108.1
59670,54,32.0271043,-80.9977966,3274.2,10477,110.6,214.6,0.334,8.5,33.43,36.1,2.6,15.95,-5.09,-1,303.4,5.1,684,748.7,5.2,302.5,44.6,47.7,157.2,107.2
59671,54,32.0279114,-80.9971071,3300.6,10570,110.2,215.18,0.335,9.3,32.81,35.6,2.8,17.47,-3.68,-0.4,304.4,5.7,681.5,748.6,5.4,309.5,44.6,49.6,157.2,106.2
59672,54,32.028718,-80.9964075,3328,10677,109.4,216.35,0.337,10.2,31.83,35.3,3.4,18.75,-2.94,-0.9,304.2,5.3,678.7,748.3,6.9,319.4,44.6,51,157.2,105.6
59673,54,32.0295229,-80.9956987,3357.6,10805,109.2,218.88,0.341,10.4,31.7,35,3.3,17.87,-1.61,-0.8,304.7,5.5,675.3,747.3,7.2,331.4,44.6,52.1,157.2,106.8
59674,54,32.0303315,-80.9949895,3390.1,10912,109.8,218.88,0.34,9.9,32.38,35,2.5,17.06,0.07,-0.5,305.4,5.9,672.5,748,5.8,332.5,44.6,53.1,157.3,107.2
59675,54,32.0311446,-80.9946272,3424.6,11010,110.2,217.71,0.339,9.9,32.8,35,2.2,17.6,0.06,0,306.3,6.2,669.9,749,4.6,326.8,44.6,53.2,157.3,106.1
59676,54,32.0319578,-80.9939227,3458.2,11107,110,217.13,0.337,10.3,32.33,35,2.7,18.8,-0.8,0.1,306.8,6.4,667.4,749.9,5.4,321.9,44.6,52.9,157.3,105
59677,54,32.0327687,-80.9932148,3490.8,11227,109.6,218.49,0.34,10.8,31.5,34.9,3.4,19,-0.83,-0.1,306.9,6.1,664.3,748.1,7.2,326.2,44.6,53.2,157.3,105.7
59678,54,32.0335786,-80.9925032,3524.2,11347,109.4,218.88,0.34,10.9,31.34,34.8,3.4,18.98,-0.99,0.2,307.7,6.5,661.2,749,7.4,328.6,44.6,53.1,157.3,105.8
59679,54,32.0343894,-80.9917896,3559.4,11462,109.5,217.9,0.339,10.8,31.94,34.7,2.7,18.77,-0.78,-0.2,307.6,6.1,658.1,748.5,5.9,329.3,44.6,53.1,157.3,105.5
59680,54,32.0352021,-80.9910761,3595.3,11575,109.8,218.1,0.339,10.6,32.45,34.7,2.2,18.51,-0.28,-0.3,307.9,6,655.2,748.5,5,332.4,44.6,53.3,157.3,105.3
59681,54,32.0360163,-80.990364,3631,11685,109.9,218.29,0.339,10.5,31.96,34.7,2.7,18.48,0.07,-0.5,308.1,5.8,652.4,748.1,5.8,327.6,44.6,53.7,157.3,105.9
59682,54,32.0368309,-80.9899955,3666.3,11800,109.9,218.68,0.34,10.6,30.75,34.7,3.9,18.64,-0.15,-0.4,308.6,5.9,649.5,748.6,8.1,321.5,44.6,54,157.3,107
59683,54,32.0376456,-80.9892825,3701.1,11905,109.8,218.68,0.34,10.6,30.18,34.6,4.4,18.72,0.1,-0.5,308.8,5.8,646.9,748.6,9,319.9,44.6,54.5,157.3,107.5
59684,54,32.0384785,-80.9885688,3736,12027,109.8,217.9,0.339,10.6,30.54,34.6,4,18.76,0.76,-0.8,308.9,5.5,643.7,749.6,8.2,318.9,44.6,55,157.3,107.1
59685,54,32.0392925,-80.9878563,3771.1,12137,109.8,218.1,0.339,10.6,30.72,34.7,3.9,18.91,1.37,-0.6,309.5,5.7,640.9,750,8.1,320,44.6,55.6,157.3,106.8
59686,54,32.0401047,-80.9871451,3806.3,12247,109.6,217.32,0.338,10.7,30.58,34.8,4.2,19.08,1.49,-0.7,309.8,5.5,638.1,748.6,8.4,317.8,44.6,55.8,157.3,106.7
59687,54,32.0409152,-80.9864349,3841.5,12362,109.6,216.74,0.337,10.6,30.6,34.9,4.3,18.98,1.47,-0.7,310.2,5.5,635.3,748.5,8.5,315.6,44.6,55.7,157.3,106.8
59688,54,32.0417249,-80.9857263,3876.9,12475,109.6,216.93,0.338,10.5,30.98,35,4,18.75,1.3,-0.9,310.4,5.3,632.5,748.6,8,317.4,44.6,55.4,157.3,106.7
59689,54,32.0425343,-80.985363,3912.4,12585,109.8,217.32,0.338,10.4,31.53,35.1,3.5,18.52,1.05,-1.1,310.5,5.2,629.7,748.6,7.2,319.5,44.6,54.9,157.4,106.4
59690,54,32.0433432,-80.9846587,3947.7,12687,109.8,217.32,0.338,10.4,31.59,35.2,3.6,18.59,0.4,-0.9,311.1,5.3,627.2,748.8,7.3,319.4,44.6,54.3,157.4,106.2
59691,54,32.0441508,-80.9839549,3982.5,12802,109.6,217.9,0.339,10.5,30.87,35.2,4.3,18.91,-0.23,-1.4,310.9,4.9,624.3,748.1,8.7,319.6,44.6,54,157.4,106.6
59692,54,32.0449777,-80.9832489,4017,12915,109.3,218.49,0.34,10.7,30,35.2,5.1,19.22,-0.76,-1.7,311,4.6,621.5,749.2,10.5,319.7,44.6,53.9,157.4,107
59693,54,32.0457817,-80.982539,4051.8,13032,108.9,218.68,0.341,10.8,30.04,35.1,5,19.41,-0.82,-1.7,311.4,4.6,618.7,748.7,10.4,322.8,44.6,53.8,157.4,106.8
59694,54,32.046584,-80.9818259,4087.2,13150,108.6,219.27,0.342,10.8,30.82,35,4.1,19.28,-0.35,-2.1,311.4,4.2,615.7,749,9.1,330.4,44.6,54,157.4,106.1
59695,54,32.0473851,-80.9811117,4123.2,13262,108.5,219.65,0.343,10.7,31.26,35,3.8,19,-0.2,-2.5,311.3,3.9,613,747.8,8.5,335,44.6,53.9,157.4,106
59696,54,32.0481855,-80.9803973,4159.5,13375,108.4,220.24,0.344,10.6,30.83,35,4.2,18.8,-0.69,-2.8,311.4,3.6,610.2,749.4,9.4,334.2,44.6,53.6,157.4,106.7
59697,54,32.0489858,-80.9800253,4195.6,13492,108.4,220.24,0.344,10.5,30.01,34.9,4.9,18.58,-1.25,-3.1,311.4,3.3,607.4,749.5,10.6,329.8,44.6,53.2,157.4,107.9
59698,54,32.0497872,-80.9793077,4231.4,13602,108.4,220.63,0.345,10.4,29.54,34.8,5.2,18.3,-1.68,-3.2,311.7,3.2,604.7,747.8,11.4,328.8,44.6,52.9,157.4,108.7
59699,54,32.0505902,-80.9785871,4266.8,13715,108.4,221.6,0.346,10.2,29.83,34.6,4.8,17.98,-1.88,-3.5,311.8,3,602,750.1,10.8,333.4,44.6,52.5,157.4,108.8
59700,54,32.0514106,-80.9778652,4301.8,13822,108.5,221.6,0.347,10.1,30.36,34.5,4.1,17.73,-1.77,-3.6,312,2.9,599.5,749.4,9.7,336.8,44.6,52.4,157.4,108.5
59701,54,32.0522173,-80.9771408,4336.4,13930,108.5,222.57,0.348,10,30.37,34.4,4,17.61,-1.7,-3.9,312.1,2.7,596.9,748.2,9.9,339.8,44.6,52.4,157.4,108.7
59702,54,32.0530255,-80.9767578,4370.5,14035,108.5,222.38,0.348,9.9,29.76,34.2,4.5,17.61,-1.93,-3.8,312.6,2.7,594.4,749.7,10.5,336.3,44.6,52.4,157.4,109.3
59703,54,32.0538352,-80.9760285,4404.2,14145,108.5,221.4,0.347,9.9,29.12,34,4.9,17.59,-2.41,-3.8,312.9,2.7,591.8,749.7,10.9,331.2,44.6,52.1,157.4,110
59704,54,32.0546472,-80.9752956,4437.8,14245,108.5,220.63,0.346,9.8,28.83,33.8,4.9,17.44,-2.73,-4.2,312.8,2.2,589.4,749.6,10.8,328.7,44.6,51.8,157.5,110.4
59705,54,32.0554619,-80.9749025,4471.2,14352,108.6,221.4,0.347,9.7,28.75,33.5,4.8,17.22,-2.58,-4.3,313.1,2.2,586.9,749.1,10.6,331,44.6,51.9,157.5,110.8
59706,54,32.0562793,-80.974163,4504.3,14460,108.7,221.4,0.347,9.6,28.48,33.4,4.9,17.05,-2.27,-5,312.7,1.5,584.4,749.7,10.9,329.5,44.6,52.2,157.5,111.3
59707,54,32.0570992,-80.9734211,4537.2,14562,108.9,220.82,0.346,9.5,27.74,33.2,5.4,16.92,-2.11,-5.2,312.8,1.2,582,748.8,11.6,324.4,44.6,52.6,157.5,112.3
59708,54,32.0579308,-80.9726774,4569.6,14662,109,219.65,0.345,9.3,26.87,33,6.1,16.78,-2.18,-5.3,313.1,1.1,579.7,748.3,12.5,318.5,44.6,52.7,157.5,113.3
59709,54,32.0587568,-80.9722734,4601.7,14760,109.2,219.27,0.344,9.2,26.42,32.7,6.3,16.57,-1.96,-5.6,313.1,0.7,577.4,750,12.7,316,44.6,52.9,157.5,114.1
59710,54,32.0595864,-80.9715238,4633.5,14862,109.4,219.27,0.344,9,26.52,32.6,6,16.31,-1.14,-5.6,313.4,0.7,575,748.7,12.3,315.6,44.6,53.5,157.5,114.6
59711,54,32.0604194,-80.9711169,4664.8,14955,109.8,218.88,0.344,8.8,26.81,32.5,5.6,16.06,-0.82,-6.2,313.1,0.1,572.9,749.4,11.4,313.9,44.6,53.7,157.5,114.6
59712,54,32.0612555,-80.9703672,4695.6,15055,110.1,218.49,0.344,8.7,26.93,32.4,5.4,15.9,-0.46,-6.1,313.5,0.2,570.6,750.1,10.9,311.9,44.6,53.9,157.5,114.8
59713,54,32.0620943,-80.9696187,4725.8,15145,110.3,218.88,0.344,8.6,26.6,32.4,5.7,15.88,-0.2,-6.4,313.5,0,568.5,749.6,11.5,311,44.6,54.2,157.5,115.3
59714,54,32.0629349,-80.9692143,4755.6,15237,110.5,218.88,0.344,8.7,26,32.3,6.3,16.08,-0.18,-6.5,313.7,-0.2,566.4,750.5,12.4,308.9,44.6,54.5,157.5,115.7
59715,54,32.0637767,-80.9684665,4784.9,15330,110.5,218.68,0.344,8.8,25.62,32.3,6.7,16.36,-0.21,-6.9,313.6,-0.6,564.2,748.8,13.1,307.7,44.6,54.7,157.5,115.8
59716,54,32.064627,-80.9677192,4814.4,15427,110.5,217.9,0.343,8.9,25.74,32.3,6.5,16.58,0.03,-6.8,314.1,-0.5,562,749.6,12.8,306.2,44.6,54.9,157.5,115.5
59717,54,32.0654695,-80.9673138,4844.1,15530,110.6,218.29,0.343,9,26.37,32.3,5.9,16.68,0.1,-7,314.2,-0.7,559.7,748.7,11.7,307.7,44.6,54.9,157.5,114.7
59718,54,32.0663122,-80.9665654,4874.3,15620,110.6,218.49,0.344,9.1,27.1,32.3,5.1,16.79,0.2,-7.2,314.3,-0.9,557.7,749.7,10.3,309.8,44.6,54.8,157.5,113.7
59719,54,32.0671542,-80.9658175,4904.8,15720,110.5,218.49,0.344,9.2,27.43,32.3,4.9,16.97,0.09,-7.7,314.1,-1.4,555.5,749.7,9.7,311.2,44.6,54.7,157.6,113.1
59720,54,32.0679949,-80.9654127,4935.4,15820,110.2,219.07,0.345,9.4,27.3,32.3,5,17.85,-0.7,-7.5,314.7,-1.1,553.2,750.1,10,314.2,44.6,54.4,157.6,111.9
59721,54,32.0688311,-80.9646605,4966.4,15917,109.3,219.65,0.347,10.2,27.11,32.3,5.2,19.58,-1.01,-8.2,314.2,-1.8,551,750.1,10.7,319.9,44.5,54.7,157.6,109.8
59722,54,32.069658,-80.9642436,4997.9,16035,107.8,220.24,0.347,11.1,27.1,32.3,5.1,20.8,-0.74,-8.1,314.7,-1.7,548.4,749,11.4,328.4,44.5,55.4,157.6,108.2
59723,54,32.0704744,-80.9634754,5031.3,16165,106.6,220.43,0.348,11.5,27.19,32.3,5,20.84,-0.47,-8.6,314.6,-2.2,545.5,749.5,11.9,334.5,44.5,55.6,157.6,108.1
59724,54,32.0712891,-80.9630464,5067.6,16300,106.3,220.82,0.349,11.2,27.14,32.3,5.1,19.45,-0.32,-8.3,315.5,-1.9,542.5,750.4,12.3,336.1,44.5,55.3,157.6,110.1
59725,54,32.072101,-80.9622742,5106,16422,106.9,221.01,0.349,10.2,26.74,32.2,5.4,17.13,-0.43,-8.7,315.4,-2.2,539.8,750,12.5,332.4,44.5,54.5,157.6,113.6
59726,54,32.0729213,-80.9618499,5144.4,16542,108.3,221.01,0.349,8.7,26.02,32.1,6.1,14.06,-0.79,-8.8,315.8,-2.4,537.2,750.4,12.9,323.7,44.5,53,157.6,118
59727,54,32.0737556,-80.9610892,5180.3,16632,110.2,222.18,0.351,6.7,25.32,31.9,6.6,10.41,-1.27,-9,315.9,-2.5,535.2,749.7,13.5,316.2,44.5,50.9,157.6,122.6
59728,54,32.0746064,-80.9603359,5211.9,16665,111.9,222.76,0.352,5.4,24.99,31.7,6.7,10.15,-1.83,-9.5,315.4,-2.9,534.5,750.1,13.5,309.8,44.5,50.4,157.6,123
59729,54,32.0754686,-80.9599287,5237.6,16710,112.7,223.74,0.354,5.8,25.13,31.5,6.3,11.3,-2.01,-9,316.1,-2.4,533.5,750.9,12.9,309,44.5,50.8,157.6,121.6
59730,54,32.0763371,-80.9591776,5257.5,16775,113.1,224.9,0.355,6.4,25.28,31.3,6,12.2,-1.7,-9.4,315.9,-2.8,532.1,751.6,12.3,310.5,44.5,51.5,157.6,120.6
59731,54,32.0772096,-80.9584251,5276.8,16845,113.3,226.07,0.358,7,25.08,31.1,6,13.3,-1.44,-9.8,315.7,-3.1,530.6,749.2,12.4,312,44.5,52.3,157.6,119.7
59732,54,32.0780874,-80.9580141,5297.8,16925,113.2,226.85,0.359,7.8,24.57,31,6.4,14.51,-1.42,-9.8,316,-3,528.8,750.1,13.4,312.9,44.5,53,157.6,118.9
59733,54,32.0789606,-80.9572554,5320.9,17010,112.7,227.62,0.36,8.5,24.04,30.9,6.8,15.78,-1.62,-10,316.1,-3.1,527,750.9,14.4,315.2,44.5,53.6,157.6,117.9
59734,54,32.0798308,-80.9568344,5346.3,17107,112,228.21,0.361,9.3,23.81,30.7,6.9,17.03,-1.92,-9.6,316.9,-2.8,524.9,751.4,14.8,318.6,44.5,53.9,157.7,116.6
59735,54,32.0806955,-80.9560628,5374.3,17215,111.1,228.98,0.363,10.1,23.79,30.6,6.8,18.25,-1.88,-10,316.8,-3.1,522.6,752.9,15.2,323.4,44.5,54.5,157.7,115.1
59736,54,32.0815529,-80.9556266,5404.8,17327,109.8,228.4,0.362,10.8,23.64,30.5,6.8,19.43,-1.74,-10,317.2,-3.1,520.2,752.1,15.6,326.5,44.5,55.2,157.7,113.8
59737,54,32.0824012,-80.9548387,5437.9,17447,108.5,226.46,0.359,11.4,23.29,30.4,7.1,20.57,-1.82,-10.7,316.8,-4,517.6,753.5,16.1,326.6,44.5,55.6,157.7,112.6
59738,54,32.0832398,-80.954385,5473.4,17577,107.1,224.51,0.356,11.8,22.9,30.3,7.4,21.43,-1.95,-10.7,317.3,-4,514.9,753.4,16.6,326.9,44.5,56,157.7,111.9
59739,54,32.0840685,-80.9539223,5511.1,17707,105.8,222.76,0.353,12.1,22.66,30.2,7.5,21.76,-1.8,-11.1,317.3,-4.5,512.1,753,16.9,327.6,44.5,56.3,157.7,111.7
59740,54,32.0848934,-80.9531095,5550.4,17845,105,221.21,0.351,11.9,22.64,30.1,7.4,21.13,-1.61,-11.6,317.2,-5.2,509.2,753,16.7,328,44.5,56.3,157.7,112.6
59741,54,32.0857114,-80.9526352,5590.9,17980,104.8,219.85,0.349,11.3,22.74,30,7.2,19.91,-1.43,-11.8,317.5,-5.4,506.4,752.5,16.1,327.4,44.5,55.9,157.7,114.2
59742,54,32.0865309,-80.9521597,5631.3,18102,105.1,218.49,0.347,10.4,22.77,29.9,7.1,18.24,-1.31,-12.2,317.5,-5.9,503.9,753.6,15.4,324.6,44.5,55.3,157.7,116.4
59743,54,32.0873555,-80.9516851,5670.4,18210,105.9,217.52,0.346,9.3,22.59,29.8,7.2,16.24,-1.29,-12.5,317.5,-6.3,501.6,751.7,14.9,319.8,44.5,54.5,157.7,119.2
59744,54,32.0881883,-80.9512133,5706.9,18305,107,216.93,0.345,8.1,22.16,29.6,7.5,14.05,-1.5,-12.7,317.6,-6.5,499.7,751.9,14.9,313.8,44.5,53.3,157.7,122.2
59745,54,32.0890315,-80.9504014,5740,18380,108.2,216.35,0.345,7,21.65,29.4,7.8,12.79,-1.73,-12.9,317.7,-6.7,498.1,750.7,15.2,307.3,44.5,52.5,157.7,124
59746,54,32.0898834,-80.9499341,5769.2,18437,108.7,216.35,0.345,6.8,21.32,29.3,7.9,13.83,-1.93,-13.4,317.3,-7.2,496.9,749.2,15.5,304.9,44.5,53,157.7,123.2
59747,54,32.0907377,-80.9494638,5794.4,18510,108.3,215.38,0.344,7.7,21.2,29.1,7.8,16.03,-1.94,-13.6,317.3,-7.4,495.5,749.6,15.3,304.5,44.5,54.2,157.7,120.7
59748,54,32.0915919,-80.9486444,5817.6,18602,107.4,215.96,0.344,8.6,21.14,28.9,7.8,17.37,-1.74,-14.1,317,-7.9,493.5,747,15.2,309,44.5,55,157.7,119.3
59749,54,32.0924342,-80.9481604,5842.4,18702,106.2,214.41,0.342,9.2,20.86,28.9,8,18.23,-1.64,-14,317.5,-8,491.5,743.8,15.7,310,44.5,55.6,157.8,118.5
59750,54,32.0932678,-80.9476692,5870.4,18807,105,212.66,0.34,9.5,20.35,28.8,8.4,18.63,-1.85,-14.2,317.7,-8.3,489.4,742.8,16.4,310.1,44.5,55.8,157.8,118.5
59751,54,32.0940938,-80.9471714,5900.8,18922,104.2,211.1,0.337,9.5,19.8,28.7,8.9,18.4,-2.08,-14.5,317.7,-8.7,487.1,740.6,17.1,309.1,44.5,55.6,157.8,119.4
59752,54,32.0949153,-80.9466681,5932.7,19020,103.6,209.35,0.335,9.2,19.3,28.6,9.2,17.71,-2.5,-14.7,317.9,-9,485.1,738.7,17.6,307.4,44.5,55.1,157.8,120.6
59753,54,32.0957349,-80.94616,5965,19117,103.3,207.41,0.332,8.6,19,28.4,9.4,16.94,-2.9,-15,317.9,-9.3,483.1,736.7,17.5,304.8,44.5,54.4,157.8,121.8
59754,54,32.0965541,-80.9456476,5996.5,19210,103.1,205.66,0.329,8.2,18.76,28.2,9.4,16.4,-2.87,-14.8,318.5,-9.2,481.2,734.2,17.4,302.4,44.5,54.2,157.8,122.7
59755,54,32.0973734,-80.9451313,6026.6,19295,103,204.3,0.327,7.7,18.33,28,9.7,15.61,-2.85,-15.4,318,-9.9,479.5,731.8,17.7,300,44.5,53.9,157.8,124.1
59756,54,32.0981993,-80.9446125,6055.1,19377,103.1,203.33,0.325,7.2,17.63,27.8,10.1,14.69,-3.08,-15.7,318,-10.2,477.9,730.5,18.5,297.4,44.5,53.4,157.8,125.8
59757,54,32.0990226,-80.944089,6082.1,19452,103.3,202.55,0.324,6.7,16.97,27.5,10.5,13.68,-3.43,-16.2,317.6,-10.8,476.4,729.8,19.1,294.9,44.5,52.7,157.8,127.4
59758,54,32.0998502,-80.9435621,6107.4,19525,103.6,202.16,0.324,6.1,16.51,27.2,10.7,12.57,-3.75,-16.1,318,-10.7,475,727.5,19.3,293,44.5,51.9,157.8,128.9
59759,54,32.1006834,-80.9430317,6130.9,19587,104.1,202.35,0.324,5.5,16.15,26.9,10.7,11.55,-3.92,-16,318.4,-10.6,473.8,726,19.5,291.5,44.5,51.2,157.8,130.2
59760,54,32.1015233,-80.9424982,6152.5,19640,104.6,202.35,0.324,5,15.8,26.5,10.7,10.79,-4.06,-16.5,318,-11.1,472.7,723.8,19.5,289.7,44.5,50.6,157.8,131.2
59761,54,32.1023703,-80.941961,6172.1,19692,105.2,202.74,0.325,4.6,15.44,26.2,10.7,10.09,-4.19,-17,317.6,-11.5,471.7,723.2,19.7,288.2,44.5,50.1,157.8,132.1
59762,54,32.1032251,-80.9417631,6189.9,19737,105.8,203.13,0.326,4.3,15.01,25.8,10.8,9.89,-3.99,-16.8,318,-11.3,470.8,723.2,19.8,286.7,44.5,50.2,157.8,132.9
59763,54,32.1040873,-80.9412178,6206.2,19785,106.4,204.1,0.327,4.1,14.58,25.4,10.8,9.45,-3.63,-17.1,317.8,-11.6,469.8,721.2,20,286,44.5,50.3,157.8,134
59764,54,32.1049609,-80.9406694,6221.4,19827,107.1,205.46,0.33,3.9,14.11,25,10.9,9.19,-3.3,-17.1,318,-11.5,469,722.1,20.2,285.6,44.5,50.4,157.9,134.9
59765,54,32.1058383,-80.940117,6235.9,19865,107.5,205.85,0.33,4,13.68,24.7,11,9.64,-2.56,-17.2,318,-11.6,468.3,720.2,20.6,284.7,44.5,51.3,157.9,135.5
59766,54,32.1067191,-80.9395608,6249.8,19910,107.5,205.66,0.33,4.4,13.49,24.5,11,11.14,-1.65,-17,318.4,-11.4,467.4,719.9,20.5,284.3,44.5,53.1,157.9,135.1
59767,54,32.1076003,-80.9393445,6263.6,19962,107.3,205.85,0.331,5.2,13.59,24.4,10.8,12.5,-0.68,-17.3,318.2,-11.7,466.3,719.7,20.1,285,44.5,54.7,157.9,134.3
59768,54,32.108479,-80.9387833,6278.1,20025,106.9,206.44,0.331,5.9,13.72,24.5,10.7,13.5,0.47,-17.2,318.6,-11.5,465.2,716.9,20,287.1,44.5,56.2,157.9,134.1
59769,54,32.1093535,-80.9382221,6294.9,20092,106.4,206.63,0.332,6.5,13.7,24.6,10.9,14.36,1.46,-17.6,318.4,-11.9,463.8,715.8,20.2,288.9,44.5,57.5,157.9,133.9
59770,54,32.110222,-80.9376626,6314.2,20167,105.8,206.63,0.332,6.9,13.72,24.9,11.1,15.09,2.27,-17.4,318.9,-11.8,462.4,715,20.7,290.7,44.5,58.6,157.9,133.8
59771,54,32.1110836,-80.9374491,6335.4,20245,105.3,206.44,0.332,7.3,13.86,25.2,11.3,15.71,3.07,-17.6,318.9,-12,460.9,713.7,20.9,292,44.5,59.6,157.9,133.6
59772,54,32.1119415,-80.9368974,6358.3,20325,104.6,206.24,0.332,7.7,14.22,25.7,11.4,16.25,3.63,-18,318.7,-12.4,459.3,713.2,21.1,294,44.5,60.3,157.9,133
59773,54,32.1127861,-80.9363495,6382.6,20410,103.9,207.41,0.333,8,14.74,26.1,11.4,16.77,3.43,-18.1,318.9,-12.5,457.7,708.4,21,298,44.5,60.4,157.9,131.4
59774,54,32.1136206,-80.9358063,6408.1,20500,103,208.57,0.335,8.3,15.21,26.6,11.4,17.12,3.25,-18.1,319.3,-12.4,456,709.2,21.3,302.5,44.5,60.4,157.9,130.1
59775,54,32.1144446,-80.9352672,6434.5,20592,102.1,209.16,0.336,8.5,15.34,27.1,11.7,17.25,3,-17.9,319.9,-12.1,454.2,707.1,22.2,305.5,44.5,60.3,157.9,129.6
59776,54,32.1152588,-80.9350745,6462.1,20685,101.3,209.16,0.336,8.6,15.06,27.5,12.4,17.38,2.4,-17.8,320.4,-12.1,452.4,703.5,23.5,306.7,44.5,60,157.9,129.3
59777,54,32.1160639,-80.9345406,6490.5,20777,100.5,208.77,0.336,8.6,14.83,27.8,13,17.52,1.69,-17.9,320.6,-12.2,450.7,703.3,24.5,307.6,44.5,59.6,157.9,128.9
59778,54,32.1168599,-80.9340072,6519.3,20870,99.6,209.55,0.337,8.7,15,28.1,13.1,17.57,1.48,-18,320.8,-12.2,448.9,701,25,310.6,44.5,59.4,157.9,128.4
59779,54,32.117647,-80.9334738,6548.3,20965,98.8,208.96,0.336,8.7,15.53,28.4,12.8,17.5,1.69,-18.2,321,-12.4,447.1,700.1,24.7,312.5,44.5,59.4,157.9,128
59780,54,32.1184259,-80.9329408,6577.5,21057,98.1,207.6,0.334,8.6,16.28,28.6,12.3,17.25,1.99,-18.4,321,-12.8,445.4,698.7,23.6,313.9,44.5,59.4,158,127.6
59781,54,32.1191979,-80.9324091,6607,21155,97.5,206.24,0.332,8.4,17.01,28.9,11.9,16.84,2.38,-18,321.9,-12.4,443.5,695.4,22.8,315,44.5,59.3,158,127.5
59782,54,32.1199639,-80.9318797,6636.1,21242,97.1,206.05,0.331,8.1,17.4,29.2,11.8,16.4,2.77,-18.4,321.8,-12.8,441.9,694.4,22.7,316.3,44.5,59.2,158,127.8
59783,54,32.1207262,-80.9313541,6664.6,21327,97.1,206.24,0.332,7.8,17.31,29.5,12.2,15.95,2.94,-18.6,321.9,-13,440.3,694.1,23.4,315.9,44.5,59.1,158,128.7
59784,54,32.121487,-80.9308328,6692.2,21410,97.2,206.05,0.332,7.6,17.05,29.8,12.7,15.59,2.81,-18.5,322.3,-12.9,438.8,693.2,24.2,314.6,44.5,58.8,158,129.4
59785,54,32.1222468,-80.9303155,6718.9,21487,97.3,206.44,0.332,7.5,17.05,30,12.9,15.48,1.73,-18.7,322.4,-13.1,437.3,691.7,24.6,314.6,44.5,57.9,158,128.7
59786,54,32.1230055,-80.929801,6744.8,21567,97.3,206.63,0.333,7.4,17.47,30.1,12.6,15.55,0.68,-19.1,322.1,-13.5,435.9,690.6,24.1,315.6,44.5,57,158,127.4
59787,54,32.1237629,-80.9292877,6770,21647,97.2,207.02,0.334,7.5,18,30.2,12.2,15.72,0.09,-19,322.6,-13.3,434.4,689.1,23.5,317.2,44.5,56.4,158,126
59788,54,32.1245254,-80.9287758,6795.1,21730,97,206.63,0.333,7.6,18.21,30.2,12,16,-0.79,-19.2,322.7,-13.5,432.8,686.9,23.2,317.7,44.5,56,158,125.1
59789,54,32.1252794,-80.9282612,6820.2,21810,96.7,206.24,0.333,7.7,17.9,30.2,12.2,16.42,-1.63,-19.5,322.6,-13.9,431.4,684.5,23.7,317.3,44.5,55.6,158,124.5
59790,54,32.1260309,-80.927743,6845.6,21890,96.1,205.85,0.332,7.9,17.16,30,12.9,17,-2.71,-19.9,322.4,-14.3,429.9,684.8,24.6,316.9,44.5,55.2,158,124.1
59791,54,32.1267792,-80.9272194,6871.4,21975,95.5,204.49,0.33,8.2,16.3,29.9,13.6,17.7,-2.05,-19.7,323,-14.1,428.4,682.6,25.6,315.2,44.5,56.4,158,124.6
59792,54,32.1275225,-80.9266898,6897.7,22067,94.7,203.13,0.328,8.5,15.53,29.8,14.2,18.43,-1.1,-19.8,323.2,-14.4,426.7,682.1,26.6,314.1,44.5,57.8,158,125.1
59793,54,32.1282596,-80.9261555,6924.9,22157,93.8,201.77,0.326,8.8,15.13,29.8,14.7,19.13,-0.29,-20.1,323.2,-14.7,425,679.3,27.1,313.9,44.5,58.9,158,125.1
59794,54,32.128989,-80.9259612,6953,22257,92.9,200.41,0.324,9,15.07,30,14.9,19.73,0.66,-20.4,323.2,-15.1,423.2,678.3,27.4,314.2,44.5,60.1,158,124.9
59795,54,32.1297099,-80.9254218,6982.1,22355,92,198.27,0.321,9.2,15.28,30.2,14.9,20.21,1.68,-20.3,323.7,-15.1,421.5,676,27.1,314.2,44.5,61.1,158.1,124.7
59796,54,32.1304273,-80.9248842,7012.2,22460,91.2,195.74,0.317,9.3,15.61,30.6,14.9,20.54,2.71,-20.6,323.8,-15.5,419.6,673.3,26.7,313.7,44.5,62.1,158.1,124.4
59797,54,32.1311303,-80.9243466,7042.9,22557,90.5,193.41,0.313,9.3,15.96,31,15,20.76,3.91,-21,323.6,-16.1,417.8,672.1,26.4,313.2,44.5,63.1,158.1,124.5
59798,54,32.131824,-80.9238129,7074,22655,89.8,191.27,0.31,9.2,16.13,31.6,15.4,21.01,4.1,-20.9,324.1,-16.1,416.1,669.9,26.7,312.5,44.5,63.4,158.1,124
59799,54,32.1325093,-80.9232831,7105.2,22760,89.4,190.3,0.308,8.9,16.22,32,15.8,19.53,3.39,-21.2,324.2,-16.4,414.2,667.5,27.1,312.2,44.5,61.9,158.1,125.7
59800,54,32.1331919,-80.9227573,7136.2,22865,89.8,189.72,0.307,8,16.18,32.2,16,16.63,2.55,-21.5,324.2,-16.7,412.4,667.5,27.2,310.7,44.5,59.5,158.1,129.1
59801,54,32.1338796,-80.9222357,7166.8,22945,90.7,189.72,0.307,6.5,15.99,32.1,16.1,13.27,1.2,-21.8,324.1,-17,411,665.9,27.3,308.6,44.5,56.3,158.1,132.3
59802,54,32.1345771,-80.921718,7195.1,22995,91.8,188.94,0.306,5.2,16,31.9,15.9,12.22,-0.34,-22.2,323.8,-17.5,410.1,662.4,26.7,305.5,44.5,54.4,158.1,132.3
59803,54,32.1352826,-80.9212025,7219.3,23040,92.5,188.75,0.306,4.9,16.35,31.7,15.4,12.64,-0.63,-22.3,323.9,-17.6,409.3,661.9,25.7,304.2,44.5,54.4,158.1,131.3
59804,54,32.1359978,-80.9206889,7238.7,23092,93,189.72,0.308,4.8,16.66,31.6,14.9,12.25,0.03,-22.3,324.1,-17.6,408.4,661.9,25.2,304.6,44.5,54.6,158.1,131.7
59805,54,32.1367137,-80.9201762,7255.6,23145,93.6,191.27,0.31,4.7,16.59,31.6,14.9,12.15,0.58,-22.7,323.8,-17.9,407.5,662.4,25.5,304.8,44.5,55,158.1,132.4
59806,54,32.1374342,-80.9196661,7272,23192,94.1,192.05,0.311,4.7,16.26,31.5,15.3,12.31,0.54,-22.8,323.8,-17.9,406.6,660.9,26,304.2,44.5,55.1,158.1,132.6
59807,54,32.1381586,-80.9191584,7288,23245,94.6,193.41,0.314,4.8,16.12,31.5,15.4,12.56,2.4,-23,323.8,-18.1,405.7,660.1,26.4,304.4,44.5,56.6,158.1,134
59808,54,32.1388855,-80.9186558,7304,23295,95.1,194.38,0.315,5,16.36,31.9,15.5,12.79,6.19,-22.8,324.2,-17.8,404.8,658.7,26.8,304.6,44.5,59.4,158.1,137
59809,54,32.1396131,-80.9181636,7320.3,23352,95.8,194.97,0.317,5.2,17.08,32.5,15.3,12.91,8.25,-23,324.2,-18,403.8,658.2,26.7,304.4,44.5,60.8,158.1,138.1
59810,54,32.14034,-80.9176859,7337.1,23410,96.5,195.74,0.318,5.3,18.36,33.3,14.9,12.83,10.18,-23.1,324.3,-18.1,402.8,657.6,26,305.1,44.5,61.9,158.2,138.6
59811,54,32.1410653,-80.9168829,7354.5,23467,97.3,196.52,0.319,5.3,19.92,34.2,14.3,12.67,11.84,-23.2,324.4,-18.1,401.8,656.6,24.9,305.8,44.5,62.9,158.2,138.6
59812,54,32.1417948,-80.9164458,7372.2,23522,98.2,197.3,0.32,5.3,21.48,35.4,13.8,12.63,12.84,-23.3,324.5,-18.2,400.9,653.9,24.4,306.1,44.5,63.5,158.2,137.5
59813,54,32.1425136,-80.9156865,7390.1,23580,99.1,198.08,0.322,5.4,22.93,36.6,13.6,12.89,12.68,-23.2,324.9,-18,399.9,654.8,24.1,306.4,44.5,63.6,158.2,134.7
59814,54,32.143227,-80.9152936,7408.1,23640,99.8,198.66,0.323,5.6,24.35,37.8,13.4,13.36,11.5,-23.8,324.3,-18.6,398.9,653.4,23.8,306.8,44.5,63.1,158.2,130.4
59815,54,32.1439339,-80.9145789,7426.3,23702,100.4,199.24,0.324,5.9,25.64,38.9,13.3,13.93,10.5,-23.9,324.4,-18.7,397.8,652.4,23.5,307.4,44.5,62.6,158.2,126.6
59816,54,32.1446333,-80.9138831,7445,23765,100.8,199.24,0.324,6.2,26.56,39.9,13.3,14.7,7.21,-23.8,324.8,-18.6,396.7,650.6,23.7,307.3,44.5,60.3,158.2,121.4
59817,54,32.1453255,-80.9132005,7464.6,23835,100.8,199.63,0.324,6.6,27.05,40.6,13.6,15.67,4.4,-23.9,325,-18.7,395.5,649.1,24.1,308.3,44.5,58.3,158.2,117.7
59818,54,32.1460107,-80.9125257,7485.2,23910,100.6,199.83,0.325,7,27.05,41.2,14.1,16.2,4.21,-24.1,325,-18.8,394.3,647.1,25.1,309.1,44.5,58.4,158.2,116.8
59819,54,32.1466894,-80.9118563,7506.9,23990,100.4,199.24,0.324,7.2,26.78,41.6,14.8,16.06,4.26,-24.2,325.2,-19,392.9,646.7,26.3,308.7,44.5,58.5,158.2,117.4
59820,54,32.1473634,-80.9111921,7530,24067,100.5,198.66,0.324,7,26.75,42,15.2,15.34,4.16,-24.3,325.4,-19.1,391.6,647.6,26.9,308,44.5,58,158.2,118.4
59821,54,32.1480357,-80.9101906,7554.1,24142,100.8,198.66,0.324,6.6,27.17,42.3,15.1,14.1,4.11,-24.5,325.4,-19.3,390.3,644.2,26.8,307.7,44.5,57.3,158.2,119.6
59822,54,32.148709,-80.9095391,7577.9,24215,101.5,198.85,0.324,5.9,27.93,42.5,14.5,12.37,4.26,-24.7,325.4,-19.5,389.1,642.7,25.9,307,44.5,56.4,158.2,121
59823,54,32.1493857,-80.9088959,7600.7,24272,102.4,199.24,0.325,5.1,28.66,42.6,13.9,10.84,4.42,-24.9,325.4,-19.7,388.1,641.5,24.9,305.9,44.5,55.6,158.2,122.1
59824,54,32.1500671,-80.9082625,7621.6,24320,103.5,199.83,0.326,4.4,29.05,42.8,13.8,9.76,4.49,-25.3,325.1,-20.1,387.3,641.4,24.7,304.3,44.5,55.1,158.2,123
59825,54,32.1507535,-80.9072966,7639.9,24362,104.6,200.99,0.327,3.8,28.94,43,14.1,9.03,4.45,-25.1,325.5,-19.8,386.6,639.8,25.5,303.3,44.5,54.6,158.3,123.9
59826,54,32.1514451,-80.906685,7655.7,24400,105.8,202.35,0.33,3.5,28.6,43.2,14.6,8.66,4.06,-25.3,325.4,-19.9,385.9,640.8,26.7,302.3,44.5,54.1,158.3,124.5
59827,54,32.1521421,-80.9057408,7669.5,24432,106.9,203.71,0.332,3.3,28.57,43.4,14.8,8.47,3.42,-25.6,325.2,-20.2,385.4,638.5,27.4,301.6,44.5,53.5,158.3,124.4
59828,54,32.1528501,-80.9051502,7681.9,24467,108,205.46,0.335,3.3,29.06,43.5,14.4,8.38,2.93,-26,324.8,-20.4,384.8,639.5,27,301.4,44.5,53,158.3,123.6
59829,54,32.1535583,-80.9042256,7693.5,24505,109.1,207.02,0.338,3.3,29.79,43.6,13.8,8.34,2.8,-25.6,325.4,-19.9,384.2,637.6,26,301,44.5,52.8,158.3,122.7
59830,54,32.1542717,-80.9036543,7704.8,24540,110.1,208.96,0.341,3.4,30.16,43.8,13.6,8.42,2.84,-25.6,325.6,-19.8,383.6,636.9,26,301.3,44.5,52.8,158.3,122.3
59831,54,32.1549897,-80.9027496,7716.1,24577,111.1,210.71,0.344,3.5,29.98,44,14,8.67,2.72,-25.7,325.6,-19.8,383,636.5,26.9,301.3,44.5,52.9,158.3,122.1
59832,54,32.155712,-80.9018539,7727.4,24612,112,213.43,0.348,3.7,29.53,44.1,14.6,8.99,2.45,-25.7,325.8,-19.7,382.4,636.2,28.2,302.4,44.5,52.9,158.3,122.2
59833,54,32.1564382,-80.9009662,7739.2,24655,112.8,215.57,0.352,4,29.23,44.2,15,9.3,1.99,-25.7,325.9,-19.6,381.7,635.6,29.2,303,44.5,52.7,158.3,121.9
59834,54,32.1571682,-80.9000852,7751.6,24697,113.4,217.71,0.355,4.2,29.32,44.3,14.9,9.53,1.54,-25.7,326.1,-19.4,381,635.1,29.4,304.1,44.5,52.4,158.3,121.3
59835,54,32.1579017,-80.8992101,7764.7,24747,114.1,219.85,0.359,4.4,29.64,44.3,14.7,9.66,1.29,-26,325.9,-19.7,380.2,633.6,29,305,44.5,52.3,158.3,120.7
59836,54,32.1586383,-80.8986834,7778.8,24795,114.7,221.99,0.362,4.6,29.82,44.4,14.6,9.73,1.2,-26,326.1,-19.6,379.4,634,29,306.1,44.5,52.2,158.3,120.4
59837,54,32.1593783,-80.8978191,7793.5,24847,115.3,223.54,0.364,4.7,29.62,44.4,14.8,9.83,1.1,-25.8,326.6,-19.2,378.5,632.3,29.6,306.4,44.5,52.2,158.3,120.4
59838,54,32.1601215,-80.8969597,7808.9,24895,115.9,225.1,0.367,4.8,29.14,44.5,15.3,9.91,0.71,-25.6,327,-18.9,377.7,631.9,31,306.6,44.5,52,158.3,120.7
59839,54,32.1608682,-80.8961038,7824.7,24950,116.3,226.26,0.37,4.9,28.73,44.4,15.7,9.96,-0.76,-25.6,327.3,-18.9,376.8,631.6,31.7,306.7,44.5,50.8,158.3,120.4
59840,54,32.1616195,-80.8952494,7840.9,25000,116.8,227.43,0.371,5,28.71,44.2,15.5,9.95,-2.17,-25.9,327.1,-19.1,376,630.2,31.5,306.8,44.5,49.6,158.4,119.9
59841,54,32.1623758,-80.8940515,7857.5,25055,117.2,229.37,0.375,5,28.64,44,15.3,9.85,-3.06,-26.1,327,-19.1,375.1,628.7,31.4,307.8,44.5,48.7,158.4,119.7
59842,54,32.1631383,-80.8931954,7874.3,25110,117.6,230.54,0.376,5,28.22,43.7,15.5,9.76,-3.56,-26.3,327,-19.3,374.2,628.7,31.8,307.7,44.5,48.3,158.4,120.1
59843,54,32.1639072,-80.8923368,7891.2,25162,117.9,232.09,0.379,5,27.42,43.3,16,9.72,-3.48,-26.5,326.9,-19.4,373.3,627.6,32.8,308,44.5,48.5,158.4,120.9
59844,54,32.1646911,-80.8914777,7908.1,25215,118.2,233.26,0.381,5.1,26.53,43,16.5,9.73,-3.49,-26.3,327.4,-19.2,372.5,626.4,34.2,307.8,44.5,48.7,158.4,121.9
59845,54,32.1654728,-80.8909555,7925,25272,118.5,234.82,0.384,5.1,25.91,42.6,16.7,9.73,-3.54,-26.1,327.9,-18.8,371.6,625.5,34.8,308,44.5,48.8,158.4,122.5
59846,54,32.1662608,-80.8900862,7942.1,25325,118.7,235.79,0.386,5.2,25.85,42.3,16.4,9.7,-3.2,-26.3,327.9,-19,370.7,627.1,34.4,308.4,44.5,49,158.4,122.7
59847,54,32.1670546,-80.8892136,7959.3,25380,119,236.57,0.387,5.3,26.23,42,15.8,9.98,-2.42,-26.4,328,-19,369.8,624.7,33.1,308.7,44.4,49.8,158.4,122.4
59848,54,32.1678531,-80.8883392,7976.8,25432,119.2,236.95,0.387,5.5,26.35,41.8,15.5,10.57,-1.49,-26.4,328.2,-19,369,624.4,32.5,308.8,44.4,50.9,158.4,122.1
59849,54,32.1686541,-80.8874632,7994.4,25492,119.2,237.15,0.388,5.9,25.89,41.7,15.8,11.39,-1.59,-26.8,327.9,-19.3,368,623.2,33.3,308.6,44.4,51.3,158.4,121.7
59850,54,32.1694563,-80.8865845,8012.7,25560,119,236.95,0.388,6.4,25.05,41.5,16.5,12.13,-2.14,-26.7,328.3,-19.3,366.9,621.7,34.6,308,44.4,51.4,158.4,121.6
59851,54,32.1702587,-80.8857012,8032.1,25627,118.7,236.95,0.388,6.8,24.58,41.4,16.8,12.66,-1.18,-26.8,328.4,-19.4,365.8,621.2,35.3,308.1,44.4,52.6,158.4,121.9
59852,54,32.171067,-80.8848167,8053,25707,118.5,236.37,0.387,7.1,24.75,41.4,16.6,12.95,0.11,-27.1,328.4,-19.7,364.5,618.3,34.9,308.1,44.4,53.8,158.4,122
59853,54,32.1718671,-80.8839289,8075.4,25785,118.3,235.4,0.386,7.2,25.25,41.4,16.1,13.07,0.08,-27,328.8,-19.7,363.3,618.6,33.7,308,44.4,53.6,158.4,121.2
59854,54,32.1726659,-80.8833839,8099,25865,118.2,235.4,0.386,7.3,25.51,41.4,15.9,13.16,-0.43,-27.2,328.9,-19.9,362,616.4,33.2,308.4,44.4,53.3,158.5,120.7
59855,54,32.1734633,-80.8824948,8123.2,25942,118,235.2,0.385,7.4,25.03,41.4,16.4,13.36,-1.07,-27.4,328.9,-20.1,360.8,616.9,34.2,308.2,44.4,52.9,158.5,120.7
59856,54,32.1742595,-80.881603,8147.6,26022,117.7,235.2,0.386,7.5,24.23,41.3,17.1,13.66,-1.88,-27.6,329,-20.3,359.5,614,35.6,308,44.4,52.6,158.5,120.9
59857,54,32.1750545,-80.8807067,8172.3,26102,117.2,235.2,0.386,7.7,23.7,41.2,17.5,13.93,-1.87,-27.8,329.1,-20.5,358.3,614.8,36.4,308.4,44.4,52.8,158.5,121.2
59858,54,32.1758476,-80.8798052,8197.4,26185,116.7,235.4,0.386,7.8,23.6,41.1,17.5,14.17,-1.26,-28,329.1,-20.7,357,612.5,36.4,309.2,44.4,53.5,158.5,121.3
59859,54,32.1766384,-80.8792428,8223,26272,116.3,235.01,0.386,7.9,23.87,41.1,17.2,14.36,-0.61,-28.3,329.1,-21,355.6,610.9,35.8,309.8,44.4,54.1,158.5,121.1
59860,54,32.1774341,-80.8783369,8249.1,26360,115.9,234.62,0.385,8,24.18,41.1,16.9,14.47,0.14,-28.4,329.3,-21.2,354.2,609.8,35.1,310.4,44.4,54.7,158.5,121
59861,54,32.1782184,-80.8774265,8275.6,26442,115.5,234.62,0.385,8.1,24.2,41.2,17,14.55,0.09,-28.7,329.3,-21.4,352.9,607.3,35.3,311.1,44.4,54.7,158.5,120.8
59862,54,32.178999,-80.8768578,8302.5,26532,115,234.62,0.385,8.1,23.97,41.3,17.3,14.69,-0.41,-28.9,329.4,-21.6,351.6,607.7,36,311.7,44.4,54.4,158.5,120.7
59863,54,32.1797758,-80.8759431,8329.6,26617,114.5,234.04,0.385,8.2,23.66,41.3,17.6,14.89,-0.84,-29.3,329.2,-22.1,350.2,605.6,36.5,311.7,44.4,54.2,158.5,120.6
59864,54,32.1805491,-80.8750248,8356.9,26707,113.9,233.84,0.384,8.3,23.5,41.3,17.8,15.12,-1.27,-29.2,329.7,-22,348.8,603.5,36.8,312.3,44.4,54,158.5,120.4
59865,54,32.1813182,-80.8744452,8384.4,26795,113.3,233.26,0.383,8.4,23.47,41.3,17.8,15.33,-1.51,-29.5,329.7,-22.3,347.5,602.3,36.8,312.8,44.4,53.9,158.5,120.1
59866,54,32.1820833,-80.8735176,8412.2,26887,112.7,232.48,0.383,8.4,23.33,41.2,17.9,15.53,-1.65,-29.4,330.2,-22.3,346,601.4,36.7,313,44.4,53.9,158.5,119.9
59867,54,32.1828441,-80.872928,8440.3,26977,112,232.09,0.382,8.5,23.02,41.2,18.2,15.77,-1.86,-29.9,329.9,-22.8,344.7,600,37.3,313.4,44.4,53.9,158.5,119.9
59868,54,32.1836083,-80.8719926,8468.6,27070,111.2,231.51,0.381,8.6,22.59,41.2,18.6,15.98,-1.94,-30.1,330,-23.1,343.2,598.4,38,313.7,44.4,54.1,158.6,120.1
59869,54,32.1843598,-80.8713911,8497.3,27165,110.5,230.35,0.379,8.6,22.15,41.1,19,15.83,-1.23,-30.1,330.4,-23.1,341.8,597.3,38.5,313.4,44.4,54.7,158.6,121.1
59870,54,32.1851072,-80.8704419,8526.2,27260,109.9,229.57,0.379,8.5,21.69,41.1,19.5,15.61,-0.48,-30.5,330.2,-23.6,340.4,594.2,39.3,313.3,44.4,55.4,158.6,122.2
59871,54,32.1858508,-80.8698328,8555.3,27347,109.4,228.4,0.377,8.3,21.33,41.2,19.9,15.49,0.2,-30.5,330.6,-23.6,339,594.6,40,312.8,44.4,56,158.6,123.2
59872,54,32.1865902,-80.8688784,8584.1,27435,108.9,227.82,0.376,8.2,21.24,41.3,20.1,15.47,0.94,-30.8,330.6,-23.9,337.7,592.3,40.2,313,44.4,56.6,158.6,123.7
59873,54,32.1873248,-80.8682664,8612.4,27527,108.5,226.85,0.375,8.2,21.29,41.5,20.2,15.61,1.37,-31,330.7,-24.2,336.4,592,40.3,312.9,44.4,57,158.6,123.7
59874,54,32.1880536,-80.8673111,8640.2,27612,108,225.87,0.373,8.2,21.36,41.7,20.4,15.84,1.7,-31.4,330.5,-24.7,335.1,589.6,40.4,313.1,44.4,57.4,158.6,123.6
59875,54,32.1887761,-80.8666992,8667.9,27700,107.5,224.12,0.37,8.3,21.35,42,20.7,16.13,1.97,-31.7,330.5,-25.1,333.8,588.9,40.7,312.6,44.4,57.8,158.6,123.4
59876,54,32.1894996,-80.8657476,8695.6,27790,106.9,222.18,0.367,8.3,21.34,42.3,21,16.45,2.15,-31.6,331,-25.1,332.4,587.2,40.9,312.1,44.4,58.1,158.6,123.1
59877,54,32.1902075,-80.8651367,8723.4,27880,106.3,220.04,0.364,8.4,21.46,42.6,21.2,16.79,2.35,-32,330.8,-25.6,331.1,585.7,40.8,311.6,44.4,58.5,158.6,122.6
59878,54,32.1909074,-80.8641833,8751.3,27970,105.7,217.71,0.36,8.4,21.7,43,21.3,17.1,2.64,-32.2,330.9,-25.9,329.8,584,40.7,311.1,44.4,58.8,158.6,122
59879,54,32.1915988,-80.8635742,8779.5,28060,105.1,215.38,0.356,8.5,21.97,43.4,21.4,17.39,2.99,-32.4,331,-26.3,328.4,582.7,40.5,310.6,44.4,59.2,158.6,121.5
59880,54,32.1922814,-80.8629667,8807.8,28155,104.4,213.04,0.353,8.5,22.14,43.9,21.7,17.68,3.06,-32.6,331.1,-26.6,327.1,581.4,40.7,310.2,44.4,59.4,158.6,120.9
59881,54,32.1929549,-80.8620171,8836.3,28245,103.8,210.32,0.348,8.5,22.26,44.3,22,18.01,1.7,-32.9,331.1,-27,325.7,579.7,40.8,309.4,44.4,58.4,158.6,119.6
59882,54,32.1936198,-80.8614102,8864.8,28337,103,207.6,0.344,8.4,22.43,44.6,22.1,18.35,0.02,-32.8,331.6,-27.1,324.4,579.5,40.5,308.8,44.4,57,158.6,118.1
59883,54,32.1942765,-80.8604565,8893.3,28427,102,205.46,0.341,8.5,22.59,44.7,22.1,18.76,-1.93,-33.3,331.3,-27.7,323.1,577.5,40,308.9,44.4,55.4,158.7,116.7
59884,54,32.1949322,-80.8598411,8921.7,28520,100.8,202.74,0.336,8.4,22.55,44.7,22.1,19.15,-5.76,-33.5,331.5,-28.1,321.7,576.9,39.5,308.6,44.4,52.1,158.7,115.4
59885,54,32.1955755,-80.8588685,8950.1,28615,99.5,201.19,0.334,8.4,22.14,44.3,22.2,19.58,-9.34,-33.7,331.6,-28.3,320.4,574.9,39.2,309,44.4,49.1,158.7,114.9
59886,54,32.1962142,-80.8582213,8978.6,28705,97.8,199.44,0.331,8.4,20.83,43.7,22.9,20.13,-12.52,-33.9,331.7,-28.7,319.1,573.5,40,309,44.4,46.9,158.7,115.4
59887,54,32.1968489,-80.8575502,9006.8,28792,95.8,198.47,0.33,8.5,18.52,42.8,24.4,20.56,-14.8,-34.3,331.5,-29.1,317.8,571.2,42.1,309.1,44.4,45.8,158.7,116.9
59888,54,32.1974796,-80.8568513,9035.1,28890,93.7,197.3,0.328,8.4,15.67,41.8,26.2,19.56,-14.1,-34,332.4,-28.8,316.4,570.7,44.8,308.5,44.4,47.3,158.7,120.2
59889,54,32.1981079,-80.8561269,9063.5,28977,92.2,195.94,0.326,7.9,12.94,40.9,28,17.47,-13.45,-34.3,332.3,-29.2,315.2,569.6,47.4,307.1,44.4,47.9,158.7,124.6
59890,54,32.1987375,-80.8557262,9091.9,29065,91.4,195.16,0.325,7,11.25,39.9,28.7,14.79,-13.11,-34.3,332.7,-29.3,313.9,568.4,48.3,306,44.4,47.4,158.7,128.6
