Time_Start,Day_Of_Year,Latitude,Longitude,GPS_Altitude,Pressure_Altitude,Ground_Speed,True_Air_Speed,Mach_Number,Vertical_Speed,True_Heading,Track_Angle,Drift_Angle,Pitch_Angle,Roll_Angle,Static_Air_Temp,Potential_Temp,Total_Air_Temp,Static_Pressure,Cabin_Pressure,Wind_Speed,Wind_Direction,Solar_Zenith_Angle,Aircraft_Sun_Elevation,Sun_Azimuth,Aircraft_Sun_Azimuth
62941,15,34.6328363,-118.0745999,761.5,2345,0.1,47.43,0.072,0,265.12,265.1,0,4.44,0.68,13.3,292.4,13.6,930.3,927.4,24.3,265.1,66.7,25.4,140.8,-122.2
62942,15,34.6328367,-118.0745993,761.5,2345,0.1,47.43,0.072,0,265.13,265.1,0,4.47,0.71,13.2,292.3,13.5,930.3,927.9,24.3,265.1,66.6,25.3,140.8,-122.2
62943,15,34.6328368,-118.0745955,761.5,2345,0.7,47.62,0.072,0,265.15,265.1,0,4.5,0.62,14.3,293.5,14.6,930.3,929.6,23.8,265.2,66.6,25.4,140.8,-122.2
62944,15,34.6328361,-118.0745813,761.5,2345,2.1,47.82,0.072,0,265.06,265.1,0,4.5,0.57,17.9,297.1,18.2,930.3,928.1,22.5,265.1,66.6,25.5,140.8,-122.1
62945,15,34.6328338,-118.074547,761.5,2347,4.6,48.01,0.072,0,265.18,265.2,0,4.67,0.55,19.4,298.7,19.7,930.2,927.6,20.1,265.2,66.6,25.6,140.8,-122.2
62946,15,34.6328289,-118.074821,761.5,2347,8.6,48.01,0.072,0.1,265.46,265.5,0,4.69,0.4,19.5,298.8,19.8,930.2,930.8,16.1,265.4,66.6,25.8,140.8,-122.5
62947,15,34.6328207,-118.0750462,761.5,2347,13.4,24.88,0.037,0.1,265.85,265.9,0,4.8,0.42,18.2,297.4,18.3,930.2,933.4,0.6,87,66.6,25.8,140.9,-122.8
62948,15,34.6328092,-118.0748762,761.5,2347,18.3,33.24,0.05,0.1,266.2,266.2,0,4.66,0.41,16.1,295.3,16.3,930.2,932.2,1.2,86.2,66.6,25.8,140.9,-123.2
62949,15,34.6327957,-118.075339,761.6,2347,23.1,41.79,0.063,0.1,267.01,267,0,4.69,0.27,13.7,292.8,14,930.2,930.8,1.6,86.9,66.6,26,140.9,-124.1
62950,15,34.6327814,-118.0754045,761.6,2345,28.1,53.65,0.082,0.1,266.87,266.5,-0.3,4.76,0.14,11.4,290.5,11.8,930.3,930.3,0.5,66.9,66.6,26.1,140.9,-123.9
62951,15,34.6327632,-118.0757594,761.7,2342,33.1,61.23,0.093,0.1,265.89,265.8,-0.1,4.72,0.58,10.1,289.2,10.6,930.3,930.5,1.6,84,66.6,25.7,140.9,-122.9
62952,15,34.6327394,-118.076404,761.7,2340,38.1,70.37,0.108,0.1,266.26,265.7,-0.6,4.64,1.33,8.7,287.7,9.3,930.4,930.9,1.9,75.2,66.6,25,140.9,-123.1
62953,15,34.6327125,-118.0766512,761.8,2335,43,79.89,0.123,0.1,266.19,265.7,-0.5,4.46,0.47,7.4,286.4,8.2,930.6,931.7,1.9,75.2,66.6,25.6,140.9,-123.3
62954,15,34.6326822,-118.0771883,761.8,2332,47.8,89.03,0.137,0.4,266.78,265.8,-1,5.16,0.42,6.5,285.5,7.5,930.7,931.9,2.2,64.5,66.6,26.1,140.9,-123.6
62955,15,34.63265,-118.0776732,761.9,2330,52.5,96.61,0.149,1.7,266.77,266,-0.8,7.89,0.4,6.3,285.2,7.6,930.8,932.8,2.9,72.6,66.6,27.6,140.9,-122.4
62956,15,34.6326158,-118.078453,762.2,2340,56.7,104.58,0.161,4.3,266.84,266,-0.8,10.22,0.3,6,285,7.5,930.4,933.8,3,70.8,66.6,28.9,140.9,-121.4
62957,15,34.6325795,-118.0788499,763.2,2367,59.7,114.49,0.176,8.9,267.49,266.1,-1.5,14.43,0.12,5.7,284.7,7.4,929.5,932,1.6,25.9,66.6,31.4,140.9,-120
62958,15,34.6325422,-118.0795646,766.3,2412,61.2,119.35,0.184,15.1,268.69,266.1,-2.6,19.51,0.3,5,284.2,6.9,928,931.5,2.8,353.3,66.6,34,140.9,-118.4
62959,15,34.632506,-118.08027,773.2,2470,61.5,121.49,0.187,20.4,269.99,266.4,-3.6,22.19,1.54,5.1,284.4,7,926,929.9,4,343.8,66.6,34.6,140.9,-118.2
62960,15,34.6324726,-118.0809702,785.7,2547,62.2,124.6,0.192,22.8,270.44,266.8,-3.7,22.29,1.54,4.5,284.1,6.5,923.3,926.3,4.4,333.3,66.6,34.8,140.9,-118.6
62961,15,34.6324421,-118.0816613,804.1,2625,63,127.32,0.196,24.3,270.47,267,-3.4,23.45,0.97,4.4,284.2,6.5,920.7,924.2,4.6,326,66.6,35.8,140.9,-117.9
62962,15,34.6324136,-118.0823467,826.4,2712,63.3,130.04,0.2,26.3,270.38,267.2,-3.2,24.6,0.43,3.9,283.9,6.1,917.8,921,5.1,313.9,66.6,36.8,140.9,-117
62963,15,34.6323857,-118.083029,850.2,2805,63.7,130.43,0.201,27.6,270.41,267.3,-3.2,25.19,0.43,4,284.3,6.2,914.6,917.3,4.9,315.1,66.6,37.1,140.9,-116.6
62964,15,34.6323587,-118.0837065,875.9,2902,64.2,130.63,0.202,28,270.57,267.4,-3.2,24.99,0.86,3.8,284.4,6,911.4,916.1,4.7,319.5,66.6,36.7,140.9,-117
62965,15,34.6323332,-118.0843762,903.5,2995,65,131.21,0.203,27.9,270.25,267.6,-2.7,24.65,0.73,3.5,284.4,5.7,908.3,911.3,4,319.7,66.6,36.5,140.9,-116.9
62966,15,34.6323093,-118.0850366,931.7,3090,65.8,134.32,0.207,28,269.28,267.7,-1.5,24.36,0.19,3.5,284.7,5.9,905.1,909.8,3.8,297.9,66.6,36.5,140.9,-116
62967,15,34.6322856,-118.0860327,960,3182,66.4,136.46,0.211,28.3,268.5,267.7,-0.8,24.4,-0.31,4.2,285.7,6.6,902,903.9,3.9,282.2,66.6,36.7,140.9,-115.1
62968,15,34.6322613,-118.0866808,988.2,3275,66.6,137.62,0.212,29.4,268.61,267.6,-1,25.78,0.01,4.4,286.1,6.9,898.9,900.2,4.4,284.2,66.6,37,140.9,-114.3
62969,15,34.6322366,-118.0873304,1016.7,3377,66.2,137.43,0.212,31.1,269.63,267.7,-2,27.05,0.8,4.7,286.8,7.1,895.5,898.4,5.1,295.8,66.6,37.2,140.9,-114.6
62970,15,34.6322136,-118.0879854,1045.7,3485,65.7,138.98,0.214,32.5,270.81,268,-2.9,27.68,1.99,5.1,287.5,7.7,892,895.7,6.7,299.5,66.6,36.9,140.9,-115.6
62971,15,34.6321945,-118.0886459,1076.7,3597,65.2,140.15,0.215,33.4,270.99,268.4,-2.6,27.84,2.58,6,288.8,8.6,888.3,891.1,7.6,293.9,66.6,36.5,140.9,-115.8
62972,15,34.6321799,-118.0893093,1109,3710,65.1,140.73,0.216,33.4,270.65,268.7,-1.9,27.42,2.43,6.4,289.5,9,884.6,886.2,7.7,287.4,66.6,36.3,140.9,-115.7
62973,15,34.6321677,-118.0903149,1142.3,3820,65.3,140.93,0.216,32.8,270.51,268.9,-1.6,27.04,2.09,6.5,290,9.2,881,884.1,7.5,284.8,66.6,36.4,140.9,-115.7
62974,15,34.6321576,-118.0909748,1176.8,3922,65.5,139.96,0.215,32.5,271.24,269.1,-2.1,27.05,2.54,6.6,290.4,9.2,877.6,880.9,7,291.7,66.6,36.3,140.9,-116.5
62975,15,34.6321503,-118.0916346,1210,4032,65.3,140.15,0.215,32.8,272.57,269.5,-3.1,27.41,3.25,6.6,290.7,9.2,874.1,877.7,7.7,299.5,66.6,36.4,140.9,-117.8
62976,15,34.6321472,-118.0922973,1242.8,4137,64.9,139.57,0.215,33.4,273.96,270,-4,27.91,3.73,6.1,290.5,8.7,870.6,875.2,8.4,306.4,66.6,36.8,140.9,-118.9
62977,15,34.6321496,-118.0929658,1275.5,4252,64.4,139.57,0.215,34,275.16,270.5,-4.7,28.39,4.15,5.8,290.6,8.4,867,868.8,9.2,309.7,66.6,37.2,140.9,-119.9
62978,15,34.6321576,-118.0936378,1308.6,4370,64.4,139.76,0.215,33.4,275.87,271.1,-4.8,27.17,4.68,5.8,290.9,8.4,863.1,865.5,9.4,310.6,66.6,36.5,140.9,-121.5
62979,15,34.6321709,-118.0943039,1342.4,4480,65.5,139.96,0.215,31,276.3,271.5,-4.8,24.26,5.02,6.1,291.6,8.7,859.6,861.8,8.7,315.5,66.6,34.9,140.9,-123.7
62980,15,34.6321883,-118.0952984,1376.3,4580,67,139.76,0.215,27,276.71,271.9,-4.8,20.11,5.28,6.2,292,8.8,856.4,857.2,7.6,324.3,66.6,32.6,141,-126.4
62981,15,34.6322112,-118.0959321,1408.5,4657,68.7,138.4,0.213,22,277.05,272.4,-4.7,15.62,5.83,6.5,292.6,9.1,853.9,853.6,6.2,341,66.6,29.6,141,-128.8
62982,15,34.6322399,-118.0965476,1437.2,4720,70.4,137.82,0.212,16.8,276.75,272.9,-3.9,11.32,6.55,6.8,293.1,9.3,851.9,849.8,4.8,358.8,66.6,26.4,141,-130.2
62983,15,34.6322747,-118.0974886,1461.4,4757,72.1,137.82,0.212,12.1,275.93,273.4,-2.6,8.43,6.9,6.3,292.7,8.8,850.8,847.7,3.4,25.5,66.6,24.1,141,-130.4
62984,15,34.6323167,-118.0980705,1480.3,4777,73.2,137.82,0.212,10.1,275.65,274.1,-1.6,8.5,7.06,6.7,293.2,9.2,850.1,845.3,3,54.6,66.6,24,141,-130.1
62985,15,34.6323688,-118.098989,1494.1,4807,73.6,137.82,0.211,10.8,276.28,275,-1.3,10.29,7.36,6.9,293.5,9.4,849.2,845.3,3.1,64.8,66.6,25,141,-130
62986,15,34.6324334,-118.0999081,1504.6,4842,73.4,137.62,0.211,13,277.54,276.2,-1.4,12.15,7.89,6.7,293.4,9.2,848,843.8,3.1,63.9,66.6,26,141,-130.6
62987,15,34.6325116,-118.1004885,1514.8,4895,73.2,137.82,0.211,13.8,278.6,277.4,-1.3,11.43,8.46,6.8,293.6,9.3,846.4,841.3,2.8,64.7,66.6,25.4,141,-131.8
62988,15,34.6326024,-118.101415,1526.7,4940,73.2,137.62,0.212,13.1,279.52,278.5,-1.1,10.82,8.85,6.8,293.8,9.3,845,840.5,2.7,70.9,66.6,24.9,141,-132.9
62989,15,34.632706,-118.1019995,1540.2,4975,73.3,137.62,0.211,12.8,280.44,279.6,-0.9,10.95,9.51,7,294.1,9.6,843.8,838.5,2.7,77.1,66.6,24.7,141,-133.6
62990,15,34.6328238,-118.10293,1553.5,5015,73.2,137.82,0.211,13.1,281.38,280.9,-0.5,11.41,10.01,7.1,294.3,9.6,842.6,837,2.4,86.4,66.6,24.9,141,-134.3
62991,15,34.6329564,-118.1038651,1566.3,5060,73.1,138.98,0.213,13.2,282.51,282.3,-0.3,11.29,10.56,6.8,294.1,9.3,841.2,836.5,1.6,93,66.6,24.7,141,-135.4
62992,15,34.6331041,-118.1044615,1579.1,5102,73.1,139.57,0.214,13,283.91,283.7,-0.3,10.83,11.13,7.1,294.6,9.7,839.8,835.1,1.3,92.3,66.6,24.4,141,-136.8
62993,15,34.6332676,-118.1054054,1592.2,5145,73.2,140.54,0.215,12.7,285.51,285.1,-0.5,10.27,11.63,7,294.6,9.6,838.5,833.2,1,75.3,66.6,24.1,141,-138.4
62994,15,34.6334475,-118.1060103,1605.3,5185,73.4,141.71,0.217,12.2,287.17,286.6,-0.7,9.63,11.64,7.2,295,9.8,837.2,833.1,0.9,51.4,66.6,24,141,-140.2
62995,15,34.6336441,-118.1069624,1618,5225,73.6,142.09,0.218,11.8,288.97,288,-1,9.41,11.41,7.4,295.3,10.1,836,832.3,1.3,40.4,66.6,24.5,141,-142.1
62996,15,34.6338576,-118.107576,1630.4,5257,73.6,142.29,0.218,11.9,290.92,289.6,-1.4,9.85,11.17,7.5,295.5,10.2,834.9,831.8,1.7,33.6,66.6,25.5,141,-143.9
62997,15,34.6340884,-118.108197,1642.3,5297,73.6,142.48,0.218,12.5,292.86,291.2,-1.7,10.65,11.06,7.5,295.6,10.2,833.7,829.3,2.1,30.1,66.5,26.7,141,-145.6
62998,15,34.634336,-118.1091714,1654.1,5340,73.3,142.09,0.218,13.4,294.55,292.8,-1.8,11.12,10.93,7.4,295.7,10,832.4,827.6,2.2,28.8,66.5,27.6,141,-147.1
62999,15,34.6345997,-118.1098135,1666.3,5387,73.1,142.87,0.219,13.7,295.89,294.3,-1.6,11.16,10.15,7.7,296.1,10.4,830.9,825.9,2.1,14,66.5,28.4,141,-148.6
63000,15,34.6348772,-118.1104657,1679.4,5432,72.9,143.07,0.219,13.7,297.21,295.6,-1.6,11.01,9.01,7.5,296.1,10.2,829.5,825.6,2.2,7.6,66.5,29.2,141,-150.3
63001,15,34.6351671,-118.1111269,1693.1,5477,72.7,143.07,0.219,13.5,298.56,296.8,-1.8,10.75,8.76,7.5,296.2,10.2,828.1,824.5,2.4,5.9,66.5,29.4,141,-151.8
63002,15,34.6354687,-118.1117964,1707,5520,72.7,143.46,0.22,13.1,299.59,298,-1.6,10.43,9.11,7.4,296.2,10.1,826.8,822.8,2.3,0.4,66.5,29.2,141,-152.8
63003,15,34.6357819,-118.1124738,1720.6,5562,72.7,143.65,0.22,12.8,300.41,299.2,-1.3,10.2,9.25,7.2,296.2,10,825.5,820.3,2,352,66.5,29.1,141,-153.7
63004,15,34.636107,-118.1131593,1734,5602,72.7,143.46,0.22,12.4,301.32,300.4,-1,10.01,9.29,6.8,295.9,9.6,824.2,820,1.6,347.8,66.5,29.1,141,-154.6
63005,15,34.6364438,-118.1138525,1747,5642,72.8,143.46,0.22,12,302.41,301.5,-1,9.73,9.33,6.7,295.9,9.4,823,818.7,1.5,351.3,66.5,29.1,141,-155.8
63006,15,34.6367925,-118.1145534,1759.6,5680,72.9,144.04,0.221,11.7,303.78,302.7,-1.1,9.35,9.56,6.8,296.1,9.5,821.8,818,1.8,352.3,66.5,29,141,-157.2
63007,15,34.6371537,-118.1152622,1771.9,5717,73,145.01,0.222,11.3,305.28,304,-1.4,8.99,10,7,296.4,9.8,820.7,815.4,2.3,350.5,66.5,28.8,141,-158.7
63008,15,34.637528,-118.1159801,1783.8,5752,73.1,145.2,0.223,11.3,306.8,305.4,-1.5,9.27,10.51,6.9,296.4,9.6,819.6,816.3,2.4,354.6,66.5,29.2,141,-160
63009,15,34.6379162,-118.1167093,1795.3,5787,73.1,145.98,0.224,11.9,308.24,306.9,-1.5,9.96,10.91,6.8,296.5,9.6,818.5,813.9,2.6,348.5,66.5,30,141,-161.1
63010,15,34.6383181,-118.1171095,1806.7,5827,72.9,145.59,0.223,12.8,309.65,308.5,-1.2,10.7,11.22,6.6,296.4,9.4,817.3,812.2,2.5,345.6,66.5,30.9,141,-162.3
63011,15,34.6387332,-118.1178692,1818.5,5872,72.6,145.01,0.223,13.4,311.06,310.1,-1,11.07,11.52,6.9,296.8,9.6,815.9,811.1,2.3,342.2,66.5,31.5,141,-163.6
63012,15,34.6391606,-118.1186451,1831.1,5920,72.4,144.62,0.222,13.3,312.39,311.7,-0.8,10.6,11.88,6.8,296.9,9.6,814.4,810.8,2.2,335.9,66.5,31.3,141,-164.9
63013,15,34.6396007,-118.1190925,1844.4,5965,72.4,144.62,0.222,12.5,313.48,313.2,-0.4,9.69,12.26,6.9,297.1,9.7,813.1,808.6,2,323.5,66.5,30.6,141,-166
63014,15,34.6400537,-118.1195528,1858,6002,72.7,145.2,0.223,11.3,314.39,314.6,0.1,8.59,12.48,6.6,296.9,9.4,811.9,807.7,2,306.8,66.5,29.7,141.1,-167
63015,15,34.6405203,-118.1200242,1871.1,6040,73.1,146.18,0.224,9.9,315.4,316,0.5,7.3,12.62,7.1,297.6,9.9,810.8,806.9,2.2,295.4,66.5,28.7,141.1,-168.1
63016,15,34.6410013,-118.1208489,1883,6067,73.7,146.95,0.226,8.4,316.65,317.4,0.7,6.39,12.74,7.1,297.7,9.9,809.9,805.9,2.1,289.8,66.5,28.1,141.1,-169.5
63017,15,34.6414979,-118.1213412,1893.6,6090,74.3,147.93,0.227,7.8,318.22,319,0.6,6.28,12.58,6.9,297.5,9.8,809.2,805.7,2.1,289,66.5,28.4,141.1,-171.1
63018,15,34.6420106,-118.1218463,1902.8,6115,74.8,148.7,0.228,8,320.13,320.5,0.3,6.5,11.52,7,297.7,9.9,808.5,804.9,1.8,304.3,66.5,29.2,141.1,-173.5
63019,15,34.6425386,-118.1223657,1910.9,6140,75.2,149.68,0.23,8.6,322.22,322.1,-0.2,6.88,10.61,7.3,298.1,10.2,807.7,802.8,1.8,327.2,66.5,30.1,141.1,-176
63020,15,34.6430807,-118.1229004,1918.9,6172,75.6,150.84,0.231,9.3,323.92,323.7,-0.3,7.29,9.89,7.4,298.3,10.3,806.8,801.1,2,332.2,66.5,30.9,141.1,-178.1
63021,15,34.6436352,-118.1234501,1927.4,6202,75.8,151.23,0.232,10.1,325.01,325.1,0,7.82,9.04,7.2,298.2,10.2,805.8,802.1,2,321.6,66.5,31.6,141.1,-179.6
63022,15,34.6442,-118.123671,1936.5,6235,75.9,151.23,0.232,10.7,325.87,326.3,0.4,8.33,8.05,7.1,298.2,10.1,804.8,802,2,309.2,66.5,32.3,141.1,179
63023,15,34.6447731,-118.1242485,1946.5,6272,76,151.23,0.232,11.3,326.54,327.4,0.8,8.79,7.63,7.6,298.9,10.6,803.7,799.5,2.1,294.3,66.5,32.8,141.1,178
63024,15,34.6453534,-118.1244955,1957.1,6310,76,150.84,0.231,11.8,327.16,328.4,1.2,9.18,7.34,7.8,299.2,10.8,802.6,797.7,2.3,281.7,66.5,33.3,141.1,177.2
63025,15,34.6459397,-118.125098,1968.3,6350,75.9,150.65,0.231,12.1,327.87,329.4,1.4,9.45,7.04,7.9,299.4,10.9,801.3,797.8,2.6,276.6,66.5,33.6,141.1,176.3
63026,15,34.6465311,-118.1253686,1980.1,6390,75.9,150.65,0.231,12.3,328.94,330.2,1.2,9.54,6.72,7.7,299.3,10.7,800.2,795.9,2.3,283.1,66.5,33.8,141.1,175
63027,15,34.6471272,-118.1259936,1992.2,6432,75.8,150.26,0.23,12.2,330.36,331.1,0.6,9.45,6.57,8,299.8,11,798.9,795.3,1.8,297.3,66.5,33.9,141.1,173.3
63028,15,34.6477278,-118.1262861,2004.7,6470,75.8,149.87,0.229,12.2,331.82,332,0,9.37,6.62,7.9,299.8,10.9,797.7,793.4,1.3,321.4,66.5,33.9,141.1,171.8
63029,15,34.6483333,-118.1265901,2017.1,6512,75.8,149.87,0.23,12,332.95,332.8,-0.2,9.28,6.69,7.9,300,10.8,796.4,792.4,1.3,341.6,66.5,33.9,141.1,170.6
63030,15,34.6489436,-118.1269052,2029.5,6550,75.9,148.7,0.228,11.6,333.63,333.7,0,8.84,5.93,7.5,299.6,10.4,795.3,790.6,0.6,324.8,66.5,33.5,141.1,169.5
63031,15,34.6495588,-118.127572,2041.8,6592,76.1,148.7,0.228,10.2,334.13,334.3,0.1,7.34,4.3,7.4,299.7,10.3,794,790.5,0.5,304.7,66.5,31.7,141.1,168.4
63032,15,34.6501797,-118.1279002,2053.8,6620,76.6,149.48,0.229,8.4,334.75,334.7,-0.1,5.98,3.11,7.6,300,10.5,793.2,789.4,0.3,347.3,66.5,30.2,141.1,167.3
63033,15,34.6508072,-118.1282307,2064.9,6642,77.2,149.87,0.23,7.1,335.26,335,-0.3,5.25,2.11,7.5,300,10.5,792.5,787.4,0.4,81.1,66.5,29.3,141.1,166.4
63034,15,34.6514413,-118.1285624,2074.3,6662,77.8,151.04,0.231,6.6,335.51,335.3,-0.3,5.2,1.21,7.2,299.7,10.2,791.9,786.7,0.3,84.7,66.5,29,141.1,165.8
63035,15,34.6520813,-118.1288941,2082.1,6685,78.4,152.4,0.234,6.7,335.52,335.5,-0.1,5.34,0.33,7.4,300,10.5,791.3,786.6,0,65.5,66.5,28.9,141.1,165.3
63036,15,34.6527262,-118.1292248,2089.1,6705,78.9,153.76,0.236,7,335.32,335.5,0.2,5.45,-0.26,7.4,300.1,10.5,790.6,785.6,0.3,284.3,66.5,28.9,141.1,165.3
63037,15,34.6533753,-118.1295538,2095.9,6732,79.4,155.12,0.238,7.2,334.94,335.5,0.6,5.41,-0.25,7.5,300.2,10.7,789.9,785.7,0.9,272.4,66.5,28.9,141.1,165.7
63038,15,34.6540271,-118.1298811,2103,6755,79.7,156.28,0.24,7.2,334.47,335.5,1,5.23,-0.26,7.1,299.9,10.4,789.2,783.9,1.6,270.9,66.5,28.7,141.1,166.2
63039,15,34.6546814,-118.1302063,2110.4,6780,80,157.65,0.242,7.1,334.19,335.4,1.2,4.96,-0.32,7.4,300.3,10.6,788.4,782.9,2,277.7,66.5,28.4,141.1,166.5
63040,15,34.6553374,-118.13053,2117.9,6805,80.1,158.23,0.243,6.8,334.18,335.4,1.2,4.6,-0.1,7.1,300,10.4,787.7,781.3,2.2,281.9,66.5,28.1,141.1,166.7
63041,15,34.6559934,-118.1308533,2125.3,6827,80.1,158.23,0.243,6.2,334.26,335.4,1.1,3.83,0.34,7.3,300.3,10.6,787,780.4,2.1,283.8,66.5,27.5,141.1,166.9
63042,15,34.6566492,-118.131521,2132.4,6850,79.9,158.81,0.244,4.1,334.28,335.5,1.2,1.7,0.72,7,300.1,10.3,786.3,777.3,2.5,291.2,66.5,25.5,141.1,167.3
63043,15,34.6573052,-118.1318463,2139,6855,80.1,158.62,0.244,1.9,334.24,335.6,1.3,0.71,1.02,7.1,300.2,10.4,786.1,777.1,2.4,282.9,66.5,24.6,141.1,167.5
63044,15,34.6579626,-118.1321719,2144.3,6857,80.3,158.81,0.244,0.9,334.27,335.7,1.4,0.43,1.23,7,300.1,10.3,786.1,778,2.5,279.7,66.5,24.4,141.2,167.6
63045,15,34.658623,-118.1324989,2147.3,6857,80.5,159.2,0.244,0.8,334.43,335.9,1.4,0.58,1.36,6.9,300,10.3,786.1,777.6,2.5,279.1,66.5,24.5,141.2,167.5
63046,15,34.6592862,-118.1328273,2148.7,6860,80.7,159.98,0.245,1,334.69,336,1.3,0.7,1.44,7,300.1,10.4,786,777.8,2.5,286,66.5,24.7,141.2,167.3
63047,15,34.6599519,-118.1331578,2149.7,6865,80.9,160.56,0.246,1.2,335.01,336.3,1.2,0.81,1.7,7.2,300.3,10.6,785.9,779.3,2.5,288.4,66.5,24.9,141.2,167.1
63048,15,34.6606202,-118.1334906,2150.7,6870,81,160.95,0.247,1.4,335.26,336.5,1.2,0.74,1.71,7.2,300.4,10.6,785.7,778.8,2.5,291.3,66.5,24.8,141.2,166.8
63049,15,34.661291,-118.1338257,2152,6877,81.2,161.14,0.247,0.8,335.39,336.7,1.2,0.04,1.63,6.9,300.1,10.3,785.5,779.4,2.5,288.2,66.5,24.1,141.2,166.7
63050,15,34.6619649,-118.1341625,2153.6,6880,81.5,161.92,0.248,-0.1,335.58,336.9,1.2,-0.68,1.67,7.3,300.5,10.8,785.4,779.6,2.6,289.7,66.5,23.4,141.2,166.6
63051,15,34.6626424,-118.1345005,2154.9,6880,81.9,162.31,0.249,-0.8,335.89,337.1,1.1,-0.76,1.75,7.3,300.5,10.7,785.4,778.6,2.4,289,66.5,23.4,141.2,166.4
63052,15,34.6633239,-118.1348394,2155.3,6872,82.2,162.51,0.249,-0.4,336.27,337.3,1,0.08,1.9,7.2,300.4,10.7,785.6,779.5,2,290,66.5,24.1,141.2,166
63053,15,34.6640097,-118.1351816,2154.9,6870,82.5,161.92,0.249,0.5,336.58,337.6,1,0.69,2.07,7.2,300.4,10.7,785.7,779.5,1.7,275.6,66.5,24.9,141.2,165.7
63054,15,34.6646987,-118.1355272,2154.3,6875,82.7,161.92,0.249,1.5,336.75,337.9,1.1,1.28,2.01,7.1,300.3,10.6,785.6,779.1,1.8,267.1,66.5,25.4,141.2,165.4
63055,15,34.6653899,-118.1358766,2154.5,6882,82.7,161.92,0.248,2.1,336.89,338.2,1.2,1.55,1.93,6.9,300.1,10.3,785.4,778.1,2,265.1,66.5,25.7,141.2,165.2
63056,15,34.6660826,-118.1362297,2155.7,6890,82.8,161.92,0.248,2.4,337.06,338.4,1.3,1.65,1.8,6.8,300,10.3,785.1,778.8,2,262.2,66.5,25.8,141.2,165
63057,15,34.6667763,-118.1365863,2157.8,6900,82.8,161.53,0.248,2.4,337.28,338.6,1.3,1.41,1.67,6.7,299.9,10.2,784.8,779.1,1.9,256.9,66.5,25.5,141.2,164.7
63058,15,34.6674716,-118.1369455,2160.2,6915,82.9,162.12,0.249,1,337.5,338.8,1.3,-0.46,1.63,7,300.3,10.5,784.4,777.6,2,263,66.5,23.7,141.2,164.7
63059,15,34.6681697,-118.137306,2162.8,6915,83.2,162.51,0.249,-1,337.75,339,1.2,-1.44,1.44,6.9,300.2,10.4,784.4,777.5,1.9,260.8,66.5,22.7,141.2,164.5
63060,15,34.6688712,-118.1376665,2164.7,6905,83.7,162.89,0.25,-1.8,338.07,339.1,1,-1.59,1.35,6.9,300.2,10.4,784.6,778.1,1.5,252.4,66.5,22.5,141.2,164.1
63061,15,34.6695785,-118.1380285,2164.5,6897,84.2,163.09,0.25,-1.9,338.31,339.3,1,-1.51,1.16,6.6,299.8,10.1,784.9,778.9,1.5,237.1,66.5,22.6,141.2,163.8
63062,15,34.6702908,-118.1380474,2163,6892,84.7,164.25,0.252,-1.7,338.53,339.5,0.9,-1.41,1.13,7.1,300.3,10.7,785,778.5,1.4,241.1,66.5,22.7,141.2,163.6
63063,15,34.6710081,-118.1384102,2161.2,6887,85.2,165.03,0.253,-1.4,338.68,339.6,0.9,-1.29,0.96,6.9,300.1,10.5,785.2,779.5,1.4,236.8,66.5,22.7,141.2,163.4
63064,15,34.67173,-118.1387733,2159.5,6882,85.7,165.62,0.254,-1.2,338.76,339.7,1,-1.18,0.86,6.6,299.8,10.2,785.3,779,1.5,229.6,66.4,22.8,141.2,163.2
63065,15,34.6724561,-118.1391367,2157.9,6880,86,166.59,0.256,-1,338.81,339.9,1,-1.1,0.78,6.3,299.4,9.9,785.4,779.4,1.7,238.9,66.4,22.9,141.2,163.1
63066,15,34.6731861,-118.1395001,2156.7,6877,86.5,167.56,0.257,-0.9,338.92,340,1,-1.04,0.63,6.6,299.7,10.3,785.5,778.6,1.7,239,66.4,22.9,141.2,163
63067,15,34.6739199,-118.1398636,2155.6,6875,86.8,168.14,0.258,-0.8,339.04,340.1,1,-1,0.51,7.1,300.3,10.8,785.6,780,1.6,239,66.4,22.9,141.2,162.8
63068,15,34.6746566,-118.1402265,2154.6,6872,87.2,169.31,0.26,-0.6,339.11,340.1,1,-0.95,0.35,6.5,299.6,10.3,785.7,779.8,1.5,245.8,66.4,22.9,141.2,162.6
63069,15,34.675397,-118.1405897,2153.8,6870,87.5,170.09,0.261,-0.4,339.05,340.2,1.1,-0.89,0.15,6.6,299.7,10.4,785.7,780,1.8,249.6,66.4,22.9,141.2,162.6
63070,15,34.6761405,-118.1409525,2153.1,6870,87.8,170.67,0.262,-0.2,338.97,340.2,1.2,-0.84,0.03,6.5,299.6,10.3,785.7,780.8,1.9,249.6,66.4,22.9,141.2,162.6
63071,15,34.6768867,-118.140971,2152.6,6870,88.2,171.45,0.263,-0.2,338.99,340.2,1.2,-0.82,-0.28,6.6,299.7,10.5,785.7,780.5,1.9,249.6,66.4,22.8,141.2,162.5
63072,15,34.6776351,-118.1413315,2152.4,6870,88.4,172.61,0.265,-0.1,339.14,340.2,1,-0.81,-0.49,6.8,299.9,10.7,785.7,780.2,1.7,263.4,66.4,22.8,141.2,162.3
63073,15,34.6783858,-118.1416906,2152.2,6870,88.7,173,0.265,0.1,339.29,340.2,0.8,-0.52,-0.51,6.6,299.7,10.5,785.8,781.2,1.4,261.7,66.4,23.1,141.3,162.1
63074,15,34.6791382,-118.1420486,2152,6870,88.9,173,0.266,0.6,339.32,340.2,0.8,-0.25,-0.46,6.9,300,10.8,785.7,779.8,1.4,253.9,66.4,23.3,141.3,162
63075,15,34.6798923,-118.1424057,2152,6872,89.1,173.2,0.266,0.9,339.13,340.1,1,-0.15,-0.47,6.9,300,10.8,785.7,781,1.5,249.6,66.4,23.4,141.3,162.2
63076,15,34.6806465,-118.1427609,2152.3,6875,89.2,173.58,0.266,0.9,338.91,340.1,1.1,-0.21,-0.66,6.5,299.6,10.4,785.6,779.6,1.9,252.6,66.4,23.3,141.3,162.4
63077,15,34.6814028,-118.1431152,2153,6880,89.4,174.36,0.268,0.7,338.87,340,1.1,-0.46,-0.83,6.8,300,10.8,785.4,779.9,1.8,259.1,66.4,23,141.3,162.4
63078,15,34.6821604,-118.1434677,2153.9,6882,89.6,175.14,0.268,0.2,338.97,339.9,0.9,-0.8,-1.02,6.7,299.9,10.7,785.3,778.5,1.5,268.4,66.4,22.7,141.3,162.2
63079,15,34.6829195,-118.1438179,2154.7,6882,89.8,175.72,0.27,-0.3,339.08,339.9,0.7,-1.08,-1.08,7,300.2,11,785.3,777.8,1.4,274.4,66.4,22.4,141.3,162.1
63080,15,34.6836809,-118.1441657,2155.1,6882,90.2,176.5,0.271,-0.5,339.05,339.8,0.7,-1.21,-0.73,7.2,300.4,11.3,785.4,777.9,1.3,276.3,66.4,22.3,141.3,162.3
63081,15,34.6844447,-118.1445115,2154.9,6880,90.5,177.08,0.272,-0.6,338.83,339.7,0.9,-1.29,-0.43,7.2,300.4,11.4,785.4,778.9,1.5,272.8,66.4,22.4,141.3,162.7
63082,15,34.6852114,-118.1448551,2154.4,6880,90.9,178.06,0.273,-0.7,338.65,339.7,1,-1.41,-0.22,7.2,300.4,11.4,785.5,779.3,1.8,271.9,66.4,22.3,141.3,163
63083,15,34.6859814,-118.1451969,2153.8,6877,91.3,178.83,0.274,-0.9,338.64,339.7,1,-1.57,-0.1,6.9,300.1,11.1,785.5,780.2,1.8,271.6,66.4,22.2,141.3,163
63084,15,34.6867537,-118.145536,2153,6875,91.8,179.81,0.276,-1.1,338.82,339.7,0.9,-1.8,0.07,6.9,300.1,11.2,785.6,779.1,1.6,275.6,66.4,22,141.3,163
63085,15,34.6875313,-118.1458746,2152.1,6872,92.3,180.97,0.277,-1.4,339.03,339.7,0.7,-1.97,0.39,7.2,300.4,11.5,785.6,780.8,1.3,285.8,66.4,22,141.3,162.9
63086,15,34.6883133,-118.1462123,2151,6865,92.7,181.55,0.278,-1.5,339.09,339.8,0.7,-2.04,0.71,6.9,300,11.3,785.9,780.7,1.3,280.7,66.4,22,141.3,163
63087,15,34.6890994,-118.1465501,2149.6,6857,93.1,181.94,0.279,-1.4,339.06,339.9,0.8,-1.83,0.86,7.2,300.3,11.6,786.1,780,1.5,269.5,66.4,22.2,141.3,163.1
63088,15,34.6898875,-118.146889,2148,6847,93.1,181.75,0.279,-0.3,339.09,340,0.9,-0.85,0.88,7.2,300.3,11.6,786.4,778.3,1.5,264.7,66.4,23.2,141.3,162.9
63089,15,34.6906758,-118.1472303,2146.4,6847,92.9,181.17,0.278,1,339.26,340.2,0.9,-0.12,1.02,7.3,300.4,11.6,786.4,779.5,1.6,260.8,66.4,23.9,141.3,162.7
63090,15,34.6914629,-118.1475749,2145.4,6855,92.7,180.78,0.277,1.7,339.48,340.3,0.8,0.02,1.11,7.6,300.7,11.9,786.2,777.9,1.4,262.6,66.4,24.1,141.3,162.5
63091,15,34.6922483,-118.1479229,2145.7,6862,92.4,180.39,0.277,1.6,339.7,340.5,0.7,-0.17,1.21,7.3,300.5,11.6,785.9,780.2,1.4,267.3,66.4,23.9,141.3,162.4
63092,15,34.6930311,-118.1482736,2147.1,6867,92.1,179.61,0.276,1.2,339.86,340.6,0.7,-0.32,1.32,7.3,300.5,11.6,785.8,780.8,1.2,264.4,66.4,23.8,141.3,162.3
63093,15,34.6938139,-118.1486287,2148.6,6870,91.9,179.22,0.275,1,339.97,340.8,0.8,-0.46,1.32,7,300.2,11.3,785.7,780.3,1.4,263.1,66.4,23.7,141.3,162.2
63094,15,34.6945955,-118.1489872,2149.9,6872,91.7,179.03,0.275,1,340.14,341,0.8,-0.19,1.16,7.1,300.3,11.3,785.7,782.2,1.4,266.7,66.4,23.9,141.3,161.9
63095,15,34.6953759,-118.1493491,2150.9,6872,91.4,178.06,0.273,1.6,340.41,341.1,0.7,0.31,0.91,7.4,300.6,11.6,785.7,779.6,1.1,261,66.4,24.3,141.3,161.5
63096,15,34.6961544,-118.1497143,2151.7,6880,91.1,177.47,0.272,2,340.63,341.2,0.5,0.35,0.65,7.1,300.3,11.3,785.4,781.9,0.9,263.3,66.4,24.3,141.3,161.2
63097,15,34.6969307,-118.1497393,2153,6887,90.8,177.08,0.272,1.8,340.75,341.3,0.6,0.07,0.43,7.4,300.6,11.5,785.2,781.8,0.9,270,66.4,24,141.3,161
63098,15,34.6977051,-118.1501097,2154.8,6895,90.6,176.31,0.271,1.1,340.74,341.4,0.6,-0.42,0.16,7.4,300.7,11.5,785,780,1,256.5,66.4,23.4,141.3,161
63099,15,34.698478,-118.1504816,2156.6,6895,90.4,175.72,0.269,0.7,340.69,341.4,0.7,-0.33,-0.14,7,300.2,11,785,779.9,1.1,251,66.4,23.4,141.3,160.9
63100,15,34.6992479,-118.1508535,2157.9,6895,90.2,174.95,0.268,1,340.71,341.4,0.7,0.07,-0.32,6.8,300,10.8,785,781.3,1.1,240.6,66.4,23.6,141.3,160.8
63101,15,34.7000174,-118.1512272,2158.6,6897,90,174.56,0.268,1.2,340.74,341.4,0.6,0.08,-0.4,7.3,300.6,11.4,784.9,778.8,1.1,240.1,66.4,23.7,141.3,160.7
63102,15,34.7007848,-118.1516014,2159.4,6902,89.7,173.97,0.267,1.2,340.74,341.4,0.6,0.02,-0.44,7.3,300.6,11.3,784.7,779.1,1.1,240.1,66.4,23.6,141.4,160.7
63103,15,34.7015502,-118.151633,2160.5,6907,89.5,173.78,0.266,1,340.66,341.4,0.7,-0.13,-0.53,7.3,300.6,11.3,784.6,779.3,1.2,246.1,66.4,23.5,141.4,160.7
63104,15,34.7023137,-118.1520081,2161.7,6910,89.3,173,0.266,0.7,340.58,341.4,0.7,-0.28,-0.59,7.2,300.5,11.2,784.5,778.9,1.3,237.8,66.4,23.3,141.4,160.8
63105,15,34.7030755,-118.1523832,2162.7,6912,89.1,172.61,0.265,0.5,340.51,341.3,0.8,-0.37,-0.56,7.2,300.5,11.2,784.5,779.9,1.3,237.2,66.4,23.2,141.4,160.9
63106,15,34.7038358,-118.1527583,2163.5,6912,89,172.03,0.264,0.2,340.47,341.3,0.8,-0.6,-0.48,6.9,300.2,10.8,784.4,779.4,1.4,229.6,66.4,23,141.4,161
63107,15,34.7045951,-118.1531334,2164,6915,88.9,172.22,0.264,-0.2,340.48,341.3,0.8,-0.97,-0.36,6.9,300.2,10.8,784.4,779.9,1.3,237.6,66.4,22.7,141.4,161.1
63108,15,34.7053517,-118.1531642,2164.3,6912,88.9,172.22,0.264,-0.7,340.52,341.3,0.7,-1.29,-0.25,7.2,300.5,11.1,784.4,778.8,1.2,237,66.4,22.5,141.4,161.2
63109,15,34.7061101,-118.1535393,2164.3,6910,88.9,172.22,0.264,-1.1,340.55,341.3,0.7,-1.52,-0.16,6.9,300.2,10.8,784.5,778,1.2,236.4,66.4,22.3,141.4,161.2
63110,15,34.7068688,-118.1539143,2163.7,6907,88.9,172.42,0.265,-1.5,340.57,341.3,0.7,-1.68,-0.14,7.2,300.5,11.1,784.6,779.3,1.1,240.9,66.4,22.1,141.4,161.2
63111,15,34.7076278,-118.1542893,2162.7,6895,88.9,172.03,0.264,-1.1,340.6,341.3,0.7,-0.96,-0.13,6.9,300.1,10.8,784.9,779.4,1.2,230.7,66.4,22.8,141.4,161.1
63112,15,34.7083871,-118.1546644,2161.3,6897,88.9,173,0.266,-0.7,340.64,341.3,0.6,-1.25,0.09,7.1,300.4,11.1,784.9,779,1,256.5,66.4,22.6,141.4,161.1
63113,15,34.7091467,-118.1550394,2159.9,6897,89.1,173.39,0.266,-1.1,340.69,341.3,0.6,-1.32,0.01,6.9,300.1,10.8,784.9,780.5,1,257,66.4,22.5,141.4,161.1
63114,15,34.7099074,-118.1550713,2159.1,6890,89.2,173.58,0.266,-0.6,340.8,341.3,0.5,-0.73,0.24,7.1,300.3,11.1,785.1,782.6,0.8,258.4,66.4,23.2,141.4,161
63115,15,34.7106699,-118.1554466,2158.1,6890,89.4,174.17,0.267,0.4,340.89,341.4,0.5,0.09,0.31,6.9,300.1,10.9,785.2,782.3,0.8,265.2,66.4,23.8,141.4,160.9
63116,15,34.7114318,-118.1558212,2157.1,6890,89.6,174.56,0.268,1.5,340.96,341.5,0.5,0.69,0.19,6.9,300.1,10.9,785.1,785.1,0.9,264.5,66.4,24.5,141.4,160.7
63117,15,34.7121977,-118.1561972,2157.1,6897,89.6,174.56,0.268,2.7,340.99,341.5,0.5,1.36,0.16,7.2,300.5,11.2,784.9,783.7,0.8,265.3,66.4,25.1,141.4,160.5
63118,15,34.7129641,-118.1565738,2158.1,6910,89.6,173.97,0.267,3.5,340.96,341.6,0.6,1.76,0.1,7.3,300.6,11.3,784.6,783.9,1,245.6,66.4,25.5,141.4,160.5
63119,15,34.7137301,-118.1566082,2160.3,6920,89.6,174.75,0.268,4,340.84,341.6,0.7,1.99,0.18,7.1,300.4,11.2,784.2,781.9,1.2,265.4,66.4,25.7,141.4,160.6
63120,15,34.7144955,-118.156987,2163.4,6937,89.4,174.75,0.268,4.3,340.73,341.6,0.9,2.11,0.27,7,300.4,11,783.7,781.5,1.5,271.3,66.4,25.9,141.4,160.7
63121,15,34.7152601,-118.1573669,2167.1,6950,89.3,174.95,0.268,4.5,340.72,341.7,0.9,2.1,0.28,6.9,300.3,10.9,783.3,780.2,1.7,275.7,66.4,25.9,141.4,160.7
63122,15,34.7160237,-118.157748,2171.4,6970,89.2,174.95,0.269,4.2,340.82,341.7,0.9,1.82,0.32,7.1,300.6,11.2,782.8,779.9,1.6,281.4,66.4,25.6,141.4,160.7
63123,15,34.7167869,-118.1581302,2175.9,6980,89.1,174.75,0.268,3.8,340.94,341.8,0.8,1.55,0.36,7,300.5,11,782.4,779.9,1.6,282.1,66.4,25.4,141.4,160.7
63124,15,34.7175494,-118.1581696,2180.2,6990,89.1,174.95,0.268,3.4,340.97,341.9,0.9,1.46,0.39,6.6,300.1,10.7,782.1,779.5,1.7,283.2,66.4,25.3,141.4,160.7
63125,15,34.7183142,-118.1585533,2184.2,7002,89.6,175.72,0.27,3.5,340.92,341.9,0.9,1.61,0.2,6.9,300.5,11,781.8,781.9,1.7,278.9,66.4,25.4,141.4,160.6
63126,15,34.7190863,-118.1589346,2187.7,7012,90.7,177.47,0.272,4.5,340.96,341.9,0.9,2.94,0.04,6.7,300.3,10.8,781.5,787.4,1.6,273.3,66.4,26.6,141.4,160.3
63127,15,34.719867,-118.1593128,2191.1,7022,91.4,179.22,0.275,8.3,341.12,341.9,0.8,6.04,0.03,7.1,300.8,11.3,781.2,787.6,1.5,284.1,66.4,29.5,141.4,159.5
63128,15,34.7206505,-118.1593473,2195,7055,91.2,180.19,0.277,14.1,341.3,342,0.7,9.96,0.13,6.8,300.5,11.1,780.2,786.2,1.9,304.8,66.4,33.2,141.4,158.5
63129,15,34.7214283,-118.1597286,2201.5,7110,90,180.58,0.277,20.1,341.32,342.1,0.7,13.5,0.21,7.1,301,11.4,778.6,780.8,3.2,318.5,66.4,36.5,141.4,157.6
63130,15,34.7221932,-118.1601167,2213.1,7187,88.2,180.19,0.277,24.8,341.12,342.2,1,16.09,0.13,7.1,301.3,11.4,776.3,774.7,4.8,320.9,66.4,38.9,141.5,157.1
63131,15,34.7229429,-118.1605118,2230.8,7282,86.6,180,0.276,28.1,340.88,342.2,1.3,17.76,0.06,6.6,301.1,10.8,773.5,773.8,6.3,322.6,66.4,40.4,141.5,156.7
63132,15,34.7236799,-118.1605684,2253.9,7387,85.5,179.22,0.275,29.4,340.77,342.2,1.4,17.98,0.07,6.7,301.5,11,770.5,770.1,7.1,323.2,66.4,40.6,141.5,156.8
63133,15,34.7244112,-118.1609712,2280.9,7485,85.1,177.67,0.273,28.6,340.74,342.2,1.5,17.33,0.14,6.4,301.5,10.6,767.5,767.5,6.7,321.8,66.4,40.1,141.5,157.1
63134,15,34.7251405,-118.1613749,2310.1,7575,84.9,176.31,0.271,27.7,340.74,342.3,1.5,16.9,0.37,6.5,301.9,10.6,764.9,763.2,6.3,319.1,66.4,39.8,141.5,157.4
63135,15,34.7258696,-118.1614361,2339.4,7670,85.1,175.72,0.27,26.1,340.67,342.3,1.6,15.62,0.59,6.3,302,10.4,762.2,762.4,5.9,316.3,66.4,38.7,141.5,158
63136,15,34.7266017,-118.1618404,2367.6,7752,85.5,175.33,0.269,23.9,340.36,342.4,2,13.63,0.75,5.9,301.9,9.9,759.8,759.5,5.6,307.7,66.4,36.9,141.5,159
63137,15,34.7273361,-118.1622444,2394.6,7835,85.5,174.17,0.268,18.8,339.9,342.4,2.5,9.48,0.91,6,302.2,10,757.4,752.8,5.6,298.2,66.3,33.1,141.5,160.6
63138,15,34.7280703,-118.1623052,2419.7,7885,85.5,171.84,0.264,12.1,339.5,342.4,2.9,5.17,1.07,5.9,302.3,9.8,755.9,747.6,5.3,284.3,66.3,29.1,141.5,161.9
63139,15,34.728804,-118.1627098,2441,7905,85.3,169.89,0.261,6.4,339.44,342.4,2.9,1.87,1.29,5.9,302.4,9.7,755.4,745.9,4.9,276.1,66.3,26,141.5,162.6
63140,15,34.7295364,-118.1627718,2456.1,7912,85.3,168.53,0.259,1.7,339.6,342.5,2.9,-0.81,1.52,5.8,302.3,9.6,755.2,745.2,4.6,268.9,66.3,23.5,141.5,162.9
63141,15,34.7302697,-118.1631792,2464.9,7902,85.3,168.34,0.259,-1.4,339.96,342.6,2.6,-2.03,1.76,5.8,302.3,9.5,755.4,746.2,4.2,269.4,66.3,22.4,141.5,162.8
63142,15,34.7310046,-118.1635888,2468.5,7890,85.5,168.14,0.258,-2.9,340.36,342.8,2.4,-2.72,2.05,6,302.4,9.7,755.8,747.5,3.8,266.8,66.3,21.9,141.5,162.6
63143,15,34.7317422,-118.1636578,2468.3,7877,85.8,168.53,0.259,-4,340.59,343,2.4,-3.36,2.22,5.6,301.9,9.3,756.2,749.4,3.7,265.7,66.3,21.3,141.5,162.5
63144,15,34.7324833,-118.1640731,2465.9,7862,86.1,169.31,0.26,-4.6,340.7,343.3,2.6,-3.5,2.58,5.6,301.9,9.4,756.6,751.6,4.1,266.3,66.3,21.3,141.5,162.6
63145,15,34.7332287,-118.1641489,2462.4,7842,86.5,169.7,0.261,-4.4,340.7,343.7,2.9,-3.09,4.08,5.7,301.9,9.5,757.2,751.6,4.6,262.2,66.3,22.1,141.5,163.2
63146,15,34.7339792,-118.1645739,2458.1,7830,86.9,170.28,0.262,-3.8,340.78,344.2,3.4,-2.68,5.66,5.7,301.9,9.5,757.5,753,5.3,260.1,66.3,23,141.5,163.8
63147,15,34.7347348,-118.1646645,2453.6,7820,87.1,170.67,0.262,-3.3,341.25,344.9,3.6,-2.36,7.22,5.5,301.7,9.3,757.8,753.1,5.6,260.2,66.3,23.8,141.5,164
63148,15,34.735495,-118.1651096,2449.8,7810,87.5,171.06,0.263,-2.9,342.26,345.8,3.4,-2.08,8.38,5.6,301.7,9.4,758.1,754.1,5.4,259.3,66.3,24.5,141.5,163.5
63149,15,34.7362622,-118.1652265,2446.4,7802,87.8,171.45,0.264,-2,343.79,346.8,2.9,-1.43,8.87,5.9,302,9.7,758.3,757.3,4.6,260.2,66.3,25.5,141.5,162.1
63150,15,34.7370354,-118.1653602,2443.5,7797,88,171.45,0.264,-1,345.45,347.9,2.4,-0.94,8.36,5.6,301.7,9.5,758.4,756.9,3.8,259.7,66.3,26.1,141.5,160.2
63151,15,34.7378131,-118.1658542,2441.2,7797,88.1,171.64,0.264,-0.3,346.44,348.9,2.4,-0.73,6.79,5.8,301.9,9.7,758.5,754.1,3.8,260.7,66.3,25.8,141.5,158.4
63152,15,34.7385928,-118.1660187,2440,7797,88,171.25,0.263,-0.1,346.52,349.6,3,-0.4,4.8,5.6,301.7,9.5,758.5,753.8,4.7,259.3,66.3,25.4,141.5,157.4
63153,15,34.7393728,-118.166193,2439.6,7797,87.8,170.67,0.262,0.3,346.65,350.1,3.4,-0.16,2.6,5.8,301.9,9.7,758.5,753.3,5.3,258.4,66.3,24.7,141.5,156.2
63154,15,34.7401516,-118.16603,2439.6,7797,87.6,170.09,0.262,0.8,347.32,350.3,2.9,0.58,1.21,5.9,302,9.7,758.4,751.9,4.6,257.6,66.3,24.9,141.5,154.8
63155,15,34.740928,-118.1662142,2439.9,7800,87.2,169.11,0.26,1.9,348.15,350.5,2.3,1.2,0.4,5.6,301.7,9.4,758.4,752.1,3.6,256.1,66.3,25.1,141.5,153.6
63156,15,34.7417014,-118.1664011,2440.6,7810,86.7,168.53,0.259,2.1,348.49,350.6,2,1.22,-0.32,5.5,301.6,9.3,758.1,752.6,3.2,259.5,66.3,24.8,141.5,152.9
63157,15,34.7424719,-118.1665893,2442.2,7822,86.7,168.53,0.259,2.2,348.15,350.6,2.4,1.37,-0.43,5.9,302.1,9.6,757.8,757.1,3.7,259.4,66.3,24.9,141.5,153.2
63158,15,34.7432433,-118.1667768,2444.5,7830,86.9,169.11,0.26,2.7,347.51,350.5,3,1.8,-0.32,5.4,301.6,9.1,757.5,760.2,4.5,260.3,66.3,25.3,141.6,153.8
63159,15,34.7440175,-118.1669628,2446.9,7840,87.3,169.5,0.261,3.5,347.16,350.5,3.3,2.41,-0.27,5.7,301.9,9.5,757.3,759.7,5.1,257.7,66.3,25.9,141.6,154
63160,15,34.7447936,-118.1671474,2449.5,7852,87.5,170.09,0.262,4.3,347.12,350.4,3.2,2.77,-0.23,6,302.3,9.8,756.9,757.1,5,258.8,66.3,26.2,141.6,154
63161,15,34.7455712,-118.1673307,2452.8,7872,87.6,170.67,0.262,4.4,347.12,350.3,3.2,2.25,-0.15,5.7,302,9.5,756.3,756.3,4.9,261.1,66.3,25.8,141.6,154.2
63162,15,34.7463508,-118.1675127,2457,7895,88,171.45,0.264,3,347.03,350.3,3.3,0.75,-0.11,5.7,302.1,9.5,755.7,754.8,5,260.9,66.3,24.5,141.6,154.6
63163,15,34.7471338,-118.1676929,2461.7,7900,88.4,172.22,0.265,1.1,346.9,350.2,3.3,-0.18,-0.1,5.2,301.6,9.1,755.5,754.4,5.1,260.8,66.3,23.6,141.6,154.9
63164,15,34.7479174,-118.1678703,2465.6,7892,88.7,172.61,0.266,0.9,346.85,350.2,3.3,0.33,-0.13,5.3,301.7,9.2,755.7,752.5,5.2,259.6,66.3,24.1,141.6,154.9
63165,15,34.7487061,-118.1680476,2467.5,7897,89,173,0.266,1.5,346.94,350.1,3.2,0.37,-0.22,5.8,302.2,9.7,755.6,752.4,4.9,258.5,66.3,24.1,141.6,154.7
63166,15,34.7494975,-118.1682233,2468.5,7902,89.3,173.78,0.268,1.5,347.09,350.1,2.9,0.48,-0.24,5.5,301.9,9.5,755.4,752.6,4.7,259.8,66.3,24.2,141.6,154.5
63167,15,34.7502915,-118.1683977,2469.9,7907,89.6,174.36,0.268,2.2,347.16,350,2.8,0.97,-0.19,5.4,301.8,9.4,755.3,751.9,4.4,259.9,66.3,24.6,141.6,154.4
63168,15,34.7510877,-118.1685711,2471.5,7920,89.8,175.14,0.269,2.3,347.11,350,2.9,0.75,0.09,5.5,302,9.5,754.9,750.6,4.5,262.3,66.3,24.5,141.6,154.5
63169,15,34.7518859,-118.1687437,2473.5,7925,90.1,175.14,0.269,2.6,346.93,350,3,1.19,0.04,5.5,302,9.5,754.8,751.1,4.8,258.5,66.3,24.9,141.6,154.7
63170,15,34.7526858,-118.1689156,2475.9,7935,90.2,175.72,0.27,3.3,346.78,350,3.1,1.7,0.05,5.2,301.7,9.2,754.5,750.1,5.1,260.6,66.3,25.4,141.6,154.7
63171,15,34.7534862,-118.169087,2478.5,7947,90.3,175.72,0.271,3.9,346.76,349.9,3.2,1.94,0.08,5.2,301.7,9.3,754.1,750.4,5,259.5,66.3,25.6,141.6,154.7
63172,15,34.7542843,-118.1692568,2481.6,7962,90.3,176.11,0.271,4.2,346.83,349.9,3.1,1.97,0.02,5.5,302.1,9.6,753.7,750,4.9,261.9,66.3,25.6,141.6,154.6
63173,15,34.7550854,-118.1694277,2485.4,7975,90.3,176.5,0.272,4.3,346.89,349.9,3,2.1,0.2,5,301.6,9.1,753.3,750.4,4.8,264.4,66.3,25.8,141.6,154.6
63174,15,34.7558865,-118.1695988,2489.6,7987,90.3,176.5,0.272,4.7,346.95,350,3,2.4,0.35,5.3,302,9.4,753,749.7,4.8,264.4,66.3,26.2,141.6,154.6
63175,15,34.7566873,-118.1697707,2493.9,8007,90.2,176.5,0.272,4.9,346.97,350,3,2.24,0.47,5.3,302.1,9.4,752.4,748.6,4.8,265.6,66.3,26.1,141.6,154.6
63176,15,34.7574882,-118.1699434,2498.6,8030,90.3,176.89,0.272,3.9,346.95,350,3.1,0.99,0.55,5,301.8,9.1,751.7,749.7,4.9,266.7,66.3,25,141.6,154.9
63177,15,34.7582906,-118.1701162,2503.6,8042,90.5,177.67,0.274,1.8,346.99,350.1,3.1,0.08,0.64,5,301.8,9.1,751.4,747.3,5,268.9,66.3,24.1,141.6,155.2
63178,15,34.7590959,-118.1702893,2508.2,8040,90.9,177.67,0.274,1.3,347.14,350.1,3,0.05,0.8,5.2,302,9.4,751.5,749.7,4.7,264.7,66.3,24.2,141.6,155.1
63179,15,34.7599047,-118.1704627,2510.8,8057,91.4,179.03,0.276,-0.7,347.23,350.2,2.9,-2.46,0.88,5.1,302,9.4,751,747.3,4.8,267.1,66.3,22,141.6,155.4
63180,15,34.7607161,-118.1706341,2512.3,8050,92,180.39,0.278,-3.9,347.23,350.2,3,-4.03,0.92,5.1,302,9.5,751.2,747.2,4.9,268.2,66.3,20.6,141.6,155.7
63181,15,34.7615368,-118.1708064,2512.8,8022,92.9,181.75,0.28,-5.1,347.28,350.3,2.9,-4.01,0.92,4.5,301.2,8.8,752,749.2,4.9,265.8,66.3,20.6,141.6,155.7
63182,15,34.7623661,-118.1709778,2510.1,8007,93.9,183.5,0.283,-5.4,347.41,350.3,2.9,-4.32,0.84,4.8,301.5,9.2,752.4,749.1,4.8,264.9,66.3,20.3,141.6,155.6
63183,15,34.7632041,-118.1711482,2505.3,7992,94.9,185.83,0.286,-6.1,347.63,350.4,2.7,-4.78,0.8,4.8,301.5,9.4,752.8,749.4,4.7,267.7,66.3,19.9,141.6,155.4
63184,15,34.7640513,-118.1713177,2500,7970,95.9,187.97,0.289,-6.5,347.85,350.4,2.5,-4.96,0.71,4.5,301.1,9.2,753.5,750.9,4.4,269.7,66.3,19.7,141.6,155.2
63185,15,34.7649078,-118.1714861,2494.1,7945,97,190.11,0.293,-6.5,348,350.5,2.4,-4.66,0.34,4.3,300.8,9.1,754.2,752.5,4.3,269.9,66.3,19.8,141.6,154.8
63186,15,34.7657738,-118.1716529,2487.7,7922,98,191.86,0.296,-5.5,348.12,350.5,2.3,-3.86,-0.18,4.9,301.3,9.8,754.9,752,4.1,269,66.3,20.3,141.7,154.4
63187,15,34.7666485,-118.1718174,2481,7910,98.9,193.41,0.298,-4.5,348.2,350.4,2.2,-3.63,-0.63,4.6,301,9.6,755.2,752.4,3.9,268.3,66.3,20.3,141.7,154.1
63188,15,34.7675294,-118.1719785,2474.9,7897,99.7,195.36,0.301,-4.1,348.13,350.3,2.2,-3.42,-1,5,301.4,10,755.6,753.9,3.9,271.1,66.3,20.4,141.7,154
63189,15,34.7684181,-118.172137,2470,7885,100.4,196.52,0.303,-3.6,347.94,350.2,2.2,-3.15,-1.31,5.1,301.4,10.2,756,754.3,4,269.1,66.3,20.5,141.7,154
63190,15,34.7693112,-118.1722919,2465.6,7872,100.8,197.3,0.304,-3.1,347.72,350.1,2.3,-2.96,-1.58,5.1,301.4,10.2,756.3,750,4.3,268.4,66.3,20.5,141.7,154.1
63191,15,34.7702062,-118.1724432,2461.6,7862,101,197.49,0.304,-2.8,347.57,349.9,2.3,-2.87,-1.86,4.9,301.1,10.1,756.6,750,4.2,267,66.3,20.5,141.7,154.1
63192,15,34.7711015,-118.172591,2458.2,7855,101,197.88,0.304,-2.8,347.41,349.7,2.3,-2.89,-1.81,5,301.2,10.1,756.8,748.6,4.1,269.7,66.3,20.5,141.7,154.3
63193,15,34.7719963,-118.1727356,2455.1,7842,101,197.69,0.304,-2.9,347.2,349.5,2.3,-2.97,-1.59,5.3,301.5,10.4,757.1,752.9,4.1,268.1,66.3,20.5,141.7,154.6
63194,15,34.7728902,-118.1732206,2452.2,7832,100.9,197.69,0.304,-3.1,347.05,349.4,2.3,-3.06,-1.43,5.3,301.5,10.4,757.4,755.7,4.2,269.1,66.3,20.5,141.7,154.8
63195,15,34.773783,-118.1733599,2449.2,7822,100.8,197.3,0.304,-3.1,346.99,349.3,2.3,-3.07,-1.2,4.8,300.9,10,757.7,756.9,4.1,267.9,66.3,20.6,141.7,155
63196,15,34.7746723,-118.1734963,2446.1,7802,100.6,196.52,0.303,-2.2,346.87,349.2,2.3,-1.97,-0.97,5.4,301.5,10.5,758.3,758.4,4.1,265,66.3,21.7,141.7,155
63197,15,34.7755618,-118.1736322,2442.8,7797,100.3,195.55,0.301,-0.2,346.71,349.1,2.3,-0.93,-0.83,5.2,301.2,10.2,758.5,763,4.2,262,66.3,22.7,141.7,155.1
63198,15,34.7764473,-118.1737673,2439.9,7800,99.8,194.77,0.3,1.1,346.6,349,2.4,-0.3,-0.75,5.5,301.6,10.5,758.4,761.2,4.2,263.3,66.3,23.3,141.7,155.1
63199,15,34.7773274,-118.1742458,2438.7,7805,99.2,193.61,0.298,2.1,346.56,348.9,2.3,0.21,-0.65,5.5,301.6,10.4,758.3,756,4.1,263.4,66.3,23.8,141.7,155.1
63200,15,34.7782013,-118.1743815,2439.2,7815,98.5,192.44,0.296,2.7,346.57,348.9,2.3,0.4,-0.52,5.4,301.5,10.3,758,756.5,4,264.8,66.3,24,141.7,155.1
63201,15,34.7790687,-118.1745182,2440.8,7825,97.7,190.89,0.294,2.4,346.56,348.9,2.3,0.03,-0.43,5.1,301.2,9.9,757.7,754.4,4,264.9,66.3,23.7,141.7,155.2
63202,15,34.7799302,-118.174656,2443.2,7837,97.2,190.11,0.293,1.1,346.42,348.9,2.4,-0.91,-0.38,5.4,301.6,10.2,757.3,751.9,4.3,265.8,66.3,22.9,141.7,155.6
63203,15,34.7807871,-118.1747945,2445.7,7835,96.7,188.75,0.291,0.1,346.22,348.8,2.6,-1.08,-0.42,5.4,301.6,10.1,757.3,751.2,4.4,262.7,66.3,22.7,141.7,155.8
63204,15,34.7816387,-118.1752756,2447.3,7835,96.5,188.16,0.29,-0.1,346.16,348.8,2.6,-1.13,-0.43,5.1,301.3,9.8,757.4,754.5,4.5,261.3,66.3,22.7,141.7,155.8
63205,15,34.7824898,-118.1754144,2447.7,7830,96.1,187.77,0.289,0.1,346.21,348.8,2.5,-0.74,-0.61,5.1,301.3,9.8,757.5,751.6,4.4,264.1,66.3,23,141.7,155.7
63206,15,34.7833374,-118.1755528,2447.6,7827,95.7,187,0.288,0.8,345.4,348.7,3.2,-0.16,-2.38,5.2,301.4,9.8,757.6,749.2,5.5,262.2,66.3,22.8,141.7,155.7
63207,15,34.7841801,-118.1756876,2447.5,7830,95.2,185.83,0.286,1.5,343.73,348.2,4.5,0.13,-4.96,5.5,301.7,10,757.6,749.5,7.5,259,66.3,22.1,141.7,156.3
63208,15,34.785016,-118.1758129,2448,7835,94.6,184.66,0.284,1.8,342.83,347.5,4.7,0.14,-7.45,5.3,301.5,9.8,757.3,751.4,7.7,258.1,66.2,21.2,141.7,156.3
63209,15,34.7858438,-118.1762685,2449.1,7845,94,184.08,0.283,1.7,343.44,346.6,3.2,0.16,-8.93,5.2,301.4,9.7,757.1,753.6,5.2,262.7,66.2,20.5,141.7,155.2
63210,15,34.7866636,-118.1763671,2450.9,7852,93.4,183.5,0.282,1.4,344.35,345.8,1.4,0.27,-9.33,5.4,301.6,9.8,756.9,753.6,2.6,277.9,66.2,20.3,141.7,154.1
63211,15,34.7874754,-118.1767957,2452.6,7855,92.9,182.33,0.281,1.2,344.09,344.9,0.8,0.27,-9.42,5.3,301.5,9.7,756.8,752.5,1.6,288.8,66.2,20.3,141.7,154.4
63212,15,34.7882778,-118.1768665,2454.1,7857,92.3,181.36,0.279,1.2,342.3,344,1.7,0.25,-9.82,5.4,301.7,9.7,756.7,752.9,2.9,273.1,66.2,20.4,141.7,156
63213,15,34.7890735,-118.1772658,2455.4,7862,92,180.78,0.278,1.3,340.02,342.9,2.9,0.14,-9.92,5.1,301.4,9.4,756.6,754.1,4.8,263.6,66.2,20.6,141.7,158.1
63214,15,34.789862,-118.177648,2456.6,7867,91.7,180.39,0.278,1.3,338.22,341.9,3.6,0.07,-8.4,5.4,301.7,9.7,756.4,757.3,6,260.6,66.2,21.4,141.8,160.4
63215,15,34.7906439,-118.1780153,2457.9,7872,91.4,180,0.277,1.2,337.31,341,3.7,0.07,-5.76,5.1,301.4,9.4,756.3,754.8,6,260.6,66.2,22.2,141.8,162.3
63216,15,34.7914207,-118.1783716,2459.2,7877,91.2,179.81,0.277,0.9,337.21,340.4,3.2,-0.2,-3.67,5.1,301.4,9.3,756.1,754.3,5.3,263.1,66.2,22.7,141.8,163.3
63217,15,34.7921939,-118.1787213,2460.5,7880,91.1,179.61,0.276,0.7,337.52,340.1,2.5,-0.27,-2.6,5.3,301.6,9.6,756.1,753.9,4.3,266.3,66.2,22.9,141.8,163.4
63218,15,34.7929645,-118.1790667,2461.5,7882,91,179.42,0.276,0.7,337.47,339.8,2.3,0.09,-2.33,5.2,301.5,9.4,756,752.8,3.9,267.9,66.2,23.2,141.8,163.6
63219,15,34.7937326,-118.1794085,2462.3,7882,90.8,179.03,0.276,1,336.97,339.6,2.6,0.07,-2.25,5.1,301.4,9.3,756,753.1,4.4,265.5,66.2,23.4,141.8,164.1
63220,15,34.7944983,-118.1797465,2463,7887,90.8,179.22,0.276,1.2,336.31,339.3,2.9,0.18,-2.38,5.1,301.4,9.4,755.8,755.5,5,264.1,66.2,23.5,141.8,164.7
63221,15,34.7952634,-118.1800793,2463.9,7892,90.9,179.42,0.276,1.5,335.87,339,3.1,0.19,-2.63,5.1,301.5,9.3,755.7,757.3,5.2,263.1,66.2,23.4,141.8,165
63222,15,34.7960282,-118.1804062,2465.1,7902,91.1,180.19,0.277,1,335.8,338.7,2.8,-0.49,-2.37,5.1,301.5,9.4,755.4,755.4,4.9,266.2,66.2,22.9,141.8,165.3
63223,15,34.7967935,-118.180728,2466.5,7905,91.4,180.78,0.279,0,335.76,338.4,2.6,-1,-1.75,5,301.4,9.3,755.3,755.5,4.5,267.7,66.2,22.5,141.8,165.6
63224,15,34.7975602,-118.1810453,2467.8,7902,91.7,181.17,0.279,-0.2,335.57,338.2,2.6,-0.97,-1.3,4.8,301.2,9.1,755.4,754.7,4.5,266.3,66.2,22.7,141.8,166
63225,15,34.7983286,-118.1813585,2468.2,7902,92,181.75,0.28,-0.2,335.29,338.1,2.8,-0.95,-1.16,5.1,301.5,9.4,755.5,754.5,4.8,264.9,66.2,22.7,141.8,166.4
63226,15,34.7990988,-118.1816679,2468,7900,92.3,182.33,0.281,-0.3,335.14,337.9,2.7,-1.07,-1.09,4.8,301.2,9.2,755.5,753.4,4.7,265,66.2,22.6,141.8,166.5
63227,15,34.7998711,-118.1823168,2467.7,7900,92.7,183.11,0.282,-0.4,335.1,337.8,2.7,-1.2,-0.74,4.8,301.2,9.2,755.5,753.8,4.7,265.3,66.2,22.6,141.8,166.7
63228,15,34.800642,-118.1826192,2467.5,7897,93.1,183.89,0.283,-0.6,335.1,337.7,2.6,-1.2,-0.25,5,301.4,9.5,755.5,754.8,4.5,265.8,66.2,22.7,141.8,167
63229,15,34.8014189,-118.1829194,2467.1,7895,93.4,184.47,0.284,-0.4,335.16,337.7,2.5,-1.02,-0.23,4.9,301.3,9.3,755.6,754.3,4.4,266.2,66.2,22.9,141.8,166.9
63230,15,34.8021984,-118.1832174,2466.5,7895,93.7,184.66,0.284,-0.1,335.29,337.6,2.3,-0.92,-0.27,5,301.3,9.5,755.7,755.4,4,265.3,66.2,23,141.8,166.7
63231,15,34.8029796,-118.1838573,2465.9,7895,93.9,185.44,0.285,0,335.32,337.6,2.2,-0.87,-0.23,4.9,301.2,9.5,755.7,752.8,4.1,268.2,66.2,23,141.8,166.7
63232,15,34.8037621,-118.1841527,2465.6,7895,94,185.64,0.286,0.1,335.15,337.6,2.4,-0.77,-0.25,4.9,301.2,9.4,755.7,753.3,4.3,266.7,66.2,23.1,141.8,166.9
63233,15,34.8045458,-118.1844469,2465.6,7895,94.1,186.22,0.287,0.3,334.93,337.5,2.6,-0.64,-0.34,4.8,301.1,9.3,755.6,751.9,4.6,268,66.2,23.2,141.8,167.1
63234,15,34.8053301,-118.1847397,2465.6,7895,94.3,186.22,0.287,0.5,334.84,337.5,2.6,-0.53,-0.46,5,301.4,9.6,755.6,752.3,4.7,264.9,66.2,23.3,141.8,167.1
63235,15,34.806115,-118.1853742,2465.8,7897,94.4,186.41,0.287,0.6,334.92,337.4,2.4,-0.42,-0.52,5.1,301.5,9.7,755.6,751.9,4.4,266.2,66.2,23.4,141.8,167
63236,15,34.8068956,-118.1856634,2466.1,7900,94.5,186.61,0.287,0.8,335.05,337.4,2.3,-0.26,-0.56,4.8,301.2,9.4,755.5,751.5,4.2,267.2,66.2,23.6,141.8,166.8
63237,15,34.8076811,-118.1859522,2466.6,7902,94.5,186.61,0.288,1.1,335.1,337.3,2.2,0.08,-0.54,4.7,301.1,9.3,755.4,752.3,4,268.5,66.2,23.7,141.8,166.8
63238,15,34.8084664,-118.1865832,2467.2,7905,94.5,186.61,0.287,1.4,335,337.2,2.2,0.1,-0.61,5,301.4,9.6,755.3,750.7,4,268.4,66.2,23.9,141.8,166.8
63239,15,34.8092513,-118.1868698,2468.1,7910,94.5,186.61,0.287,1.8,334.87,337.2,2.3,0.26,-0.68,5,301.4,9.6,755.2,751,4.2,267.2,66.2,24,141.8,166.9
63240,15,34.8102318,-118.1873984,2469.3,7920,94.5,186.41,0.287,1.9,334.67,337.1,2.4,0.19,-0.66,4.7,301.1,9.3,754.9,752.4,4.3,265,66.2,24,141.8,167.1
63241,15,34.8110643,-118.1876576,2470.9,7927,94.4,186.61,0.288,1.6,334.51,337,2.5,0.02,-0.76,5,301.5,9.6,754.7,752.1,4.4,266.9,66.2,23.8,141.8,167.3
63242,15,34.8118963,-118.1882838,2474.5,7932,94.5,186.8,0.288,1.2,334.45,336.9,2.4,-0.21,-0.84,4.9,301.4,9.5,754.6,750.6,4.4,267.1,66.2,23.6,141.8,167.3
63243,15,34.8126746,-118.1885644,2475.9,7935,94.5,186.8,0.288,0.9,334.47,336.8,2.3,-0.38,-0.91,4.8,301.3,9.5,754.5,751,4.2,268.1,66.2,23.4,141.9,167.3
63244,15,34.8134567,-118.189187,2477,7937,94.5,187,0.288,0.8,334.43,336.7,2.3,-0.47,-0.93,4.6,301.1,9.2,754.5,751.9,4.1,269.8,66.2,23.3,141.9,167.3
63245,15,34.8142396,-118.1894649,2477.8,7937,94.7,187.39,0.289,0.7,334.26,336.7,2.4,-0.57,-0.91,4.6,301.1,9.2,754.4,751,4.4,268.2,66.2,23.2,141.9,167.5
63246,15,34.8150226,-118.1897407,2478.5,7942,94.7,187.39,0.289,0.6,334.05,336.6,2.4,-0.66,-0.98,4.9,301.4,9.6,754.3,751.4,4.6,267.1,66.2,23.1,141.9,167.7
63247,15,34.8158058,-118.1903576,2479.1,7945,94.9,187.97,0.289,0.3,333.93,336.4,2.5,-0.77,-1.11,4.9,301.4,9.6,754.2,751.1,4.5,268.7,66.2,23,141.9,167.8
63248,15,34.8165893,-118.1906289,2479.6,7945,95,188.36,0.29,0.2,333.91,336.3,2.4,-0.83,-1.03,4.6,301.1,9.3,754.2,750.4,4.4,270.5,66.2,22.9,141.9,167.8
63249,15,34.8173731,-118.191241,2479.9,7945,95.1,188.55,0.29,0.1,333.86,336.2,2.3,-0.9,-0.91,4.9,301.4,9.6,754.2,750.9,4.4,270.9,66.2,22.9,141.9,168
63250,15,34.8181575,-118.1915077,2480,7945,95.2,189.33,0.292,0,333.73,336.1,2.4,-0.95,-0.81,4.6,301.1,9.4,754.2,752.1,4.6,273.8,66.2,22.9,141.9,168.1
63251,15,34.8189374,-118.1921156,2480,7945,95.4,189.72,0.292,0,333.56,336,2.4,-0.97,-0.76,4.5,301,9.3,754.2,750.4,4.7,272.9,66.2,22.9,141.9,168.3
63252,15,34.819722,-118.192378,2479.9,7942,95.5,189.91,0.293,0,333.49,335.9,2.4,-0.99,-0.71,4.5,301,9.2,754.3,751.6,4.6,273.1,66.2,22.8,141.9,168.4
63253,15,34.8205081,-118.1926383,2479.9,7945,95.6,190.11,0.293,-0.1,333.55,335.9,2.3,-1.03,-0.57,4.7,301.2,9.5,754.2,751,4.5,273.7,66.2,22.8,141.9,168.4
63254,15,34.821295,-118.1932401,2479.7,7945,95.8,190.3,0.293,-0.1,333.51,335.8,2.2,-1.07,-0.46,4.7,301.2,9.5,754.2,750.7,4.4,273.1,66.2,22.8,141.9,168.5
63255,15,34.8220827,-118.1934969,2479.6,7942,95.9,190.5,0.294,-0.2,333.43,335.7,2.3,-1.08,-0.44,4.7,301.2,9.5,754.3,750.9,4.4,273.2,66.2,22.8,141.9,168.6
63256,15,34.8228712,-118.1940953,2479.4,7942,96.1,190.89,0.294,-0.2,333.48,335.7,2.2,-1.16,-0.4,4.4,300.9,9.2,754.3,751,4.3,273.7,66.2,22.7,141.9,168.6
63257,15,34.8236608,-118.1946921,2479.2,7942,96.3,191.08,0.294,-0.4,333.51,335.6,2.1,-1.33,-0.26,4.7,301.2,9.5,754.3,751.6,4.1,274,66.2,22.6,141.9,168.6
63258,15,34.8244517,-118.1949443,2478.9,7942,96.5,191.47,0.295,-0.7,333.44,335.6,2.1,-1.6,-0.13,4.6,301.1,9.5,754.3,750.6,4.2,273.1,66.2,22.4,141.9,168.8
63259,15,34.8252398,-118.1955384,2478.4,7942,96.7,192.25,0.296,-1.5,333.33,335.6,2.2,-2.31,-0.11,4.7,301.2,9.5,754.3,751.5,4.5,274,66.2,21.7,141.9,169
63260,15,34.8260339,-118.1957873,2477.5,7937,97,193.22,0.298,-2.7,333.35,335.5,2.1,-3.04,-0.14,4.6,301.1,9.5,754.4,751.4,4.4,277.5,66.2,21,141.9,169
63261,15,34.8268314,-118.1963771,2475.5,7925,97.5,194.19,0.299,-3.9,333.54,335.5,1.9,-3.67,-0.13,4.3,300.7,9.3,754.8,751.6,4.1,279.9,66.2,20.3,141.9,168.9
63262,15,34.8276328,-118.1966212,2472.4,7912,98,195.36,0.301,-4.8,333.7,335.5,1.8,-4.13,0.05,4.6,301,9.6,755.2,752.1,4,283.3,66.2,19.9,141.9,168.8
63263,15,34.8284385,-118.197206,2468.2,7890,98.5,196.33,0.302,-4.9,333.68,335.5,1.8,-3.87,0.05,4.4,300.7,9.5,755.8,751.4,4,282.9,66.2,20.2,141.9,168.8
63264,15,34.8292481,-118.1974453,2463.2,7872,98.9,196.52,0.303,-4.4,333.57,335.5,1.9,-3.63,0.08,4.6,300.8,9.7,756.3,750.6,4,277.7,66.2,20.4,141.9,168.9
63265,15,34.8300598,-118.1980266,2458.3,7857,99.1,197.11,0.304,-4.2,333.48,335.5,2,-3.63,0.08,4.6,300.8,9.7,756.7,749.1,4.2,277.5,66.2,20.4,141.9,169
63266,15,34.8308729,-118.1986073,2453.8,7842,99.2,197.3,0.304,-4.1,333.47,335.5,2,-3.44,0.08,5,301.2,10.1,757.1,751.2,4.2,277.4,66.2,20.6,141.9,169
63267,15,34.8316842,-118.1988436,2449.4,7830,99.4,197.88,0.305,-3.7,333.5,335.5,2,-3.18,0.07,5.1,301.3,10.3,757.5,751.9,4.3,278.8,66.2,20.9,141.9,169
63268,15,34.8324987,-118.1994234,2445.3,7815,99.4,197.88,0.305,-2.8,333.59,335.5,1.9,-2.58,0.35,4.8,300.9,9.9,757.9,753.6,4.1,280.1,66.2,21.5,141.9,169
63269,15,34.8333135,-118.2000042,2441.7,7807,99.3,197.49,0.304,-1.7,333.59,335.6,2,-1.94,0.46,4.8,300.8,9.9,758.2,754.1,4.2,277.7,66.2,22.2,141.9,169
63270,15,34.8341273,-118.2002433,2439,7802,99,196.52,0.303,-0.6,333.5,335.6,2.1,-1.26,0.43,5.3,301.4,10.4,758.3,754.8,4.2,274.3,66.2,22.8,141.9,169
63271,15,34.8349388,-118.2008281,2437.4,7800,98.6,195.55,0.302,0.3,333.46,335.7,2.2,-0.79,0.41,5.2,301.3,10.3,758.4,755.2,4.4,271.8,66.2,23.3,141.9,169
63272,15,34.835747,-118.2010723,2437,7805,98.2,194.97,0.3,0.7,333.57,335.7,2.1,-0.64,0.33,5,301.1,10,758.2,759.5,4.2,274.3,66.2,23.4,142,168.8
63273,15,34.836552,-118.2016626,2437.3,7807,97.7,194,0.299,0.8,333.72,335.8,2,-0.61,0.4,5.2,301.3,10.2,758.2,759.6,4.2,275.1,66.2,23.5,142,168.7
63274,15,34.8373534,-118.2019126,2437.9,7810,97.3,193.22,0.297,0.8,333.83,335.9,2,-0.62,0.5,5.3,301.4,10.2,758.1,758.1,4.1,275.4,66.2,23.5,142,168.7
63275,15,34.8381484,-118.2025089,2438.7,7812,96.8,192.63,0.297,0.7,333.89,335.9,2,-0.71,0.54,5.3,301.4,10.2,758,756,4.1,278.7,66.2,23.4,142,168.6
63276,15,34.8389431,-118.2027649,2439.5,7815,96.5,191.86,0.295,0.6,333.93,336,2,-0.82,0.56,5.3,301.4,10.1,757.9,757.9,4.2,276.9,66.2,23.3,142,168.6
63277,15,34.8397352,-118.2033671,2440.2,7817,96,191.08,0.294,0.3,333.97,336,2,-0.92,0.55,5.3,301.4,10.2,757.9,757.6,4.1,278.7,66.2,23.2,142,168.6
63278,15,34.8405245,-118.203629,2440.6,7817,95.7,190.11,0.293,0.1,333.94,336.1,2.1,-1.06,0.55,5.1,301.2,9.8,757.9,756.7,4.2,274.9,66.2,23.1,142,168.6
63279,15,34.8413115,-118.2042369,2440.9,7817,95.3,189.33,0.291,-0.2,333.92,336.2,2.2,-1.26,0.56,5.3,301.4,10,757.9,755.8,4.4,273.8,66.2,22.9,142,168.7
63280,15,34.8420961,-118.204504,2440.9,7817,95,189.14,0.291,-0.7,333.9,336.2,2.3,-1.5,0.43,5.3,301.4,10,757.9,755.7,4.5,275.8,66.2,22.6,142,168.7
63281,15,34.8428789,-118.2051165,2440.5,7815,94.8,188.75,0.291,-1.2,333.95,336.3,2.3,-1.74,0.33,5.3,301.4,10,758,755.3,4.6,275.4,66.2,22.4,142,168.6
63282,15,34.8436597,-118.2053871,2439.7,7810,94.5,188.55,0.29,-1.6,334.17,336.3,2.1,-1.99,0.29,5.3,301.4,10,758.1,753.6,4.3,280.3,66.2,22.1,142,168.4
63283,15,34.844436,-118.2060021,2438.3,7805,94.5,188.55,0.29,-2.1,334.42,336.4,1.9,-2.21,0.37,5.2,301.3,9.9,758.2,751.1,4.1,282.5,66.2,21.9,142,168.2
63284,15,34.8452149,-118.2062753,2436.6,7795,94.4,188.75,0.29,-2.4,334.48,336.4,1.9,-2.14,0.47,5.2,301.2,9.9,758.5,751.1,4.2,285.5,66.2,22,142,168.2
63285,15,34.8459942,-118.20655,2434.4,7785,94.3,188.55,0.29,-2,334.37,336.5,2.1,-1.94,0.65,5.2,301.2,9.9,758.8,752.4,4.5,282.6,66.2,22.2,142,168.3
63286,15,34.8467732,-118.2071694,2432.1,7780,94.2,188.16,0.29,-1.4,334.32,336.6,2.2,-1.8,0.76,5.2,301.2,9.9,758.9,753.8,4.6,279.8,66.1,22.4,142,168.4
63287,15,34.8475518,-118.2074475,2430.3,7775,94.1,187.39,0.289,-0.6,334.41,336.7,2.2,-1.08,0.87,5.2,301.2,9.8,759.1,754.5,4.4,276.7,66.1,23.1,142,168.3
63288,15,34.8483294,-118.2080713,2429,7772,93.8,186.61,0.287,0.6,334.63,336.8,2.1,-0.27,0.9,5.1,301.1,9.7,759.2,755.2,4.2,277.2,66.1,23.9,142,168
63289,15,34.8491053,-118.2083551,2428.7,7777,93.5,186.22,0.287,1.6,334.88,336.9,2,0.34,0.93,5.1,301.1,9.6,759.1,756.3,4.1,280.5,66.1,24.5,142,167.8
63290,15,34.8498794,-118.2086423,2429.6,7785,93.2,185.64,0.286,2.6,335,337,2,0.83,1.01,5,301,9.6,758.8,757.1,4,280.9,66.1,25,142,167.6
63291,15,34.8506476,-118.2092762,2431.5,7795,92.7,185.25,0.285,3.2,334.98,337.2,2.1,1.16,1.09,5.1,301.1,9.6,758.6,755.4,4.5,281.6,66.1,25.4,142,167.7
63292,15,34.8514157,-118.2095714,2434.2,7805,92.3,184.08,0.284,3.5,334.96,337.3,2.3,1.41,1.1,5.3,301.4,9.8,758.2,756,4.5,278.3,66.1,25.6,142,167.7
63293,15,34.8521807,-118.2098711,2437.5,7817,91.7,183.3,0.282,3.8,335.05,337.5,2.3,1.61,1.18,5.3,301.4,9.7,757.9,754.3,4.8,279.4,66.1,25.8,142,167.6
63294,15,34.8529422,-118.2101754,2441.2,7832,91.2,182.14,0.28,4.1,335.18,337.6,2.4,1.64,1.28,5.2,301.4,9.6,757.5,753.4,4.6,279,66.1,25.9,142,167.5
63295,15,34.8537002,-118.2108277,2445.1,7845,90.7,181.17,0.279,3.9,335.28,337.8,2.4,1.42,1.37,5,301.2,9.3,757.1,754.3,4.8,278.3,66.1,25.7,142,167.5
63296,15,34.854455,-118.2111413,2449.3,7862,90.2,180.39,0.278,3.5,335.4,337.9,2.5,1.19,1.07,5,301.2,9.3,756.6,753.9,4.8,279.7,66.1,25.4,142,167.2
63297,15,34.855207,-118.2114586,2453.1,7870,89.8,179.42,0.276,3,335.6,338,2.4,0.92,0.48,5.2,301.5,9.5,756.3,753.3,4.6,280,66.1,25,142,166.8
63298,15,34.8559561,-118.2117788,2456.6,7882,89.4,178.44,0.275,2.4,335.81,338.1,2.2,0.6,0.09,5.3,301.6,9.5,756,752.8,4.3,280.5,66.1,24.6,142,166.4
63299,15,34.8566993,-118.2121004,2459.5,7887,89.2,177.86,0.274,1.8,335.91,338.1,2.1,0.29,-0.58,5.2,301.5,9.4,755.9,753,4.1,280.7,66.1,24.2,142,166.1
63300,15,34.8574431,-118.2124232,2461.8,7892,88.9,177.08,0.273,1.2,335.78,338,2.2,0.03,-1.04,5.2,301.6,9.3,755.7,752.6,4.1,279.1,66.1,23.7,142,166.1
63301,15,34.858185,-118.2127458,2463.5,7895,88.7,176.7,0.272,0.7,335.46,337.9,2.4,-0.27,-1.51,4.9,301.2,9,755.7,751.6,4.4,276.6,66.1,23.4,142.1,166.2
63302,15,34.8589247,-118.213067,2464.7,7895,88.5,176.31,0.271,0.4,335.13,337.8,2.6,-0.46,-1.92,4.9,301.3,9,755.6,752.3,4.7,274.2,66.1,23.1,142.1,166.4
63303,15,34.8596621,-118.2137292,2465.4,7897,88.4,176.31,0.271,0,334.89,337.6,2.6,-0.69,-2.31,5.1,301.5,9.2,755.6,751.1,4.8,274.7,66.1,22.8,142.1,166.5
63304,15,34.8603975,-118.2140451,2465.8,7895,88.4,176.5,0.272,-0.4,334.75,337.3,2.5,-0.93,-2.65,4.8,301.1,8.9,755.6,752.1,4.7,277.1,66.1,22.5,142.1,166.5
63305,15,34.8611308,-118.2143573,2465.6,7895,88.3,176.5,0.272,-0.8,334.65,337,2.4,-1.19,-2.65,5,301.4,9.1,755.6,751.2,4.4,280.1,66.1,22.3,142.1,166.6
63306,15,34.8618625,-118.2146656,2465.1,7892,88.3,176.11,0.271,-1.1,334.46,336.8,2.3,-1.54,-2.01,5.2,301.6,9.3,755.7,752.9,4.3,277.8,66.1,22.1,142.1,167.1
63307,15,34.8625856,-118.2149709,2464.3,7892,88.4,176.31,0.271,-2.2,334.13,336.6,2.5,-2.5,-1.49,5.4,301.8,9.5,755.7,752.3,4.5,276.1,66.1,21.3,142.1,167.8
63308,15,34.8633155,-118.2156166,2463,7880,88.5,176.89,0.272,-3.2,333.78,336.5,2.7,-2.73,-1.05,4.8,301.1,8.9,756.1,751.4,4.9,275.5,66.1,21.1,142.1,168.3
63309,15,34.8640475,-118.215916,2460.5,7867,88.7,177.08,0.272,-3.3,333.63,336.4,2.7,-2.58,-0.68,5,301.3,9.1,756.5,752.1,5,273.9,66.1,21.4,142.1,168.6
63310,15,34.864781,-118.216213,2457.2,7857,89,177.67,0.273,-3.2,333.72,336.3,2.6,-2.48,-0.29,5,301.2,9.1,756.8,751.5,4.7,275.6,66.1,21.5,142.1,168.7
63311,15,34.8655161,-118.2165085,2453.9,7845,89.2,177.86,0.274,-3,333.92,336.3,2.3,-2.33,0.17,5.3,301.5,9.5,757.1,753.8,4.4,276.6,66.1,21.8,142.1,168.7
63312,15,34.866253,-118.2171467,2450.8,7835,89.4,178.25,0.274,-2.4,334.09,336.4,2.2,-1.8,0.29,5.1,301.3,9.2,757.4,753.9,4.3,277.5,66.1,22.3,142.1,168.5
63313,15,34.8669913,-118.2174418,2447.9,7830,89.4,178.44,0.275,-1.6,334.14,336.4,2.2,-1.31,0.35,5.1,301.2,9.3,757.6,753.4,4.3,279.2,66.1,22.8,142.1,168.5
63314,15,34.8677305,-118.2177375,2445.7,7825,89.5,178.25,0.275,-0.9,334.09,336.5,2.3,-0.84,0.37,5.6,301.8,9.8,757.7,754.1,4.4,275.3,66.1,23.3,142.1,168.5
63315,15,34.8684597,-118.2183792,2444.3,7822,89.4,178.25,0.274,-0.1,334.04,336.6,2.5,-0.36,0.4,5.3,301.4,9.5,757.7,754.3,4.7,274.9,66.1,23.8,142.1,168.5
63316,15,34.8691969,-118.2186781,2443.6,7825,89.3,178.06,0.274,0.6,334.03,336.6,2.5,0.05,0.43,5.1,301.2,9.3,757.7,753.9,4.7,274.9,66.1,24.1,142.1,168.5
63317,15,34.8699344,-118.2189786,2443.7,7827,89.1,177.86,0.274,1,334.11,336.7,2.5,0.21,0.43,5.1,301.2,9.2,757.6,755,4.7,275.9,66.1,24.3,142.1,168.4
63318,15,34.8706704,-118.2192811,2444.4,7830,88.8,177.28,0.273,1.5,334.28,336.8,2.4,0.5,0.43,5.1,301.3,9.3,757.5,754,4.6,276.8,66.1,24.6,142.1,168.2
63319,15,34.8714046,-118.2195859,2445.6,7835,88.5,176.5,0.272,1.9,334.39,336.9,2.4,0.76,0.52,5.1,301.3,9.2,757.3,754.9,4.6,276,66.1,24.9,142.1,168.1
63320,15,34.8721366,-118.2202369,2447.2,7845,88.2,176.31,0.271,2.2,334.39,337,2.5,1.03,0.54,5.1,301.3,9.2,757.1,753.4,4.8,277.2,66.1,25.2,142.1,168.1
63321,15,34.8728661,-118.2205476,2449.2,7850,87.8,175.33,0.27,2.6,334.38,337,2.6,1.3,0.52,5.4,301.6,9.4,756.9,753.3,4.7,276.2,66.1,25.4,142.1,168.1
63322,15,34.8735928,-118.2208611,2451.5,7860,87.4,174.56,0.269,2.9,334.45,337.1,2.6,1.51,0.52,5.4,301.7,9.4,756.7,753.8,4.7,276.1,66.1,25.6,142.1,168
63323,15,34.8743105,-118.2211776,2454.2,7870,86.9,173.78,0.267,3.1,334.58,337.2,2.6,1.69,0.54,5.3,301.6,9.3,756.4,752.9,4.7,277.7,66.1,25.8,142.1,167.9
63324,15,34.87503,-118.2214977,2457.2,7880,86.5,173,0.266,3.3,334.69,337.3,2.6,1.84,0.59,5.1,301.4,9,756.1,752.1,4.7,278,66.1,26,142.1,167.8
63325,15,34.8757471,-118.2218214,2460.4,7892,86,172.42,0.265,3.3,334.71,337.4,2.7,1.63,0.67,5,301.3,8.9,755.7,752.5,4.9,279.4,66.1,25.8,142.1,167.8
63326,15,34.8764612,-118.2224917,2463.8,7902,85.6,171.45,0.264,2.8,334.67,337.5,2.8,1.37,0.65,5.3,301.7,9.2,755.4,751.1,5,277.3,66.1,25.5,142.1,167.9
63327,15,34.8771727,-118.2228217,2467,7912,85.3,170.47,0.263,2.3,334.69,337.6,2.9,1.08,0.52,5,301.4,8.8,755.2,751.2,5,274.8,66.1,25.2,142.1,167.8
63328,15,34.8778818,-118.2231543,2469.8,7920,84.9,169.7,0.261,1.8,334.83,337.7,2.8,0.75,0.45,5,301.4,8.8,754.9,752.3,4.9,275.4,66.1,24.9,142.1,167.7
63329,15,34.8785891,-118.2234892,2472,7925,84.8,169.31,0.26,1.2,334.97,337.8,2.7,0.42,0.46,5,301.5,8.7,754.8,751.9,4.8,274.8,66.1,24.6,142.1,167.6
63330,15,34.8792951,-118.223826,2473.6,7927,84.6,168.92,0.26,0.7,335.06,337.8,2.7,0.07,0.46,5.2,301.7,9,754.7,751.1,4.7,275.7,66.1,24.2,142.2,167.5
63331,15,34.8799929,-118.2241655,2474.8,7927,84.4,168.73,0.26,0.2,335.06,337.9,2.8,-0.28,0.43,5.1,301.6,8.9,754.7,752.4,4.9,276,66.1,23.9,142.2,167.6
63332,15,34.8806966,-118.2245057,2475.4,7930,84.4,168.73,0.26,-0.3,335.06,338,2.9,-0.62,0.35,5.2,301.7,9,754.7,750.9,5,275.2,66.1,23.5,142.2,167.6
63333,15,34.8814013,-118.2248466,2475.5,7927,84.4,168.92,0.26,-0.7,335.07,338,2.9,-0.95,0.26,5,301.5,8.7,754.7,749.7,5,276.2,66.1,23.2,142.2,167.5
63334,15,34.8821065,-118.2251882,2475.1,7925,84.4,169.31,0.26,-1.2,335.14,338.1,2.9,-1.24,0.23,5.2,301.7,9,754.8,751.2,5.2,278,66.1,22.9,142.2,167.5
