Time_Start,Day_Of_Year,Latitude,Longitude,GPS_Altitude,Pressure_Altitude,Ground_Speed,True_Air_Speed,Mach_Number,Vertical_Speed,True_Heading,Track_Angle,Drift_Angle,Pitch_Angle,Roll_Angle,Static_Air_Temp,Potential_Temp,Total_Air_Temp,Static_Pressure,Cabin_Pressure,Wind_Speed,Wind_Direction,Solar_Zenith_Angle,Aircraft_Sun_Elevation,Sun_Azimuth,Aircraft_Sun_Azimuth
62098,18,32.0104818,-81.1604282,12.2,-402,0,45.68,0.069,0,94.67,94.7,0,4.34,0.07,18.7,289.5,19,1028.1,1032,23.5,94.7,52.8,36.4,173.8,76.3
62099,18,32.0104818,-81.1604283,12.2,-402,0,45.68,0.069,0,94.67,94.7,0,4.34,0.09,18.8,289.6,19,1028.1,1027.5,23.5,94.7,52.8,36.4,173.8,76.3
62100,18,32.0104817,-81.1604289,12.2,-402,0.3,45.68,0.069,0,94.67,94.7,0,4.42,0.09,18.7,289.5,19,1028.1,1028.7,22.9,94.7,52.8,36.4,173.8,76.2
62101,18,32.0104813,-81.1604364,12.2,-402,1.4,45.68,0.069,0,94.64,94.6,0,4.44,0.04,18.9,289.7,19.2,1028.1,1027.3,20.8,94.6,52.8,36.3,173.8,76.2
62102,18,32.0104799,-81.1604606,12.2,-402,3.4,45.49,0.069,0,94.56,94.6,0,4.49,0.07,18.3,289.2,18.6,1028,1025.7,16.8,94.5,52.8,36.4,173.8,76.3
62103,18,32.0104768,-81.1601702,12.2,-400,6.8,45.49,0.069,0,94.41,94.4,0,4.5,0.13,18.4,289.3,18.7,1028,1028.1,10.2,94.4,52.8,36.4,173.8,76.4
62104,18,32.0104717,-81.1602648,12.2,-400,11.2,21.77,0.033,0,93.92,93.9,0,4.53,0.15,17.9,288.8,18,1028,1029.6,10.6,273.9,52.8,36.5,173.8,76.9
62105,18,32.0104652,-81.1600635,12.1,-400,15.6,30.71,0.046,0,92.95,92.9,0,4.6,0.2,18.1,289,18.2,1028,1028.9,14.5,272.8,52.8,36.6,173.8,77.8
62106,18,32.0104589,-81.1599097,12.2,-400,20.1,40.04,0.058,0,92.09,92.1,0,4.63,0.18,17.3,288.2,17.5,1028,1028.2,18.5,272.1,52.8,36.6,173.8,78.6
62107,18,32.0104532,-81.1594605,12.2,-402,24.7,51.12,0.077,0,91.64,91.6,0,4.69,0.02,16.7,287.6,17,1028.1,1028.6,21.7,271.6,52.8,36.5,173.8,79.1
62108,18,32.0104484,-81.1594027,12.2,-405,29.2,62.2,0.093,0,91.22,91,-0.8,4.6,0.07,16.7,287.6,17.2,1028.2,1028.5,24.8,270.7,52.8,36.5,173.8,79.5
62109,18,32.0104444,-81.1590496,12.2,-407,33.8,69.78,0.105,0,91.32,90.7,-1.1,4.58,-0.51,16.8,287.6,17.4,1028.3,1030.8,29.8,270,52.8,36,173.8,79.6
62110,18,32.0104402,-81.1587444,12.2,-410,38.3,75.03,0.113,0,91.74,90.8,-1.3,4.66,-0.37,16.3,287.1,17.1,1028.3,1029.1,35.9,269.8,52.8,36.1,173.8,79.1
62111,18,32.0104341,-81.1581436,12.2,-415,42.8,82.22,0.124,0.1,91.8,91,-1.1,4.63,0.02,16.4,287.2,17.3,1028.5,1028.9,40.9,270.2,52.8,36.5,173.8,79
62112,18,32.0104263,-81.1575898,12.3,-415,47.1,89.42,0.135,0.1,91.62,91.1,-0.9,4.84,-0.2,16.1,286.9,17.2,1028.5,1029.7,45.6,270.6,52.8,36.3,173.9,79
62113,18,32.0104176,-81.1570812,12.5,-420,51.3,100.3,0.151,0.4,92.04,91.2,-1.2,7.1,0.53,16.3,287.1,17.6,1028.7,1028.9,48.1,270.3,52.8,36.5,173.9,76.8
62114,18,32.0104067,-81.1566156,12.8,-412,55.2,108.47,0.164,0.9,92.81,91.4,-1.7,7.35,0.19,16.1,286.9,17.6,1028.5,1028.9,51.5,269.9,52.8,36,173.9,76
62115,18,32.0103929,-81.155846,13.7,-397,58.8,117.41,0.176,1.3,93.05,91.6,-1.7,7.65,-0.88,15.6,286.5,17.4,1027.9,1028.9,53.9,270,52.8,34.8,173.9,75.9
62116,18,32.0103779,-81.1554541,16.2,-372,61.6,123.63,0.185,2.3,92.75,91.6,-1.4,12.76,-0.92,15.9,286.9,17.8,1027,1028,56.2,270.3,52.8,33.5,173.9,72.9
62117,18,32.0103634,-81.1547389,19.9,-330,62.4,128.88,0.196,4.7,92.38,91.4,-1.2,19.3,-1.03,15.6,286.7,17.8,1025.4,1028.5,55,270.2,52.8,31.3,173.9,69.3
62118,18,32.010351,-81.1540224,25.8,-272,61.6,131.79,0.2,6.9,92.68,91.2,-1.8,23.36,0.06,15.4,286.7,17.7,1023.3,1025.5,52,269.3,52.8,30.5,173.9,66.2
62119,18,32.010339,-81.1532962,37.9,-182,61,132.57,0.2,7.9,93.93,91.4,-2.9,22.91,1.42,15.3,286.8,17.6,1020,1021.7,50.5,268,52.8,31.6,173.9,64.5
62120,18,32.010324,-81.1529142,58,-97,61.5,134.12,0.203,8,95.03,91.8,-3.5,22.63,2.46,15.1,286.9,17.5,1016.8,1018.4,50.8,267.4,52.8,32.3,173.9,63
62121,18,32.0103042,-81.1521944,83.2,-7,62.2,133.93,0.203,7.9,94.77,92.2,-2.8,22.2,0.43,15.1,287.1,17.4,1013.5,1014.2,52.2,268.8,52.8,30.7,173.9,64.8
62122,18,32.0102819,-81.1514819,109.5,72,62.7,135.1,0.204,7.9,94.07,92.3,-2,22.68,0.83,14.8,287.1,17.2,1010.6,1012.2,52.5,270,52.8,31.1,173.9,64.9
62123,18,32.0102581,-81.1507734,135.8,160,63.1,138.21,0.209,8,94.05,92.4,-1.9,22.55,-0.12,14.3,286.8,16.8,1007.4,1009.3,51.6,270.1,52.8,30.4,173.9,65.6
62124,18,32.0102342,-81.1500694,161.8,255,63.5,138.98,0.209,8,94.5,92.4,-2.4,22.43,-0.73,14.1,286.9,16.6,1004,1005.8,52,269.5,52.8,29.7,173.9,65.7
62125,18,32.0102101,-81.1493711,188.3,337,64.1,139.76,0.212,8,95.34,92.4,-3.2,22.35,-0.3,14.2,287.3,16.8,1000.9,1002.3,52.9,268.4,52.8,29.8,173.9,64.8
62126,18,32.0101858,-81.1486774,215,422,64.4,141.32,0.214,8.1,95.8,92.4,-3.6,22.92,-1.25,14,287.3,16.6,997.8,999.2,52.8,267.7,52.8,28.6,173.9,64.7
62127,18,32.0101617,-81.1479846,241.5,510,64.3,140.54,0.213,8.5,96.1,92.4,-4,23.79,0.03,13.5,287.1,16.1,994.7,996.2,53,267.4,52.8,29.2,173.9,63.2
62128,18,32.0101372,-81.1472898,268.1,602,64.2,140.73,0.213,8.7,96.01,92.6,-3.7,23.49,0.84,13.6,287.5,16.2,991.4,992.9,52.7,267.9,52.8,30.1,173.9,62.9
62129,18,32.0101101,-81.1465956,295.7,697,64.3,143.26,0.222,8.8,95.68,92.7,-3.2,23.38,0.14,13,287.1,15.9,987.9,990.2,51.5,268.4,52.8,29.7,173.9,63.7
62130,18,32.0100835,-81.1459021,324.2,805,64.4,141.9,0.216,8.9,96.44,92.6,-4.1,23.1,-0.21,13.5,288,16.1,984.1,985.3,52.6,267.3,52.8,29.2,174,63.4
62131,18,32.0100575,-81.1452132,353.3,902,65.1,141.51,0.214,8.5,98.72,92.6,-6.4,21.59,0.65,13.8,288.6,16.4,980.7,982.5,54.7,264.4,52.8,29.9,174,61.7
62132,18,32.0100299,-81.1445348,382.8,992,66.3,141.9,0.215,8,100.95,92.8,-8.4,20.5,-0.15,14,289,16.6,977.5,978.5,57.6,262.4,52.8,29,174,60.9
62133,18,32.0099998,-81.1438673,411.7,1067,67.1,141.32,0.214,7.8,101.55,92.9,-8.9,21.15,-0.86,14.1,289.4,16.8,974.8,976.3,59.6,262.3,52.8,27.9,174,60.6
62134,18,32.0099693,-81.1432055,438.8,1150,67.5,142.29,0.215,7.9,101.47,92.8,-8.8,21.18,-0.99,14.7,290.2,17.4,971.8,973.8,59.9,262.2,52.8,27.8,174,60.7
62135,18,32.0099395,-81.1425485,464.7,1237,68,143.07,0.217,7.9,101.35,92.8,-8.8,21.14,-1.2,14.5,290.3,17.2,968.7,970.5,60.4,262.4,52.8,27.7,174,61
62136,18,32.0099117,-81.141896,490.8,1322,68.4,143.65,0.218,8,101.38,92.6,-9,21.23,-0.8,14.1,290.1,16.8,965.7,967.5,61,261.9,52.8,28,174,60.7
62137,18,32.0098839,-81.1409045,517,1407,68.7,144.62,0.219,8.1,102.34,92.6,-10,21.19,0.34,14.1,290.4,16.8,962.8,963.3,61.5,260.8,52.8,28.7,174,59.2
62138,18,32.0098551,-81.1402604,543.4,1500,69.2,146.57,0.222,8.1,103.61,92.7,-11.1,20.5,0.53,14.3,290.9,17.1,959.5,960.3,62.1,259.4,52.8,28.8,174,58.3
62139,18,32.009824,-81.1396219,570.1,1582,69.8,148.12,0.224,8,104.4,92.9,-11.7,20.24,0.12,14.4,291.2,17.3,956.6,957.2,62.9,258.9,52.8,28.4,174,58
62140,18,32.009791,-81.138988,597,1670,70.1,150.06,0.227,8.2,104.7,93,-11.9,20.5,0.19,14.6,291.7,17.5,953.6,954.9,62.7,258.5,52.8,28.2,174,57.6
62141,18,32.0097565,-81.1380139,623.6,1760,70.5,151.43,0.229,8.2,105.02,93.2,-12,20.17,1.1,13.6,291,16.6,950.4,951,62.9,258.5,52.8,29,174,56.9
62142,18,32.0097187,-81.1373877,650.4,1850,71,152.79,0.232,8.1,105.03,93.5,-11.7,19.67,1.74,13.7,291.3,16.8,947.3,947.9,63,259.1,52.8,29.8,174,56.7
62143,18,32.0096773,-81.1367668,677.6,1940,71.4,153.95,0.233,8.2,104.69,93.8,-11.1,20.13,1.39,13.5,291.4,16.6,944.2,943.3,62.8,260,52.8,29.4,174,57
62144,18,32.0096347,-81.1358041,704.7,2025,71.4,155.12,0.236,8.6,104.74,94,-11,21.43,1.03,13.4,291.6,16.6,941.3,941.4,62.2,260.2,52.8,28.4,174,56.6
62145,18,32.0095892,-81.1351834,731.7,2125,71.3,155.7,0.236,8.8,105.22,94.1,-11.3,21.15,1,12.9,291.4,16.1,937.8,936.7,62,259.7,52.8,28.4,174,56.4
62146,18,32.0095415,-81.1342211,759.4,2215,71.6,156.67,0.238,8.8,105.75,94.4,-11.6,21.82,1.07,12.6,291.3,15.9,934.8,934,62.2,259.6,52.8,27.9,174,55.6
62147,18,32.0094908,-81.1336029,788.4,2310,71.6,156.87,0.238,9,106.11,94.6,-11.7,22.08,2.15,12.4,291.4,15.6,931.5,929.9,62.2,259.6,52.8,28.5,174.1,54.4
62148,18,32.0094365,-81.132986,817.5,2405,71.9,157.45,0.239,9,106.27,95,-11.5,22.2,2.29,12.4,291.7,15.7,928.3,927.6,62.4,260.3,52.8,28.5,174.1,54.1
62149,18,32.0093777,-81.1320296,847.1,2500,72.4,158.42,0.241,8.8,106.38,95.4,-11.2,21.74,2.74,11.8,291.4,15.1,925,922.9,62.7,261.1,52.8,29.1,174.1,53.9
62150,18,32.0093135,-81.131422,876.8,2592,73,159.2,0.242,8.6,106.62,95.8,-11,21.36,3.04,11.6,291.5,14.9,921.9,920.5,63.4,261.8,52.8,29.5,174.1,53.7
62151,18,32.0092436,-81.1304778,906.1,2682,73.8,160.17,0.244,8.4,107.08,96.3,-11,20.95,3.28,11.3,291.4,14.7,918.8,917.6,64.4,262.4,52.8,29.8,174.1,53.3
62152,18,32.0091684,-81.1298832,934.9,2772,74.4,161.14,0.245,8.3,107.73,96.9,-11.1,20.75,3.98,11.1,291.5,14.5,915.8,913.7,65.1,263.1,52.8,30.3,174.1,52.4
62153,18,32.0090845,-81.1289507,962.9,2857,74.9,161.92,0.247,8.4,108.37,97.5,-11.1,21.4,4.66,11.1,291.8,14.6,912.9,911.6,65.7,263.7,52.8,30.2,174.1,51
62154,18,32.0089928,-81.1283616,990.6,2947,74.7,162.51,0.247,8.9,109.09,98.1,-11.2,22.77,4.51,10.8,291.7,14.3,909.9,907.4,65.1,263.9,52.8,29,174.1,49.9
62155,18,32.0088938,-81.1274241,1018.2,3050,74.3,163.09,0.249,9.3,109.79,98.8,-11.2,23.19,5.02,10.3,291.5,13.8,906.4,904.3,64.1,264.3,52.8,28.9,174.1,48.8
62156,18,32.0087872,-81.1264838,1046.9,3155,74.4,163.48,0.25,9.3,110.33,99.5,-11.1,22.63,5.82,10.1,291.6,13.6,902.9,900.7,64,265.2,52.8,29.7,174.1,48
62157,18,32.0086719,-81.125887,1077.4,3255,74.5,163.28,0.249,9.4,110.81,100.3,-10.8,23.29,5.65,9.9,291.7,13.4,899.6,898.3,64.1,266.5,52.8,29,174.1,47.4
62158,18,32.0085483,-81.1249436,1108.5,3352,74.2,163.09,0.249,9.6,111.3,101,-10.6,23.75,5.81,9.7,291.8,13.2,896.4,894.3,63.5,267.3,52.8,28.6,174.1,46.7
62159,18,32.0084168,-81.1243403,1139.4,3462,74.2,162.7,0.248,9.6,112.23,101.7,-10.8,23.68,6.32,9.5,292,13,892.7,891.1,63.8,267.8,52.8,28.7,174.1,45.6
62160,18,32.0082776,-81.1233915,1171,3567,74.3,161.92,0.247,9.5,113.38,102.5,-11.2,23.56,6.38,9.3,292.1,12.8,889.3,889,64.6,268.4,52.8,28.4,174.1,44.7
62161,18,32.0081284,-81.1227849,1202.8,3670,74.5,162.31,0.248,9.4,114,103.2,-11,22.81,6.17,9.2,292.3,12.7,885.9,884.2,64.7,269.2,52.8,28.6,174.1,44.7
62162,18,32.0079701,-81.1221803,1234.6,3770,75,162.7,0.249,9,114.13,103.9,-10.4,21.99,5.55,9.1,292.5,12.6,882.6,881.5,65.1,270.7,52.8,28.6,174.1,45.4
62163,18,32.007803,-81.1212365,1266,3862,75.6,163.09,0.249,8.8,114.2,104.5,-9.9,21.68,4.82,8.9,292.6,12.4,879.6,878.2,65.8,272.1,52.8,28.3,174.1,46
62164,18,32.0076284,-81.1206393,1296.5,3957,76.1,163.87,0.251,8.7,114.65,105,-9.8,21.56,4.2,8.4,292.4,12,876.5,874.6,66.3,272.7,52.8,27.7,174.1,46.2
62165,18,32.0074471,-81.119701,1326,4052,76.4,164.45,0.252,8.7,115.21,105.5,-10,21.67,2.87,8.3,292.6,11.9,873.4,871.8,66.7,273.1,52.8,26.5,174.2,46.6
62166,18,32.0072608,-81.1187644,1355,4150,76.7,165.03,0.253,8.8,115.98,105.8,-10.4,21.68,2.25,8.6,293.2,12.2,870.3,868.7,67.2,272.9,52.8,25.8,174.2,46.5
62167,18,32.0070702,-81.118173,1383.9,4242,77,166,0.254,8.8,116.73,106.1,-10.8,21.62,2.14,8.1,292.9,11.7,867.2,865.2,67.6,272.6,52.8,25.5,174.2,46
62168,18,32.0068765,-81.11724,1413.1,4340,77.3,165.42,0.254,8.9,117.25,106.4,-11,21.71,2.16,7.6,292.7,11.2,864.1,863.1,68.6,272.9,52.8,25.4,174.2,45.5
62169,18,32.0066778,-81.1166519,1442.4,4432,77.4,166.2,0.255,9.1,117.51,106.6,-11.1,22.49,1.64,7.7,293.1,11.3,861.1,860.6,68.4,272.9,52.8,24.4,174.2,45.4
62170,18,32.0064773,-81.1157183,1471.8,4535,77.1,166.78,0.256,9.5,117.83,106.8,-11.3,23.56,1.45,7.5,293.2,11.2,857.9,857.2,67.7,272.8,52.8,23.4,174.2,44.9
62171,18,32.0062764,-81.1151229,1501.5,4642,76.6,166.98,0.256,9.9,118.2,106.9,-11.5,24.21,1.75,7.3,293.4,11,854.4,853.6,66.8,272.3,52.8,23,174.2,44.2
62172,18,32.0060746,-81.1141794,1532.4,4752,76.3,167.17,0.256,10,118.14,107.1,-11.2,24.1,1.79,7,293.4,10.7,850.9,849.8,66,272.6,52.8,23.2,174.2,44.3
62173,18,32.0058707,-81.1135775,1564.7,4865,76.5,166.2,0.255,9.8,117.42,107.3,-10.3,23.4,1.26,7.1,293.9,10.8,847.3,847.2,66.3,274.2,52.8,23.5,174.2,45.5
62174,18,32.005664,-81.1126347,1597.8,4965,76.7,163.48,0.251,9.6,116.54,107.4,-9.3,23.95,0.68,7.3,294.4,10.8,844.1,843.2,67.4,276,52.8,23,174.2,46.4
62175,18,32.005456,-81.1120363,1630.7,5072,76.9,161.73,0.248,9.4,116.24,107.5,-8.9,23.36,0.94,7.4,294.8,10.8,840.8,840,68.4,276.9,52.8,23.7,174.2,46.7
62176,18,32.0052478,-81.1110985,1662.8,5172,77.7,159.01,0.244,8.9,116.47,107.7,-9,22.16,1.35,7.1,294.8,10.5,837.7,835.5,71.3,277.6,52.8,24.7,174.2,46.6
62177,18,32.0050326,-81.1105123,1694.5,5260,78.6,158.81,0.244,8.4,116.47,107.9,-8.8,21.31,0.93,7.6,295.6,11,834.9,833.6,73,278.3,52.8,25,174.2,47.2
62178,18,32.004813,-81.1095903,1724.9,5347,79.3,156.87,0.241,8.2,116.22,108,-8.4,21.47,0.53,7.4,295.7,10.7,832.1,831.3,75.2,279.2,52.8,24.6,174.2,47.6
62179,18,32.0045909,-81.1086727,1753.5,5432,79.5,156.67,0.24,8.2,116.16,108.1,-8.2,22.14,0.6,7.4,296,10.6,829.5,827.9,75.6,279.5,52.8,24.3,174.2,47.4
62180,18,32.0043675,-81.1081001,1780.7,5527,79.7,156.09,0.239,8.3,116.57,108.2,-8.6,22.27,1.03,7.7,296.6,10.9,826.6,825.5,76.4,279.4,52.8,24.4,174.2,46.7
62181,18,32.0041419,-81.1071861,1807.8,5615,80.1,155.12,0.238,8.3,117.22,108.4,-9.1,21.9,1.54,7.3,296.4,10.5,823.8,821.9,77.8,279.4,52.8,24.8,174.2,46
62182,18,32.0039125,-81.1062758,1835.4,5705,80.6,153.56,0.235,8,117.54,108.6,-9.2,21.44,1.35,7.6,297,10.7,821.1,818.4,79.6,279.7,52.8,24.9,174.3,46
62183,18,32.0036785,-81.1053707,1862.8,5787,81.3,153.95,0.236,7.8,117.45,108.8,-8.8,21.2,1.41,7.7,297.4,10.8,818.5,817.4,80.6,280.3,52.8,25.1,174.3,46.1
62184,18,32.0034419,-81.1048126,1889.7,5870,81.7,152.98,0.234,7.8,117.22,109,-8.4,21.39,1.56,7.6,297.6,10.7,816,813.2,81.7,281.1,52.8,25.2,174.3,46.1
62185,18,32.0032001,-81.103914,1915.8,5952,81.9,153.95,0.236,7.9,117.07,109.2,-8,21.68,1.8,7.6,297.8,10.7,813.4,812,81.5,281.6,52.8,25.2,174.3,46
62186,18,32.002955,-81.1030166,1941.6,6037,82.2,154.34,0.236,7.9,117.04,109.5,-7.8,21.41,1.67,7.2,297.7,10.4,810.9,809.8,81.7,282.2,52.8,25.3,174.3,46.2
62187,18,32.0027062,-81.1021221,1967.5,6122,82.7,155.12,0.238,7.8,116.96,109.7,-7.5,20.84,1.31,7.2,298,10.4,808.2,806.5,82.2,282.7,52.8,25.4,174.3,46.7
62188,18,32.0024534,-81.1015756,1993.7,6205,83.3,156.09,0.239,7.6,116.81,109.8,-7.2,20.21,0.87,7.3,298.3,10.5,805.8,804.8,82.8,283,52.8,25.6,174.3,47.4
62189,18,32.0021966,-81.100692,2019.7,6287,84.1,156.87,0.241,7.4,116.61,110,-6.8,19.52,0.52,6.8,298,10,803.3,801.4,83.8,283.6,52.8,25.8,174.3,48
62190,18,32.001936,-81.0998162,2045.2,6365,85,157.65,0.242,7.2,116.38,110,-6.6,18.85,-0.98,6.6,298.1,9.9,800.9,799.2,85.1,283.9,52.8,25.2,174.3,49.5
62191,18,32.0016725,-81.0989503,2070,6437,86.1,158.62,0.244,6.9,115.85,109.9,-6.1,17.97,-3.03,6.8,298.5,10.1,798.7,796.6,86.6,284.3,52.8,24.3,174.3,51.5
62192,18,32.0014101,-81.0980968,2094.1,6512,87.4,160.95,0.247,6.5,115.2,109.6,-5.8,16.58,-6.06,6.7,298.7,10.1,796.4,794.9,87.9,284.3,52.8,23,174.3,54.3
62193,18,32.0011468,-81.0972603,2117.2,6580,89,163.28,0.251,6,114.71,109.1,-5.8,15.02,-8.61,6.2,298.4,9.7,794.4,792,89.8,283.9,52.8,21.9,174.3,56.6
62194,18,32.000886,-81.096101,2139.3,6642,90.9,166,0.255,5.4,114.23,108.5,-5.9,13.5,-10.57,6.3,298.7,9.9,792.5,790.1,92.1,283.2,52.8,21.2,174.3,58.4
62195,18,32.0006296,-81.095308,2159.9,6690,92.7,169.11,0.259,5.1,113.46,107.6,-5.9,13.14,-11.46,6.2,298.7,10,791.1,788.9,94.1,282.2,52.8,20.7,174.3,59.5
62196,18,32.0003815,-81.0945377,2178.6,6742,94.4,172.22,0.264,5.2,112.23,106.6,-5.8,13.54,-11.54,6,298.7,10,789.5,786.8,95.7,281.4,52.8,20.6,174.3,60.5
62197,18,32.0001457,-81.0934452,2195.8,6797,95.8,175.14,0.269,5.5,110.68,105.4,-5.4,14.25,-12.18,6.2,299.1,10.2,787.9,784.4,96.9,280.5,52.7,19.8,174.3,61.9
62198,18,31.9999258,-81.0923716,2212.7,6855,96.9,178.25,0.274,6.1,108.93,104,-5.1,15.05,-12.99,5.9,298.9,10.1,786.1,785.1,97.3,279.4,52.7,18.9,174.3,63.5
62199,18,31.9997248,-81.0913145,2230.5,6927,97.8,180.78,0.278,6.6,107.33,102.5,-4.9,15.86,-13.58,6.1,299.4,10.4,784,781.8,97.8,277.9,52.7,18.2,174.4,64.9
62200,18,31.9995443,-81.0902723,2249.9,7002,98.7,183.69,0.282,7,106.04,101,-5.1,15.92,-13.69,5.9,299.4,10.4,781.8,778.6,98.1,276.1,52.7,18.3,174.4,65.9
62201,18,31.9993827,-81.089245,2271.1,7080,99.7,186.8,0.287,7.1,104.69,99.8,-5,15.7,-13.69,5.7,299.4,10.3,779.5,778,98.4,275,52.7,18.5,174.4,67.1
62202,18,31.9992395,-81.0882325,2294,7155,100.8,189.91,0.292,7.2,103.29,98.5,-4.9,15.62,-14.19,5.6,299.6,10.4,777.3,775.7,98.9,273.8,52.7,18.3,174.4,68.5
62203,18,31.9991161,-81.0872343,2317.4,7235,101.8,192.44,0.296,7.3,102.11,97.1,-5.1,15.55,-14.48,5.9,300.2,10.8,774.9,773.3,99.6,272.1,52.7,18.3,174.4,69.6
62204,18,31.9990124,-81.08625,2341.2,7315,102.8,193.61,0.298,7.4,101.06,95.8,-5.3,15.5,-14.32,6,300.5,10.9,772.6,770.7,101.1,270.6,52.7,18.6,174.4,70.5
62205,18,31.9989282,-81.0852792,2365.5,7392,103.9,194.38,0.299,7.4,99.99,94.6,-5.5,15.5,-13.96,5.8,300.6,10.8,770.3,769.8,102.8,269.4,52.7,19.1,174.4,71.2
62206,18,31.9988638,-81.083978,2390,7472,104.9,193.8,0.298,7.5,99.01,93.3,-5.8,15.53,-13.91,6.3,301.4,11.3,767.9,766.4,105.2,267.9,52.7,19.3,174.4,72
62207,18,31.9988192,-81.0830324,2414.6,7550,106,193.61,0.297,7.5,98.48,92.1,-6.5,15.58,-13.73,6.6,302,11.6,765.6,764.6,107.6,266.2,52.7,19.5,174.4,72.3
62208,18,31.9987934,-81.0817556,2439.4,7630,107,193.61,0.297,7.4,97.98,91,-7.1,15.84,-13.47,6.5,302.1,11.5,763.4,762.9,109.8,264.7,52.7,19.8,174.4,72.6
62209,18,31.9987859,-81.0804898,2464.2,7702,108,193.8,0.297,7.5,96.88,89.9,-7.1,16.14,-13.06,7.1,303,12.1,761.2,759.6,111.6,263.7,52.7,20.2,174.4,73.2
62210,18,31.9987969,-81.0795764,2489,7785,108.7,194.38,0.298,7.7,94.91,88.8,-6.3,16.46,-13.1,7.3,303.5,12.3,758.8,758.8,112.4,263.4,52.7,20.5,174.4,74.8
62211,18,31.9988283,-81.0783261,2513.8,7870,109.3,195.74,0.3,8,92.63,87.6,-5.1,16.9,-13.58,7.1,303.5,12.2,756.4,755.2,112.5,263.1,52.7,20.3,174.4,76.7
62212,18,31.9988823,-81.0770798,2539.2,7955,109.7,196.52,0.301,8.4,90.69,86.2,-4.6,17.42,-13.57,7.3,304,12.4,753.9,753.8,112.7,262.2,52.7,20.6,174.4,78.1
62213,18,31.9989591,-81.0761787,2565.3,8045,110.1,197.49,0.303,8.6,89.52,85,-4.7,17.71,-13.19,7.2,304.2,12.3,751.3,751.4,113,260.9,52.7,21.2,174.4,78.8
62214,18,31.9990573,-81.0749361,2592.7,8142,110.5,198.47,0.304,8.8,88.65,83.7,-5,18,-13.24,6.7,304,11.9,748.5,751.5,113.4,259.2,52.7,21.3,174.4,79.4
62215,18,31.9991758,-81.0736953,2621.2,8235,110.9,199.24,0.306,8.9,87.66,82.6,-5.2,18.06,-14.4,6.5,304.1,11.8,745.9,749.1,113.8,258,52.7,20.4,174.5,80.7
62216,18,31.9993155,-81.0724561,2650.4,8332,111.4,199.63,0.307,8.9,86.08,81.4,-4.8,17.98,-16.06,6.5,304.4,11.8,743.1,749.1,114.5,257.2,52.7,19.2,174.5,82.7
62217,18,31.9994783,-81.0712184,2679.9,8427,112,200.41,0.308,8.8,84.15,80,-4.3,17.71,-18.07,5.9,304.1,11.2,740.4,748.7,115.1,256.3,52.7,17.7,174.5,85
62218,18,31.9996674,-81.0703249,2709.5,8522,112.5,201.38,0.309,8.7,82.23,78.4,-3.9,17.56,-19.67,5.9,304.4,11.3,737.7,749.1,115.5,255,52.7,16.7,174.5,87.2
62219,18,31.9998853,-81.0690877,2739,8612,113.2,202.16,0.311,8.7,80.51,76.8,-3.7,17.49,-19.82,5.7,304.5,11.1,735.2,748.6,116.5,253.5,52.7,16.9,174.5,88.6
62220,18,32.0001331,-81.0678488,2768.4,8710,113.8,203.13,0.313,8.6,78.84,75.2,-3.7,17.09,-20.28,5.4,304.5,10.8,732.4,749.2,117.1,252,52.7,17,174.5,90.2
62221,18,32.0004077,-81.0666064,2797.6,8805,114,202.74,0.312,7.8,77.48,73.9,-3.6,14.61,-20.54,5.1,304.5,10.6,729.7,745.9,117.7,250.7,52.7,17.2,174.5,92
62222,18,32.0007017,-81.0657047,2826.7,8885,114.5,201.58,0.311,6.4,75.78,72.9,-2.9,11.76,-20.98,4.2,303.8,9.6,727.5,745.7,119.1,250.4,52.7,17.2,174.5,94.2
62223,18,32.0010143,-81.0644592,2854.4,8940,115.1,200.41,0.309,5.2,74.11,71.8,-2.3,9.98,-21.17,4.7,304.5,10,726,748.2,120.8,249.8,52.7,17.3,174.5,96.1
62224,18,32.0013497,-81.0632105,2878,8982,115.5,199.83,0.308,4.5,72.55,70.4,-2.2,9.45,-21.4,4.8,304.8,10.1,724.8,748.3,121.8,248.6,52.7,17.4,174.5,97.5
62225,18,32.0017128,-81.061954,2897.1,9030,115.8,199.83,0.308,4,71.32,68.8,-2.5,8.44,-21.36,4.1,304.2,9.4,723.4,748.2,122.5,246.7,52.7,17.6,174.5,98.8
62226,18,32.0021018,-81.0610331,2913.2,9072,116.3,200.22,0.309,3.3,69.91,67.5,-2.5,7,-21.15,3.9,304.1,9.2,722.2,747.5,123.2,245.5,52.7,17.9,174.5,100.4
62227,18,32.0025156,-81.0597622,2927.7,9102,116.7,200.41,0.309,2.6,68.04,66.1,-2,5.8,-21.36,3.8,304.1,9.1,721.4,748,123.9,244.5,52.7,17.8,174.5,102.3
62228,18,32.0029568,-81.0588255,2940.2,9120,117.2,200.22,0.309,2.4,65.69,64.4,-1.3,5.87,-21.75,4.2,304.6,9.5,720.9,747.5,124.9,243.3,52.7,17.8,174.5,104.2
62229,18,32.0034301,-81.0575314,2950.2,9147,117.5,200.8,0.31,2.4,63.73,62.5,-1.3,5.94,-21.73,3.9,304.3,9.2,720.2,747.7,125.1,241.5,52.7,18.2,174.5,105.8
62230,18,32.0039353,-81.0565647,2958.7,9172,117.7,201.19,0.31,2.4,62.01,60.6,-1.5,5.99,-21.17,3.7,304.2,9.1,719.5,747.6,125.3,239.4,52.7,19.1,174.5,107.2
62231,18,32.0044702,-81.0555806,2966.9,9202,117.9,201.19,0.311,2.2,60.16,58.9,-1.3,5.61,-20.73,3.5,304.1,8.9,718.7,747.2,125.7,237.9,52.7,19.8,174.6,108.8
62232,18,32.0050326,-81.0542364,2975.1,9222,118.1,201.19,0.31,2.1,57.94,57.2,-0.8,5.37,-20.65,3.8,304.5,9.2,718.1,747,126.1,236.6,52.7,20.2,174.6,110.7
62233,18,32.0056224,-81.053217,2983,9247,118.3,201.38,0.311,2,55.76,55.5,-0.3,5.18,-20.18,3.5,304.2,8.9,717.4,748.6,126.4,235.3,52.7,21.1,174.6,112.6
62234,18,32.0062391,-81.0521781,2990.4,9272,118.5,201.96,0.312,1.9,53.81,53.8,0,5.2,-19.45,3.1,303.9,8.5,716.7,747.8,126.4,233.8,52.7,22.2,174.6,114.2
62235,18,32.0068817,-81.0514625,2997.7,9292,118.6,202.16,0.312,2,52.32,52.2,-0.1,5.41,-18.11,3.4,304.3,8.8,716.2,747.8,126.5,232.1,52.7,23.8,174.6,115.5
62236,18,32.0075482,-81.050383,3004.8,9312,118.6,202.16,0.312,2.2,51.03,50.7,-0.4,5.9,-16.44,3,303.9,8.4,715.6,748.1,126.5,230.4,52.7,25.8,174.6,116.6
62237,18,32.0082362,-81.0492829,3011.8,9340,118.6,202.55,0.313,2.5,49.48,49.2,-0.3,6.42,-14.68,3.3,304.3,8.7,714.8,747.8,126.3,229,52.7,27.9,174.6,117.9
62238,18,32.008943,-81.0485057,3019.3,9370,118.4,202.35,0.313,2.8,47.86,47.9,0,6.95,-13.32,3.4,304.5,8.8,714.1,747.7,126.1,227.9,52.7,29.7,174.6,119.2
62239,18,32.0096654,-81.0473652,3027.6,9402,118.1,201.96,0.312,3.1,46.43,46.7,0.3,7.51,-12.11,3.3,304.5,8.7,713.1,748.3,125.7,226.9,52.7,31.3,174.6,120.4
62240,18,32.010401,-81.0465486,3037,9437,117.7,201.77,0.312,3.4,45.49,45.7,0.1,8.37,-10.79,3,304.3,8.3,712.2,748.3,125,225.9,52.7,33.1,174.6,121
62241,18,32.0111463,-81.0457133,3047.3,9487,117.2,200.99,0.311,3.5,45.21,44.8,-0.4,7.85,-9.39,2.9,304.4,8.2,710.8,745.6,124.4,224.5,52.7,34.1,174.6,121.9
62242,18,32.0118984,-81.0448639,3058.7,9522,116.8,200.22,0.31,3.2,43.96,44.1,0.1,7.22,-10.78,2.5,304,7.8,709.8,747.5,124,224.2,52.7,32.8,174.6,123.1
62243,18,32.0126589,-81.0440001,3070.9,9555,116.6,199.44,0.309,2.9,41.92,43.2,1.3,6.35,-12.17,2.4,304,7.7,708.9,747.6,124.1,224.3,52.7,31.6,174.6,125.1
62244,18,32.013429,-81.0431198,3082.3,9590,116.3,198.66,0.307,2.3,40.26,42.3,2,4.53,-12.7,2.4,304.2,7.6,708,745.8,124,224,52.7,30.5,174.6,127.3
62245,18,32.0142074,-81.0422239,3092.6,9605,115.9,197.49,0.305,1.4,38.98,41.5,2.5,3.3,-12.71,2.5,304.3,7.6,707.6,743.3,123.9,223.6,52.7,30,174.6,129
62246,18,32.0149945,-81.0416545,3101.6,9617,115.7,196.72,0.304,1,38.08,40.5,2.4,2.75,-12.76,2.6,304.5,7.8,707.2,746.1,123.9,222.5,52.7,29.8,174.6,130.1
62247,18,32.0157919,-81.0407241,3108,9625,115.4,196.13,0.304,0.7,37.57,39.5,1.9,2.47,-12.47,2.3,304.2,7.4,707,746.6,123.5,221.1,52.7,29.9,174.6,130.7
62248,18,32.0165995,-81.0401201,3112.2,9632,115.3,196.13,0.304,0.4,37.32,38.6,1.2,2.36,-11.28,2.3,304.2,7.3,706.8,746.6,123.3,219.6,52.7,30.8,174.7,131.4
62249,18,32.0174165,-81.0391564,3115.2,9637,115.2,195.94,0.303,0.4,36.73,37.7,0.9,2.27,-9.64,2.4,304.3,7.5,706.7,746.2,123.2,218.5,52.7,32.1,174.7,132.6
62250,18,32.0182417,-81.0385221,3117.4,9640,115.1,195.55,0.303,0.3,35.55,37,1.4,2.26,-7.72,2,303.9,7,706.6,746.6,123.2,218.2,52.7,33.6,174.7,134.5
62251,18,32.0190737,-81.0378756,3119.1,9642,115,195.36,0.302,0.5,34.16,36.3,2.1,2.44,-6.39,2,303.9,7,706.5,745.3,123.2,218,52.7,34.9,174.7,136.3
62252,18,32.0199113,-81.0368745,3120.6,9652,114.8,195.55,0.302,0.6,33.34,35.8,2.4,2.57,-5.69,2,303.9,7,706.3,746.1,122.7,217.8,52.7,35.5,174.7,137.4
62253,18,32.0207533,-81.0362068,3122.3,9660,114.7,195.55,0.303,0.6,33.27,35.3,2,2.45,-4.81,2.2,304.2,7.2,706.1,746.2,122.5,217,52.7,36,174.7,137.9
62254,18,32.0215988,-81.0355312,3124.5,9670,114.6,195.55,0.303,0.6,33.34,34.9,1.5,2.41,-4.2,2,304,7,705.8,745.2,122.2,216.2,52.7,36.4,174.7,138.2
62255,18,32.022447,-81.0348489,3126.8,9675,114.5,195.36,0.303,0.5,33.06,34.6,1.5,2.36,-4.09,2,304,7.1,705.7,745.7,122.1,215.9,52.7,36.5,174.7,138.6
62256,18,32.0232977,-81.0341609,3129.1,9685,114.4,195.16,0.302,0.4,32.48,34.3,1.8,2.1,-3.87,1.9,303.9,6.9,705.4,745.4,122.1,215.8,52.7,36.5,174.7,139.4
62257,18,32.0241511,-81.0334664,3131.2,9687,114.3,194.97,0.302,0.4,31.84,34,2.1,1.9,-3.83,2.1,304.2,7.1,705.3,746.1,122,215.8,52.7,36.4,174.7,140.1
62258,18,32.0250075,-81.0327661,3133.1,9690,114.3,194.77,0.302,0.2,31.5,33.7,2.1,1.76,-3.67,2.1,304.2,7.1,705.2,744.9,122.1,215.5,52.7,36.4,174.7,140.6
62259,18,32.025867,-81.032404,3134.6,9697,114.4,195.16,0.302,0,31.44,33.4,1.9,0.88,-3.83,2,304.1,7.1,705,745.9,122.1,215,52.7,35.6,174.7,141
62260,18,32.0267298,-81.0316942,3135.8,9695,114.5,195.36,0.302,-0.3,31.22,33.1,1.8,0.85,-3.86,1.8,303.8,6.8,705.1,746.1,122.2,214.6,52.8,35.6,174.7,141.2
62261,18,32.0275968,-81.0309793,3136.4,9687,114.7,195.36,0.302,-0.3,30.84,32.7,1.8,0.81,-5.76,2,304,7.1,705.3,745.7,122.6,214.2,52.8,34.4,174.7,140.6
62262,18,32.0284693,-81.0302575,3135.9,9692,114.8,196.33,0.304,-0.6,30.54,32.2,1.7,-0.25,-7.39,2,304.1,7,705.2,745.8,122.2,213.6,52.8,32.6,174.7,140.5
62263,18,32.0293481,-81.0295286,3135,9685,115.1,197.3,0.306,-1.2,29.9,31.7,1.8,-1.29,-7.7,2.3,304.4,7.4,705.4,745.3,122.3,213.2,52.8,31.6,174.7,141.4
62264,18,32.0302358,-81.0291347,3133.6,9662,115.5,198.08,0.307,-1.6,28.81,31.2,2.3,-1.56,-7.42,1.9,303.8,7.1,706,746.1,122.8,213.2,52.8,31.7,174.7,142.6
62265,18,32.0311311,-81.0283897,3130.6,9642,116,199.44,0.309,-1.6,27.75,30.5,2.8,-1.34,-7.14,2.1,304,7.3,706.6,745.6,123.1,212.8,52.8,32.1,174.8,143.7
62266,18,32.0320363,-81.0276352,3125.8,9625,116.5,200.22,0.31,-1.4,27.08,29.9,2.8,-1,-6.62,2,303.8,7.3,707,745.7,123.7,212.2,52.8,32.8,174.8,144.5
62267,18,32.0329507,-81.0272148,3120.7,9615,116.8,201.58,0.312,-1.1,26.72,29.3,2.6,-0.71,-5.94,2.1,303.9,7.4,707.3,746.4,123.5,211.5,52.8,33.4,174.8,145.1
62268,18,32.0338729,-81.0264427,3116,9602,117.2,201.96,0.312,-0.9,26.53,28.8,2.3,-0.14,-4.92,2.2,304,7.6,707.6,747.1,124.1,210.7,52.8,34.5,174.8,145.6
62269,18,32.0348014,-81.026007,3112,9592,117.4,202.35,0.313,-0.6,26.12,28.4,2.3,0.5,-4.09,2.4,304.2,7.9,707.9,746.3,124.3,210.3,52.8,35.5,174.8,146.3
62270,18,32.035735,-81.0252217,3108.7,9587,117.6,202.74,0.314,-0.3,25.53,28,2.5,0.75,-3.82,2.3,304,7.8,708,745.8,124.5,210.1,52.8,35.9,174.8,146.9
62271,18,32.0366725,-81.0247739,3106.1,9592,117.7,203.71,0.315,-0.5,25.09,27.7,2.6,-0.12,-3.64,2.3,304.1,7.7,707.9,745.6,124.2,209.9,52.8,35.3,174.8,147.8
62272,18,32.0376142,-81.0243218,3104.8,9580,117.9,203.71,0.315,-0.5,24.84,27.4,2.6,0.19,-3.77,2,303.7,7.5,708.2,744.4,124.6,209.6,52.8,35.5,174.8,147.8
62273,18,32.0385599,-81.0235207,3103.6,9577,118.1,204.1,0.316,-0.5,24.8,27.1,2.3,0.21,-3.59,2.3,304,7.8,708.3,746.4,124.7,209,52.8,35.6,174.8,148
62274,18,32.0395094,-81.0230583,3101.7,9572,118.3,204.3,0.316,-0.5,24.6,26.8,2.2,0.05,-3.39,2.4,304.1,7.9,708.5,746.2,125,208.6,52.8,35.6,174.8,148.4
62275,18,32.0404626,-81.0225915,3100,9567,118.5,205.08,0.317,-0.5,24.14,26.6,2.4,-0.15,-3.02,2.2,303.9,7.7,708.6,745.3,125,208.7,52.8,35.6,174.8,149.1
62276,18,32.0414196,-81.0217778,3098.4,9560,118.7,205.27,0.318,-0.6,23.94,26.4,2.4,-0.25,-2.29,2.6,304.3,8.2,708.8,746.7,125.3,208.5,52.8,35.9,174.8,149.8
62277,18,32.04238,-81.0213049,3096.6,9552,119,205.85,0.318,-0.7,24.07,26.2,2.1,-0.27,-2.41,2.4,304,8,709,745.6,125.6,208,52.8,35.8,174.8,149.6
62278,18,32.0433438,-81.02083,3094.6,9545,119.2,206.44,0.319,-0.6,24.1,26.1,1.9,-0.35,-2.36,2.4,304,8,709.2,745.9,125.6,207.8,52.8,35.8,174.8,149.7
62279,18,32.0443108,-81.0203533,3092.3,9537,119.5,207.02,0.32,-0.7,23.81,25.9,2.1,-0.46,-2.4,2.4,304,8.1,709.4,746.2,125.9,207.7,52.8,35.7,174.8,150
62280,18,32.0452848,-81.0198732,3090.1,9530,119.7,207.8,0.321,-0.6,23.35,25.7,2.3,-0.29,-2.36,2.2,303.7,7.9,709.6,745.2,125.9,207.7,52.8,35.9,174.8,150.4
62281,18,32.046259,-81.0190485,3087.9,9517,120,208.19,0.322,-0.4,23.03,25.5,2.5,0.4,-2.3,2.5,304,8.2,709.9,746.7,126.3,207.6,52.8,36.5,174.8,150.5
62282,18,32.0472381,-81.0185648,3085.6,9517,120.6,209.35,0.324,0.1,23.13,25.3,2.2,1.72,-2.35,2.2,303.7,8,710,751,126.9,207.1,52.8,37.6,174.8,149.9
62283,18,32.0482262,-81.0180808,3083.7,9525,121.8,211.68,0.328,1,23.32,25.1,1.8,3.62,-2.27,2.5,304,8.4,709.8,754.4,128,206.6,52.8,39.3,174.9,149
62284,18,32.0492287,-81.0175991,3083.1,9537,123.6,216.16,0.334,2.4,23.36,24.9,1.5,6.19,-1.93,2.3,303.9,8.4,709.4,756.7,129.1,206.2,52.8,41.6,174.9,148
62285,18,32.0502462,-81.0171202,3085,9572,124.9,219.27,0.339,4,23.1,24.7,1.5,8.64,-2.04,2.1,303.8,8.4,708.5,748.5,130.1,206.1,52.8,43.7,174.9,147
62286,18,32.0512738,-81.0162985,3090.9,9620,125.7,221.79,0.343,5.6,22.66,24.5,1.8,11.27,-1.36,2.2,304,8.7,707.1,747.5,130.4,206.1,52.8,46.3,174.9,146.5
62287,18,32.0523056,-81.0158184,3101.6,9690,125.7,223.54,0.346,7.2,22.29,24.4,2,13.54,-0.9,2.1,304.2,8.7,705.3,750.1,129.5,206.3,52.8,48.5,174.9,145.9
62288,18,32.0533374,-81.0153352,3117.6,9777,125.6,225.87,0.35,8.3,22.28,24.3,2,14.75,-0.6,1.6,303.9,8.3,702.8,750.1,128.1,206.1,52.8,49.6,174.9,145.3
62289,18,32.0543683,-81.0148511,3139,9870,125.3,227.04,0.352,9.2,22.49,24.3,1.7,16.01,-0.47,1.4,304,8.2,700.3,750.1,126.9,206,52.8,50.7,174.9,144.3
62290,18,32.0553965,-81.0143655,3164.8,9967,124.9,227.43,0.353,9.9,22.59,24.3,1.7,17.05,-0.11,1.3,304.2,8.1,697.7,749.9,125.9,205.9,52.8,51.8,174.9,143.6
62291,18,32.0564214,-81.0135355,3193.8,10092,124.6,228.21,0.354,10.3,22.49,24.3,1.8,16.95,0.7,1.2,304.5,8.1,694.3,749.5,124.9,206,52.8,52.2,174.9,144.4
62292,18,32.0574457,-81.0130498,3225.3,10195,124.8,228.4,0.355,10.3,22.35,24.4,2,17.3,0.8,1.1,304.8,8,691.6,750.9,125.2,206.3,52.8,52.5,174.9,144.4
62293,18,32.058469,-81.0125655,3258.9,10307,124.6,228.4,0.354,10.6,22.53,24.5,1.9,17.68,1.16,0.9,304.9,7.7,688.5,750.5,124.8,206.4,52.8,53,174.9,144.2
62294,18,32.0594901,-81.0120829,3292.8,10420,124.5,228.98,0.355,10.7,22.79,24.6,1.8,17.84,1.52,0.1,304.4,7,685.6,750.7,124.3,206.3,52.8,53.3,174.9,144
62295,18,32.0605091,-81.0116025,3327.2,10535,124.3,228.98,0.356,10.8,22.88,24.7,1.8,18.09,1.53,-0.1,304.6,6.8,682.4,750.4,123.9,206.4,52.8,53.5,174.9,143.7
62296,18,32.0615258,-81.011123,3362.3,10652,124,228.4,0.355,11,22.89,24.9,2,18.46,1.53,-0.4,304.6,6.5,679.4,749.6,123.7,206.8,52.8,53.8,174.9,143.4
62297,18,32.0625382,-81.0103027,3397.8,10770,123.7,228.01,0.355,11.2,23.08,25,1.9,18.74,1.65,-0.7,304.7,6.2,676.2,750.5,123.3,206.8,52.8,54.1,174.9,143.1
62298,18,32.0635468,-81.0098273,3433.9,10890,123.4,227.62,0.354,11.3,23.43,25.2,1.7,18.88,1.97,-1.2,304.5,5.6,673.1,749.7,122.9,206.9,52.8,54.3,174.9,142.7
62299,18,32.064552,-81.009354,3470.6,11007,123.1,227.23,0.354,11.4,23.87,25.3,1.4,19.15,1.7,-1.3,304.8,5.5,670,751.2,122.5,206.7,52.8,54.3,174.9,141.7
62300,18,32.0655524,-81.0088826,3507.8,11130,122.8,225.1,0.35,11.5,23.98,25.5,1.5,19.46,1.66,-0.9,305.7,5.8,666.8,751,123,206.9,52.8,54.5,174.9,141.3
62301,18,32.0665493,-81.0080707,3545.3,11255,122.6,225.49,0.351,11.3,23.04,25.7,2.6,18.83,1.54,-0.1,307,6.6,663.6,750.9,122.6,208.2,52.8,54.1,175,143
62302,18,32.0675455,-81.0076045,3583.2,11375,122.8,226.26,0.351,11,21.94,25.8,3.8,18.37,0.93,0.2,307.8,6.9,660.4,751.9,122.8,209.5,52.8,53.6,175,144.3
62303,18,32.0685422,-81.0071399,3620.9,11490,122.9,226.46,0.351,10.7,21.59,25.8,4.2,17.9,0.71,0.8,308.9,7.5,657.4,751.2,123,209.8,52.8,53.1,175,145
62304,18,32.069547,-81.006331,3657.7,11597,123,227.04,0.352,10.5,21.95,25.8,3.9,17.52,0.47,1,309.5,7.8,654.7,750.5,122.8,209.5,52.8,52.6,175,144.6
62305,18,32.0705452,-81.0058697,3693.6,11705,123.1,227.04,0.352,10.3,22.21,25.9,3.7,17.36,0.55,1.2,310.1,8,651.9,751.2,123,209.4,52.8,52.5,175,144.5
62306,18,32.0715433,-81.0054108,3728.6,11815,123.2,227.04,0.352,10.2,21.42,26,4.5,17.22,0.55,1.5,310.8,8.3,649.1,751,123.4,210.3,52.8,52.5,175,145.6
62307,18,32.0725411,-81.0046104,3763,11922,123.2,227.23,0.352,10.1,20.09,26.1,5.9,17.15,0.46,1.5,311.2,8.3,646.4,751.5,123.8,211.8,52.8,52.6,175,147.3
62308,18,32.0735391,-81.0041536,3797.1,12030,123.3,227.43,0.352,10,19.92,26.1,6.1,16.83,0.74,1.9,312,8.7,643.7,750.7,124,211.9,52.8,52.5,175,148
62309,18,32.074538,-81.0036978,3830.9,12132,123.5,228.21,0.354,9.9,21.04,26.1,5.1,16.51,1.32,2.1,312.6,9,641.1,750.5,123.6,210.9,52.8,52.4,175,147.2
62310,18,32.0755376,-81.0029018,3864.5,12232,123.7,228.79,0.355,9.7,21.9,26.3,4.3,16.33,0.97,1.7,312.5,8.6,638.6,752.1,123.4,210.5,52.8,51.9,175,146
62311,18,32.0765372,-81.0024523,3897.6,12335,123.7,229.18,0.355,9.8,21.36,26.4,4.9,16.51,0.62,1.5,312.6,8.4,635.9,750.7,123.4,211.2,52.8,51.9,175,146.3
62312,18,32.0775415,-81.002002,3930.2,12440,123.9,229.18,0.355,9.7,20.53,26.4,5.8,16.11,0.25,1,312.4,7.9,633.3,751.4,124.1,212,52.8,51.5,175,147.3
62313,18,32.0785429,-81.0012111,3962.7,12540,124.1,229.96,0.357,9.4,20.7,26.3,5.6,15.86,0.42,0.7,312.4,7.7,630.8,752.1,124,211.6,52.8,51.4,175,147.4
62314,18,32.0795458,-81.0007646,3995.2,12637,124.2,229.96,0.357,9.5,21.59,26.4,4.8,16.09,0.4,0.5,312.5,7.5,628.4,751.4,123.9,211,52.8,51.4,175,146.1
62315,18,32.080548,-80.9999763,4027.2,12735,124.2,230.35,0.358,9.6,22.05,26.5,4.4,16.29,0.5,0.4,312.8,7.4,626,752.3,123.6,210.8,52.8,51.6,175,145.5
62316,18,32.0815492,-80.9995328,4058.9,12845,124.1,230.93,0.358,9.7,21.58,26.5,4.9,16.35,0.16,-0.1,312.6,6.9,623.3,750,123.3,211.2,52.8,51.5,175,145.8
62317,18,32.0825498,-80.9990899,4091,12947,124.1,230.73,0.359,9.7,20.89,26.5,5.6,16.35,0.03,0.2,313.3,7.2,620.7,751.1,123.6,211.9,52.8,51.5,175,146.5
62318,18,32.0835505,-80.9983036,4123.5,13047,124.1,230.15,0.358,9.7,20.71,26.5,5.8,16.56,-0.1,-0.4,313,6.6,618.3,752,124,212,52.8,51.7,175.1,146.6
62319,18,32.0845504,-80.9978603,4156.2,13150,123.9,229.96,0.358,9.8,20.85,26.6,5.7,16.83,0.12,-0.5,313.2,6.5,615.8,751.1,123.7,212.1,52.8,52,175.1,146.4
62320,18,32.0855577,-80.9970716,4188.9,13257,123.7,230.15,0.358,10,20.78,26.6,5.8,17.16,0.32,-0.8,313.3,6.2,613.1,751.9,123.2,212.2,52.8,52.4,175.1,146.4
62321,18,32.0865528,-80.9966282,4221.9,13365,123.4,230.35,0.359,10.2,20.32,26.7,6.3,17.36,0.15,-1.1,313.3,5.9,610.5,750,122.8,212.9,52.8,52.5,175.1,146.7
62322,18,32.0875454,-80.9961843,4255.5,13475,123.2,230.73,0.359,10.2,19.87,26.7,6.8,17.25,0.09,-1.3,313.5,5.7,607.8,751.2,122.4,213.3,52.8,52.4,175.1,147.2
62323,18,32.0885366,-80.9953964,4289.7,13585,123,230.73,0.36,10.2,19.76,26.7,6.9,17.28,-0.17,-1.6,313.5,5.4,605.2,751.9,122.1,213.4,52.8,52.4,175.1,147.3
62324,18,32.0895264,-80.9949512,4324.1,13695,122.9,230.93,0.36,10.1,19.84,26.7,6.8,17.12,0.2,-1.9,313.5,5.1,602.5,750.2,121.8,213.4,52.8,52.4,175.1,147.6
62325,18,32.090515,-80.9941633,4358.5,13802,122.8,230.54,0.36,10,19.68,26.8,7.1,16.97,0.46,-2.1,313.7,4.9,599.9,750.5,121.9,213.7,52.8,52.5,175.1,148.1
62326,18,32.0915029,-80.9937195,4392.9,13907,122.8,230.15,0.359,9.9,19.25,26.8,7.5,16.67,0.35,-2.3,313.8,4.7,597.4,750.4,122.3,214.1,52.8,52.2,175.1,148.8
62327,18,32.092491,-80.9929332,4427,14012,122.9,230.35,0.36,9.6,18.96,26.8,7.8,16.44,0.19,-3,313.4,4,594.9,750.9,122.6,214.4,52.8,52,175.1,149.2
62328,18,32.0934861,-80.9924894,4460.7,14115,122.9,230.35,0.36,9.6,18.98,26.9,7.9,16.46,0.31,-2.9,313.9,4.1,592.5,750.5,122.6,214.6,52.8,52.1,175.1,149.2
62329,18,32.0944739,-80.9920474,4493.8,14222,122.9,229.96,0.359,9.5,19.15,26.9,7.7,16.31,0.54,-3.4,313.7,3.5,590,750.5,122.7,214.4,52.8,52,175.1,149.3
62330,18,32.0954616,-80.9912633,4526.5,14325,123,228.79,0.358,9.4,19.25,26.9,7.7,16.23,0.53,-3.3,314.2,3.6,587.5,752,123.4,214.2,52.8,51.9,175.1,149.2
62331,18,32.0964496,-80.9908238,4559.2,14422,123.1,228.21,0.357,9.3,19.26,27,7.7,16.08,0.43,-3.6,314.2,3.3,585.3,751.1,124,214.3,52.8,51.8,175.1,149.2
62332,18,32.0974378,-80.9900425,4591.4,14520,123.1,228.4,0.357,9.2,19.04,27,8,15.96,0.32,-3.8,314.3,3.1,582.9,751.7,124,214.5,52.8,51.6,175.1,149.5
62333,18,32.0984262,-80.9896053,4623.2,14620,123.2,228.98,0.358,9.1,18.85,27.1,8.2,15.79,0.13,-4,314.4,2.9,580.6,750.5,124.1,214.9,52.8,51.4,175.1,149.7
62334,18,32.0994151,-80.9888254,4654.7,14720,123.3,228.4,0.358,9,18.85,27.1,8.2,15.68,0.01,-4.3,314.4,2.6,578.3,751.6,124.5,214.9,52.8,51.3,175.1,149.7
62335,18,32.1004048,-80.9883895,4686,14815,123.3,228.4,0.358,8.9,18.96,27.1,8.1,15.72,0.01,-4.5,314.5,2.4,576.1,751.4,124.5,214.8,52.8,51.3,175.1,149.5
62336,18,32.1013974,-80.9876101,4716.9,14912,123.3,228.6,0.358,9,19,27.1,8.1,15.83,0.07,-4.7,314.7,2.2,573.8,751.2,124.4,214.8,52.8,51.4,175.2,149.5
62337,18,32.1023864,-80.9871749,4747.6,15012,123.3,228.79,0.359,9,18.74,27.1,8.4,15.8,0.23,-4.9,314.8,2,571.6,751.9,124.4,215,52.8,51.5,175.2,150
62338,18,32.1033752,-80.9867409,4778.3,15110,123.3,229.37,0.36,9,18,27.2,9.1,15.79,0.07,-5.2,314.8,1.8,569.3,750,124.6,215.9,52.8,51.5,175.2,150.8
62339,18,32.1043637,-80.9859636,4809.2,15207,123.3,228.79,0.359,9,17.4,27.2,9.7,15.79,-0.16,-5.3,315,1.6,567,750.6,125.3,216.4,52.8,51.5,175.2,151.4
62340,18,32.1053522,-80.9855296,4840.1,15305,123.3,228.98,0.359,8.9,17.17,27.2,10,15.63,0,-5.5,315.2,1.4,564.8,752.1,125.4,216.6,52.8,51.4,175.2,151.9
62341,18,32.1063412,-80.9847526,4870.9,15402,123.4,228.21,0.358,8.8,17.11,27.2,10,15.53,0.05,-5.7,315.3,1.2,562.6,751.4,126,216.6,52.8,51.3,175.2,152
62342,18,32.1073308,-80.9843197,4901.7,15497,123.5,228.01,0.358,8.7,16.86,27.2,10.3,15.43,0.35,-5.5,315.9,1.3,560.4,751,126.4,216.8,52.8,51.5,175.2,152.7
62343,18,32.1083209,-80.9835448,4932.2,15592,123.6,228.01,0.358,8.7,16.35,27.2,10.8,15.31,0.3,-5.6,316.1,1.3,558.3,750.2,127,217.2,52.8,51.4,175.2,153.4
62344,18,32.1093168,-80.9831141,4962.3,15687,123.7,227.82,0.358,8.6,16,27.2,11.2,15.17,0.39,-5.9,316.1,1,556.1,750.2,127.5,217.5,52.8,51.3,175.2,154
62345,18,32.1103086,-80.9823409,4992.2,15780,123.9,227.04,0.357,8.4,16.02,27.3,11.2,15.07,0.66,-6.1,316.2,0.7,554.1,750.1,128.3,217.6,52.8,51.4,175.2,154.2
62346,18,32.1113014,-80.9819127,5021.8,15870,124,226.46,0.356,8.3,16.09,27.3,11.2,14.94,0.95,-6.2,316.4,0.6,552,751.1,128.8,217.4,52.8,51.4,175.2,154.5
62347,18,32.1122954,-80.9811433,5051,15962,124.3,225.87,0.355,8.2,16.03,27.4,11.3,14.73,1,-6.3,316.6,0.4,550,751.5,129.7,217.6,52.8,51.2,175.2,154.7
62348,18,32.1132909,-80.9807194,5079.9,16050,124.6,225.68,0.355,8.1,15.89,27.4,11.5,14.64,0.96,-6.2,317,0.5,548.1,750.6,130.5,217.6,52.8,51.1,175.2,154.9
62349,18,32.1142878,-80.9799543,5108.4,16135,124.8,225.87,0.355,8,15.82,27.5,11.6,14.51,0.98,-6.6,316.9,0.2,546.1,750.6,130.9,217.9,52.8,51,175.2,155.1
62350,18,32.115286,-80.9795344,5136.3,16222,125,226.07,0.355,7.9,16,27.5,11.5,14.32,0.98,-6.5,317.3,0.3,544.2,751.9,131.1,217.7,52.8,50.8,175.2,155
62351,18,32.116286,-80.9787735,5164.1,16310,125.3,225.68,0.355,7.8,16.38,27.5,11.2,14.07,0.86,-6.6,317.5,0.1,542.3,749.7,131.6,217.3,52.8,50.5,175.2,154.5
62352,18,32.1172911,-80.9780149,5191.5,16392,125.7,224.9,0.354,7.6,16.7,27.6,10.9,13.83,0.6,-6.6,317.8,0.1,540.5,751.4,132.5,217.1,52.8,50.2,175.2,154
62353,18,32.1182961,-80.9776021,5218.5,16472,126,224.12,0.352,7.4,16.83,27.6,10.8,13.72,0.34,-6.9,317.8,-0.3,538.7,750.7,133.4,216.9,52.8,49.9,175.2,153.7
62354,18,32.1193041,-80.9768485,5245,16555,126.4,221.6,0.348,7.3,16.52,27.6,11.1,13.63,0.07,-5.9,319.3,0.6,536.9,751,135.6,216.9,52.8,49.8,175.3,153.9
62355,18,32.1203152,-80.9764398,5270.9,16632,126.8,220.43,0.347,7.1,15.86,27.6,11.7,13.62,-0.42,-5.9,319.6,0.5,535.2,751.5,137.4,217.3,52.8,49.6,175.3,154.4
62356,18,32.1213294,-80.9756883,5296.3,16710,127.1,220.63,0.346,7.1,15.36,27.5,12.1,13.57,-0.79,-5.8,320,0.6,533.5,750.5,138.2,217.4,52.8,49.5,175.3,154.7
62357,18,32.1223468,-80.9749361,5321.2,16785,127.4,220.82,0.347,7,15.53,27.4,11.9,13.43,-0.85,-5.7,320.4,0.7,531.9,750.5,138.5,217.1,52.8,49.3,175.3,154.5
62358,18,32.1233675,-80.9745266,5345.7,16857,127.7,221.21,0.347,6.9,16.24,27.3,11.1,13.17,-0.5,-5.6,320.8,0.9,530.3,750.7,138.3,216.4,52.8,49.1,175.3,154.1
62359,18,32.1243917,-80.9737747,5370.1,16932,128.2,221.99,0.349,6.8,16.84,27.3,10.4,12.86,0.08,-5.7,320.9,0.9,528.7,750.4,138.5,215.9,52.8,49,175.3,153.9
62360,18,32.1254209,-80.9730241,5394.2,17007,128.6,223.35,0.351,6.7,16.9,27.3,10.4,12.67,0.05,-6,320.9,0.6,527,750.9,138.5,215.9,52.8,48.8,175.3,153.9
62361,18,32.1264525,-80.9726189,5417.9,17080,129,224.12,0.352,6.6,16.54,27.2,10.7,12.56,-0.53,-6.2,320.9,0.5,525.5,752.3,139.1,216,52.8,48.5,175.3,154
62362,18,32.1274878,-80.971871,5441.3,17147,129.4,225.1,0.354,6.6,16.28,27.2,10.9,12.48,-0.57,-6.3,321,0.4,524,750.6,139.6,216.2,52.8,48.5,175.3,154.4
62363,18,32.1285269,-80.9714667,5464.4,17225,129.8,226.65,0.356,6.6,16.34,27.1,10.8,12.4,-0.46,-6.6,320.9,0.2,522.4,752,139.5,216.1,52.8,48.4,175.3,154.4
62364,18,32.1295695,-80.9707196,5487.5,17295,130.2,227.62,0.358,6.7,16.61,27,10.4,12.32,-0.47,-6.8,321,0.1,520.9,751.7,139.5,215.7,52.8,48.3,175.3,154.1
62365,18,32.1306156,-80.9699733,5510.5,17370,130.5,229.37,0.36,6.7,16.87,27,10.1,12.27,-0.69,-6.6,321.5,0.3,519.3,752,139.1,215.6,52.8,48.2,175.3,153.7
62366,18,32.1316652,-80.9695708,5533.6,17440,130.9,230.73,0.363,6.7,16.84,26.9,10.1,12.27,-0.71,-7.3,320.9,-0.3,517.8,751.5,139.1,215.5,52.8,48.2,175.3,153.7
62367,18,32.1327179,-80.9688254,5556.7,17517,131.2,232.09,0.365,6.8,16.44,26.9,10.4,12.34,-0.49,-6.9,321.7,0.2,516.1,754.7,139.3,215.9,52.8,48.4,175.3,154.3
62368,18,32.1337757,-80.9680802,5579.9,17590,131.4,232.68,0.366,6.9,16.06,26.8,10.7,12.39,-0.38,-7.2,321.6,-0.1,514.6,754,139.6,216,52.8,48.5,175.3,154.9
62369,18,32.134834,-80.9676785,5603.4,17665,131.8,233.46,0.368,7,15.96,26.8,10.8,12.4,-0.27,-7.1,322,0.1,513,753,140.1,216.1,52.8,48.6,175.3,155.1
62370,18,32.135895,-80.9669341,5627.3,17740,132,234.43,0.369,7,15.97,26.8,10.8,12.34,0.02,-7.6,321.7,-0.4,511.4,752.9,140,216.1,52.8,48.6,175.3,155.3
62371,18,32.1369588,-80.9661909,5651.3,17817,132.4,235.01,0.37,7,15.89,26.7,10.8,12.24,0.22,-7.4,322.2,-0.2,509.8,752,140.5,216,52.8,48.6,175.4,155.6
62372,18,32.1380254,-80.9657924,5675.4,17892,132.7,235.4,0.371,7,15.67,26.7,11,12.23,0.18,-7.9,321.9,-0.6,508.2,750.6,141,216.2,52.8,48.6,175.4,155.9
62373,18,32.1390947,-80.965052,5699.6,17965,133,236.37,0.373,7,15.43,26.7,11.3,12.27,0.01,-8.2,321.8,-0.8,506.8,751.7,141.3,216.4,52.8,48.6,175.4,156
62374,18,32.1401666,-80.9643126,5723.7,18042,133.3,236.57,0.373,7,15.33,26.7,11.4,12.27,0.07,-8.4,321.9,-1,505.1,752,141.8,216.4,52.8,48.6,175.4,156.1
62375,18,32.141241,-80.963574,5748,18117,133.6,236.76,0.374,7.1,15.31,26.7,11.3,12.34,-0.22,-8.6,321.9,-1.2,503.5,752.8,142.3,216.4,52.8,48.6,175.4,156
62376,18,32.1423205,-80.9631799,5772.3,18192,133.9,237.15,0.375,7.1,15.29,26.6,11.3,12.39,0.09,-8.8,321.9,-1.4,502,751.6,142.7,216.3,52.8,48.7,175.4,156.1
62377,18,32.1433997,-80.9624428,5796.6,18275,134.1,237.54,0.376,7.2,15.25,26.6,11.4,12.49,0.02,-8.8,322.3,-1.4,500.3,751.6,142.9,216.3,52.8,48.8,175.4,156.2
62378,18,32.1444807,-80.9617065,5821.1,18350,134.3,237.93,0.376,7.2,15.19,26.6,11.4,12.57,0.34,-9.2,322.1,-1.8,498.7,751,143.1,216.3,52.8,49,175.4,156.5
62379,18,32.1455634,-80.9613146,5845.8,18430,134.5,238.31,0.377,7.3,15.15,26.6,11.5,12.66,0.54,-9.5,322,-2,497.1,749.9,143.4,216.4,52.8,49.2,175.4,156.7
62380,18,32.1466474,-80.9605808,5870.8,18507,134.7,238.7,0.378,7.3,15.19,26.7,11.5,12.72,0.64,-9.7,322,-2.2,495.5,749.2,143.6,216.5,52.8,49.3,175.4,156.7
62381,18,32.1477328,-80.9598486,5895.9,18587,134.9,238.9,0.378,7.4,15.32,26.7,11.4,12.7,0.63,-9.9,322.1,-2.4,493.8,747.8,143.8,216.4,52.8,49.3,175.4,156.5
62382,18,32.1488196,-80.9591181,5921.1,18670,135.2,239.09,0.379,7.3,15.49,26.7,11.2,12.49,0.38,-10,322.3,-2.4,492.2,746.2,144.2,216.2,52.8,48.9,175.4,156.2
62383,18,32.1499086,-80.9587325,5946.5,18747,135.5,239.09,0.379,7.2,15.61,26.7,11.1,12.32,0.15,-10.2,322.3,-2.7,490.6,744.6,144.6,216.1,52.8,48.7,175.4,156
62384,18,32.151004,-80.9580053,5971.9,18827,135.9,239.48,0.379,7.1,15.62,26.7,11.1,12.06,0.03,-10.6,322.2,-3,489,742.9,145.2,216.1,52.8,48.4,175.4,156
62385,18,32.1520989,-80.9572793,5997,18902,136.2,239.68,0.38,6.9,15.56,26.7,11.1,11.74,0.02,-10.8,322.2,-3.2,487.4,741.1,145.7,216.1,52.8,48.1,175.4,156.2
62386,18,32.1531976,-80.9565545,6021.6,18980,136.7,239.68,0.38,6.7,15.53,26.6,11.1,11.27,-0.15,-11,322.3,-3.4,485.9,741.8,146.6,215.9,52.8,47.6,175.4,156.3
62387,18,32.1543011,-80.9561745,6045.8,19050,137.3,240.65,0.382,6.4,15.61,26.6,11,10.96,0.04,-11.2,322.3,-3.6,484.5,738.7,147.3,215.8,52.8,47.4,175.4,156.4
62388,18,32.1554093,-80.9554526,6069.3,19117,137.8,240.65,0.382,6.3,15.69,26.5,10.8,10.83,0.09,-11.5,322.2,-3.9,483.1,738.7,148.1,215.5,52.8,47.2,175.4,156.4
62389,18,32.1565222,-80.9547323,6092,19187,138.3,241.04,0.383,6.2,15.81,26.5,10.7,10.79,-0.33,-11.8,322.1,-4.1,481.7,736.1,148.8,215.4,52.8,47.1,175.5,156.1
62390,18,32.1576393,-80.9540129,6114,19245,138.7,242.01,0.385,6.3,15.94,26.4,10.5,10.86,-0.61,-12,322.1,-4.3,480.5,735,148.9,215.1,52.8,47,175.5,155.7
62391,18,32.1587603,-80.9532941,6135.8,19317,139.2,242.2,0.385,6.3,15.99,26.4,10.4,10.93,-0.83,-12.2,322.1,-4.4,479.1,733.9,149.7,215,52.8,47,175.5,155.4
62392,18,32.1598864,-80.9529184,6157.5,19390,139.5,242.4,0.385,6.3,16.02,26.3,10.3,10.9,-0.76,-12.5,322,-4.7,477.7,731.9,150.1,214.8,52.8,47,175.5,155.5
62393,18,32.1610155,-80.9521998,6179.4,19460,139.9,242.59,0.386,6.3,16.02,26.2,10.2,10.83,-0.51,-12.3,322.5,-4.5,476.2,730.8,150.7,214.6,52.8,47,175.5,155.7
62394,18,32.1621489,-80.9514819,6201.4,19530,140.4,243.37,0.387,6.3,15.92,26.2,10.2,10.68,0.1,-12.5,322.5,-4.7,474.9,730.3,151.4,214.7,52.8,47.1,175.5,156.4
62395,18,32.1632863,-80.9507654,6223.4,19597,140.9,243.76,0.388,6.3,15.79,26.1,10.3,10.61,0.25,-12.7,322.5,-4.9,473.6,729.5,152.2,214.6,52.8,47.1,175.5,156.7
62396,18,32.1644279,-80.9500506,6245.3,19667,141.4,244.34,0.389,6.2,15.81,26.1,10.3,10.46,0.22,-13.3,322,-5.5,472.2,727.8,152.8,214.5,52.8,47,175.5,156.7
62397,18,32.165574,-80.9493376,6267,19735,142,245.12,0.39,6.1,15.95,26.1,10.1,9.99,-0.25,-13.4,322.2,-5.5,470.8,725.9,153.5,214.4,52.8,46.4,175.5,156.4
62398,18,32.1667258,-80.9489699,6288.7,19802,142.7,246.48,0.392,5.8,16.05,26,10,9.4,-0.66,-13.6,322.2,-5.6,469.5,723.3,154.1,214.2,52.8,45.6,175.5,156.2
62399,18,32.1678845,-80.9482604,6310,19865,143.5,247.26,0.394,5.4,15.97,25.9,10,8.81,-1.14,-13.8,322.2,-5.7,468.3,723.2,155.2,214,52.8,44.9,175.5,156.2
62400,18,32.1690525,-80.9475523,6330.5,19922,144.4,248.62,0.396,5.1,15.77,25.8,10,8.18,-1.66,-13.8,322.4,-5.6,467.1,721.7,156.3,214,52.8,44.2,175.5,156.3
62401,18,32.1702281,-80.9468447,6350,19975,145.3,250.17,0.399,4.7,15.6,25.6,10,7.57,-2.26,-13.9,322.5,-5.6,466.1,721.1,157.3,213.8,52.8,43.4,175.5,156.2
62402,18,32.1714134,-80.9461367,6368.1,20025,146.3,251.92,0.402,4.3,15.5,25.4,9.9,6.99,-2.88,-14.4,322.1,-6,465.1,720.7,158.3,213.5,52.8,42.6,175.5,156.1
62403,18,32.1726092,-80.945428,6385.1,20070,147.3,253.67,0.405,4,15.43,25.2,9.8,6.45,-3.39,-14.5,322.1,-6,464.3,718,159.3,213.2,52.8,41.9,175.5,156
62404,18,32.1738161,-80.9447179,6400.8,20112,148.4,256,0.409,3.7,15.23,24.9,9.7,5.98,-3.85,-14.8,321.9,-6.1,463.4,719.1,160.2,212.8,52.8,41.3,175.5,156.1
62405,18,32.1750347,-80.9440057,6415.4,20152,149.6,258.14,0.412,3.5,14.86,24.6,9.8,5.65,-3.03,-14.6,322.3,-5.8,462.7,716.9,161.5,212.6,52.8,41.4,175.5,157.2
62406,18,32.1762651,-80.9436351,6428.8,20185,150.7,260.47,0.416,3.4,14.35,24.4,10,5.47,-1.82,-14.8,322.2,-5.8,462,716.9,162.7,212.7,52.8,41.7,175.5,158.7
62407,18,32.1775068,-80.9429209,6441.5,20225,151.8,262.42,0.419,3.4,14.1,24.2,10.1,5.33,-1.42,-14.9,322.2,-5.8,461.3,717.3,163.9,212.5,52.8,41.7,175.6,159.3
62408,18,32.17876,-80.9422074,6453.6,20262,153,264.95,0.423,3.3,14.29,24,9.8,5.2,-0.91,-15,322.2,-5.8,460.5,715.9,164.7,212,52.9,41.8,175.6,159.5
62409,18,32.180024,-80.9414953,6465.5,20295,154.1,266.89,0.426,3.3,14.52,23.9,9.4,5.21,-0.22,-15.1,322.2,-5.7,459.9,714.5,165.6,211.7,52.9,42,175.6,159.8
62410,18,32.1812984,-80.9407864,6477.3,20335,155.3,269.22,0.43,3.5,14.51,23.9,9.4,5.38,0.15,-15.2,322.3,-5.6,459.1,714.4,166.8,211.7,52.9,42.3,175.6,160
62411,18,32.1825824,-80.9400808,6489,20370,156.4,270.97,0.434,3.7,14.34,23.8,9.5,5.64,0.32,-15.5,322,-5.9,458.4,712.4,168.1,211.6,52.9,42.6,175.6,160.3
62412,18,32.1838756,-80.9393786,6501,20417,157.4,273.3,0.437,3.9,14.29,23.8,9.5,5.8,0.45,-15.4,322.3,-5.6,457.6,713.1,168.9,211.7,52.9,42.8,175.6,160.4
62413,18,32.1851775,-80.9390232,6513.6,20455,158.4,275.25,0.44,4.1,14.49,23.8,9.3,5.99,0.75,-15.7,322.1,-5.7,456.8,712.5,169.7,211.6,52.9,43.1,175.6,160.4
62414,18,32.1864873,-80.9383286,6527,20505,159.3,277,0.443,4.4,14.7,23.8,9.1,6.29,1.15,-15.6,322.4,-5.5,455.9,711,170.4,211.4,52.9,43.5,175.6,160.3
62415,18,32.1878045,-80.9376388,6541,20555,160.3,278.94,0.447,4.5,14.71,23.8,9.1,6.29,0.83,-16,322.1,-5.8,454.9,710.1,171.4,211.4,52.9,43.4,175.6,160.1
62416,18,32.1891298,-80.9369528,6555.8,20605,161.1,280.88,0.45,4.7,14.68,23.8,9.1,6.48,0.42,-16.2,322.1,-5.8,453.9,710.2,172,211.5,52.9,43.4,175.6,159.7
62417,18,32.1904613,-80.9362703,6571.3,20650,161.9,282.63,0.453,5.1,14.83,23.8,9,7.33,0.24,-16.1,322.4,-5.6,453.1,708.2,172.6,211.3,52.9,44.1,175.6,159.2
62418,18,32.1917973,-80.9355901,6587.1,20697,162.2,283.8,0.455,6,15.06,23.8,8.8,8.77,0.37,-16.2,322.4,-5.6,452.2,708.1,172.4,211.2,52.9,45.5,175.6,158.5
62419,18,32.1931339,-80.9345684,6603.8,20777,162.2,285.36,0.457,7,15.19,23.9,8.7,9.59,0.57,-16.3,322.6,-5.5,450.7,706.8,171.6,211.3,52.9,46.3,175.6,158.2
62420,18,32.1944704,-80.9338917,6622.9,20865,162.4,286.52,0.46,7.4,15.14,23.9,8.8,9.74,0.66,-16.6,322.6,-5.8,449,704.5,171.5,211.4,52.9,46.5,175.6,158.3
62421,18,32.1958081,-80.9332171,6645.3,20950,162.6,287.49,0.461,7.4,15.05,24,8.9,9.49,0.74,-16.7,322.8,-5.8,447.4,704.9,171.5,211.7,52.9,46.3,175.6,158.6
62422,18,32.1971449,-80.9325437,6669.9,21027,162.3,286.52,0.46,7.1,15.07,24,9,8.98,0.62,-16.9,322.8,-6.1,445.9,699.9,171.4,211.7,52.9,45.8,175.6,158.6
62423,18,32.1984786,-80.931871,6695,21095,161.9,285.16,0.458,6.9,15.15,24.1,8.9,9.03,0.63,-17.1,322.9,-6.4,444.6,698.6,171.3,211.8,52.9,45.8,175.6,158.5
62424,18,32.1998096,-80.9311987,6719.5,21182,161.7,284.77,0.457,6.6,15.11,24.2,9.1,8.29,0.55,-17.3,322.9,-6.6,443,697.5,171.2,212,52.9,45.1,175.7,158.8
62425,18,32.2011379,-80.9305272,6743,21247,161.6,284.19,0.457,6.1,15,24.2,9.2,7.87,0.09,-17.8,322.6,-7.1,441.8,695.9,171.4,212,52.9,44.6,175.7,158.7
62426,18,32.202465,-80.9298562,6766,21305,161.5,284,0.456,5.8,14.95,24.2,9.3,7.58,0.03,-17.7,322.9,-7,440.7,694.7,171.3,212.1,52.9,44.3,175.7,158.8
62427,18,32.2037911,-80.9291854,6787.4,21367,161.4,283.8,0.456,5.6,14.94,24.3,9.3,7.34,0.01,-17.9,322.9,-7.3,439.6,693,171.3,212.3,52.9,44.1,175.7,158.9
62428,18,32.2051163,-80.9285148,6807.7,21427,161.3,283.8,0.457,5.4,15.01,24.3,9.3,7.12,0.04,-18.1,322.9,-7.5,438.4,692.4,171.1,212.2,52.9,43.8,175.7,158.9
62429,18,32.2064408,-80.9278441,6827.1,21480,161.2,283.8,0.457,5.4,15.17,24.3,9.1,7.25,0.08,-18.2,323,-7.6,437.5,692.2,170.8,212.1,52.9,43.9,175.7,158.6
62430,18,32.2077638,-80.9271735,6845.8,21537,161,283.22,0.456,5.5,15.4,24.3,8.9,7.47,0.19,-18.6,322.7,-8,436.4,691.2,170.5,211.9,52.9,44.2,175.7,158.5
62431,18,32.2090846,-80.9261597,6864.1,21597,160.8,283.22,0.456,5.6,15.55,24.4,8.8,7.63,0.52,-18.8,322.7,-8.2,435.3,689.8,170.1,212,52.9,44.5,175.7,158.6
62432,18,32.2104054,-80.9254906,6882.6,21665,160.6,283.22,0.456,5.6,15.61,24.4,8.8,7.49,0.8,-18.5,323.3,-8,434.1,687.6,169.7,211.9,52.9,44.4,175.7,158.8
62433,18,32.2117218,-80.9248217,6901.5,21720,160.5,282.83,0.456,5.6,15.78,24.5,8.7,7.44,0.98,-18.8,323.1,-8.2,433,687.7,169.6,212,52.9,44.5,175.7,158.7
62434,18,32.2130365,-80.9241543,6920.8,21782,160.4,282.44,0.455,5.5,16.2,24.6,8.4,7.39,1.24,-19.1,323,-8.5,431.9,687.5,169.4,211.8,52.9,44.5,175.7,158.5
62435,18,32.2143491,-80.9234889,6939.8,21845,160.2,281.86,0.454,5.5,16.61,24.7,8.1,7.32,1.61,-19.3,323,-8.8,430.7,686.5,169.1,211.6,52.9,44.6,175.7,158.4
62436,18,32.2156597,-80.9228263,6958.6,21900,160.2,281.66,0.454,5.4,16.82,24.8,8,7.25,2.01,-19.2,323.3,-8.7,429.7,684.8,169.1,211.6,52.9,44.6,175.7,158.5
62437,18,32.2169682,-80.9221669,6977.3,21955,160.1,281.66,0.454,5.3,16.96,24.9,8,7.14,2.18,-19.3,323.4,-8.8,428.7,683.8,168.9,211.7,52.9,44.6,175.7,158.5
62438,18,32.2182751,-80.9215108,6995.7,22017,160.1,281.27,0.454,5.2,17.33,25.1,7.8,6.96,1.9,-19.4,323.5,-8.9,427.6,682.3,169,211.7,52.9,44.3,175.7,158
62439,18,32.2195804,-80.9205146,7013.9,22072,160.1,281.27,0.454,5,17.89,25.2,7.3,6.72,1.46,-19.5,323.6,-9.1,426.6,682.8,168.7,211.5,52.9,43.9,175.7,157.1
62440,18,32.2208901,-80.9198665,7031.8,22122,160.1,281.27,0.454,4.9,18.27,25.3,7,6.55,0.79,-19.5,323.8,-9.1,425.7,682.3,168.5,211.3,52.9,43.5,175.7,156.2
62441,18,32.222194,-80.9192185,7049.1,22175,160.1,281.27,0.454,4.8,18.34,25.3,7,6.5,-0.16,-19.9,323.5,-9.5,424.8,680.2,168.5,211.3,52.9,43,175.8,155.5
62442,18,32.2234978,-80.9185707,7065.9,22222,160.1,281.47,0.454,4.7,18.26,25.3,7,6.44,-1.11,-19.8,323.8,-9.3,423.9,679.7,168.4,211.3,52.9,42.6,175.8,154.9
62443,18,32.224802,-80.9175783,7082.3,22275,160.1,281.86,0.455,4.6,18.24,25.2,7,6.32,-1.62,-19.9,323.9,-9.5,422.9,678.4,168.2,211.2,52.9,42.3,175.8,154.6
62444,18,32.2261069,-80.9169269,7098.4,22325,160.1,282.63,0.456,4.6,18.37,25.1,6.8,6.19,-1.94,-19.9,324.1,-9.3,422,678.3,167.7,210.9,52.9,42,175.8,154.3
62445,18,32.2274127,-80.916273,7114.3,22377,160.1,282.83,0.457,4.5,18.43,25,6.6,6.09,-2.12,-19.9,324.3,-9.4,421.1,676.9,167.5,210.7,52.9,41.8,175.8,154.2
62446,18,32.2287197,-80.9156163,7129.9,22422,160.1,283.41,0.457,4.4,18.23,24.9,6.7,6,-2.37,-20.2,324.1,-9.6,420.3,675.9,167.3,210.7,52.9,41.6,175.8,154.2
62447,18,32.2300283,-80.9149562,7145.2,22465,160.1,283.61,0.458,4.3,17.92,24.8,6.9,5.89,-2.41,-20.2,324.3,-9.6,419.5,675.7,167.3,210.8,52.9,41.6,175.8,154.6
62448,18,32.2313424,-80.9142954,7160.3,22515,160.1,283.8,0.458,4.3,17.89,24.7,6.8,5.72,-1.86,-20.3,324.4,-9.7,418.6,674.2,167.1,210.6,52.9,41.6,175.8,155.1
62449,18,32.232654,-80.9132863,7175.1,22560,160.2,284.19,0.459,4.1,17.93,24.6,6.7,5.55,-1.04,-20.3,324.5,-9.6,417.8,674,167.1,210.4,52.9,41.8,175.8,155.7
62450,18,32.2339671,-80.9126198,7189.7,22605,160.4,284.97,0.46,4,17.8,24.6,6.8,5.38,-0.36,-20.4,324.6,-9.7,417,672.5,167.1,210.6,52.9,42,175.8,156.4
62451,18,32.2352815,-80.9119534,7203.9,22647,160.5,285.36,0.461,3.9,17.59,24.6,7,5.26,-0.33,-20.4,324.7,-9.7,416.3,671.3,167.2,210.7,52.9,41.9,175.8,156.7
62452,18,32.2365973,-80.9112873,7217.8,22695,160.7,285.74,0.462,3.8,17.51,24.5,7,4.9,-0.4,-20.5,324.8,-9.8,415.4,670.8,167.4,210.6,52.9,41.5,175.8,156.8
62453,18,32.2379152,-80.9106218,7231.3,22730,161,286.33,0.463,3.6,17.61,24.5,6.9,4.65,-0.21,-20.7,324.7,-9.9,414.8,670.6,167.7,210.6,52.9,41.3,175.8,157
62454,18,32.2392352,-80.9099572,7244.5,22765,161.1,286.91,0.464,3.4,17.7,24.5,6.8,4.47,0.19,-20.8,324.7,-9.9,414.2,669.6,167.5,210.5,52.9,41.3,175.8,157.2
62455,18,32.2405551,-80.9092937,7256.9,22800,161,286.91,0.464,3.2,17.6,24.6,7,4.25,0.58,-21,324.6,-10.2,413.5,666.7,167.4,210.8,52.9,41.3,175.8,157.7
62456,18,32.2418764,-80.9086332,7268.6,22830,160.9,286.72,0.464,3.1,17.44,24.6,7.2,4.25,0.78,-20.9,324.8,-10,413,666.4,167.4,210.9,52.9,41.4,175.8,158
62457,18,32.2431927,-80.9076284,7280,22865,160.8,286.72,0.464,3.1,17.43,24.7,7.3,4.19,0.89,-21,324.8,-10.1,412.4,666.8,167.3,211.1,52.9,41.3,175.8,158.1
62458,18,32.244507,-80.9069684,7290.8,22895,160.6,286.33,0.463,3.1,17.58,24.8,7.2,4.17,1.39,-20.9,325.1,-10.1,411.9,666,167.1,211.2,52.9,41.5,175.9,158.4
62459,18,32.2458191,-80.9063107,7301.5,22930,160.5,286.13,0.463,3,17.66,24.9,7.3,4.07,2.05,-21.3,324.7,-10.5,411.2,665.8,167,211.3,52.9,41.7,175.9,158.8
62460,18,32.2471291,-80.9056563,7312.1,22967,160.4,285.94,0.463,3,17.68,25.1,7.4,3.79,2.19,-21.2,325,-10.4,410.6,665,167,211.6,52.9,41.4,175.9,159
62461,18,32.2484378,-80.9050055,7322.6,23020,160.6,286.72,0.464,2.2,17.79,25.2,7.4,2.2,2.62,-21.4,324.9,-10.5,409.7,663.3,167,211.7,52.9,40.1,175.9,159.7
62462,18,32.2497471,-80.9040153,7332.9,23025,160.8,286.52,0.464,1.5,18.07,25.3,7.2,1.74,2.68,-21.4,325,-10.6,409.5,661.9,167.4,211.7,52.9,39.7,175.9,159.6
62463,18,32.2510572,-80.9033736,7341.9,23030,161.1,286.33,0.464,1.2,18.4,25.5,7.1,1.69,2.8,-21.7,324.6,-10.9,409.5,663.3,168,211.7,52.9,39.7,175.9,159.4
62464,18,32.2523701,-80.9027399,7348,23045,161.4,286.72,0.464,1.1,18.59,25.6,7,1.46,2.55,-21.5,324.9,-10.7,409.2,663.4,168.3,211.7,52.9,39.4,175.9,159.1
62465,18,32.2536814,-80.9021095,7352.6,23060,161.7,287.3,0.465,0.9,18.7,25.8,7.1,1.19,1.06,-21.5,325,-10.6,409,662.5,168.6,212,52.9,38.6,175.9,157.9
62466,18,32.2549942,-80.9011395,7356.8,23065,162,287.88,0.466,0.7,18.74,25.8,7.1,0.95,0.01,-21.6,324.9,-10.7,408.9,662.1,168.9,212,52.9,38,175.9,157.2
62467,18,32.2563094,-80.9005146,7360.4,23072,162.4,288.27,0.467,0.6,18.65,25.8,7.2,0.84,-0.81,-21.6,324.9,-10.7,408.7,662.4,169.5,212.1,52.9,37.6,175.9,156.8
62468,18,32.2576276,-80.899547,7363.2,23082,162.7,289.24,0.468,0.3,18.51,25.7,7.2,0.5,-1.13,-21.7,324.8,-10.6,408.6,661.6,169.7,212,52.9,37.1,175.9,156.8
62469,18,32.2589493,-80.8989226,7365.5,23085,163.1,290.02,0.47,0.1,18.39,25.7,7.3,0.24,-1.18,-21.9,324.6,-10.8,408.5,663.5,170.1,212.1,52.9,36.9,175.9,157
62470,18,32.2602749,-80.898298,7367.2,23085,163.5,290.6,0.471,0,18.34,25.6,7.3,0.07,-1.23,-21.8,324.7,-10.6,408.5,662.9,170.6,212,52.9,36.7,175.9,157
62471,18,32.2616042,-80.8973298,7368.1,23082,163.8,291.19,0.472,-0.2,18.33,25.5,7.2,0.05,-1.21,-21.7,324.8,-10.5,408.6,662.6,170.8,211.8,52.9,36.6,175.9,157.1
62472,18,32.262943,-80.8967124,7368.4,23082,164.1,292.16,0.473,-0.2,18.27,25.5,7.2,-0.2,-1,-22,324.4,-10.7,408.6,662.2,170.9,211.9,52.9,36.5,175.9,157.4
62473,18,32.2642795,-80.8960872,7368.2,23080,164.5,293.13,0.475,-0.4,18.17,25.4,7.2,-0.45,-1.06,-21.7,324.8,-10.4,408.6,662.2,171.2,211.8,52.9,36.3,175.9,157.5
62474,18,32.2656196,-80.8951186,7367.7,23075,164.8,293.91,0.476,-0.5,18.1,25.3,7.2,-0.59,-1.21,-21.9,324.5,-10.5,408.7,663.1,171.4,211.6,52.9,36.1,175.9,157.5
62475,18,32.2669634,-80.8944931,7366.8,23067,165.2,294.49,0.477,-0.6,18.05,25.3,7.2,-0.73,-1.31,-22,324.4,-10.6,408.8,661.9,171.9,211.7,52.9,35.9,175.9,157.5
62476,18,32.2683107,-80.8938671,7365.3,23062,165.5,295.27,0.478,-0.7,17.99,25.2,7.2,-0.88,-1.24,-21.7,324.7,-10.2,408.9,661.9,172.1,211.6,52.9,35.8,176,157.7
62477,18,32.2696618,-80.8928974,7363.5,23052,165.9,296.24,0.48,-0.9,17.89,25.1,7.2,-0.98,-1.16,-21.8,324.6,-10.3,409.1,662.2,172.4,211.5,52.9,35.8,176,157.9
62478,18,32.2710166,-80.8922708,7361.2,23040,166.3,296.63,0.481,-0.8,17.83,25.1,7.2,-0.91,-1.13,-21.6,324.8,-10,409.3,661.7,173,211.5,52.9,35.8,176,157.9
62479,18,32.2723754,-80.8916439,7358.6,23030,166.7,297.6,0.482,-0.8,17.78,25,7.2,-0.78,-1.09,-21.7,324.6,-10,409.5,662.5,173.2,211.4,52.9,36,176,158
62480,18,32.2737399,-80.8906762,7355.9,23020,167,298.19,0.483,-0.6,17.72,24.9,7.2,-0.49,-1.04,-21.6,324.7,-9.9,409.7,662.5,173.5,211.2,52.9,36.3,176,158
62481,18,32.2751058,-80.8900488,7353.2,23015,167.3,298.96,0.484,-0.3,17.62,24.9,7.2,-0.14,-1.18,-21.5,324.8,-9.7,409.7,662.7,173.7,211.3,52.9,36.5,176,157.9
62482,18,32.2764753,-80.8890775,7351,23007,167.6,299.35,0.485,0.1,17.56,24.8,7.2,0.66,-1.22,-21.5,324.8,-9.7,409.9,664.3,174.1,211.2,52.9,37.3,176,157.7
62483,18,32.277848,-80.8884488,7349.6,23007,167.9,299.74,0.485,0.8,17.52,24.7,7.2,1.49,-1.03,-21.6,324.6,-9.7,409.9,664.6,174.4,211,52.9,38.1,176,157.7
62484,18,32.2792232,-80.887819,7349.3,23020,168,300.52,0.486,1.5,17.45,24.6,7.2,2.3,-0.81,-21.8,324.4,-10,409.7,664.3,174.2,210.9,52.9,38.9,176,157.7
62485,18,32.2805998,-80.8868452,7351.1,23042,168.2,301.1,0.488,2.2,17.36,24.6,7.3,3.21,-0.69,-21.9,324.4,-9.9,409.3,664.9,174.4,211,52.9,39.8,176,157.5
62486,18,32.2819781,-80.8862139,7355.1,23042,168.2,300.91,0.487,3.8,17.37,24.6,7.2,6.22,-0.47,-21.5,324.9,-9.6,409.2,666.3,174.5,211,52.9,42.7,176,156.7
62487,18,32.2833525,-80.8855805,7361.5,23105,167.4,300.71,0.487,5.7,17.52,24.6,7.1,8.05,-0.16,-21.6,325,-9.6,408.2,665.3,172.9,210.9,52.9,44.5,176,156
62488,18,32.2847191,-80.8849445,7371.3,23175,166.2,300.13,0.486,7.3,17.65,24.7,7,9.96,0.03,-21.7,325.2,-9.8,406.9,663.9,170.9,211.1,52.9,46.2,176,155.2
